% program   : RTKLIB ver.2.4.2
% inp file  : /home/fkarlitepe/Documents/Projects/Estimation-Orbit/precise orbit/ankr0330.20o
% inp file  : /home/fkarlitepe/Documents/Projects/Estimation-Orbit/precise orbit/precise/EKF Sonuçları/GRG0/deneme2.sp3
% inp file  : /home/fkarlitepe/Documents/Projects/Estimation-Orbit/precise orbit/igs20910.clk
% inp file  : /home/fkarlitepe/Documents/Projects/Estimation-Orbit/precise orbit/ankr0330.20n
% obs start : 2020/02/02 00:00:00.0 GPST (week2091      0.0s)
% obs end   : 2020/02/02 23:59:30.0 GPST (week2091  86370.0s)
%
% (x/y/z-ecef=WGS84,Q=1:fix,2:float,3:sbas,4:dgps,5:single,6:ppp,ns=# of satellites)
%  GPST              x-ecef(m)      y-ecef(m)      z-ecef(m)   Q  ns   sdx(m)   sdy(m)   sdz(m)  sdxy(m)  sdyz(m)  sdzx(m) age(s)  ratio
2091     90.000   4121025.7901   2650756.2989   4073150.5460   6   4   3.9449   3.2454  10.1059   3.0076   4.1900   5.4831   0.00    0.0
2091    120.000   4120734.8804   2650292.6020   4074146.2245   5   4   2.9944   2.4501   7.4591   2.2666   3.1168   4.1235   0.00    0.0
2091    150.000   4120462.7977   2649848.0082   4074993.1838   5   4   2.9930   2.4681   7.3757   2.2776   3.1144   4.0982   0.00    0.0
2091    210.000   4119969.0208   2649016.3000   4076257.9593   5   4   2.9584   2.4720   7.1183   2.2706   3.0678   4.0032   0.00    0.0
2091    240.000   4119751.4625   2648635.5865   4076698.4076   5   4   2.9450   2.4772   7.0057   2.2703   3.0504   3.9630   0.00    0.0
2091    300.000   4121025.8474   2650756.3355   4073150.8086   6   1   3.9217   3.2350   9.5153   2.9891   4.2381   5.5490   0.00    0.0
2091    330.000   4119230.7702   2647669.5497   4077361.5874   5   4   2.9202   2.5067   6.7280   2.2828   3.0211   3.8697   0.00    0.0
2091    360.000   4119104.1290   2647415.4494   4077389.5715   5   4   2.9170   2.5214   6.6543   2.2915   3.0187   3.8473   0.00    0.0
2091    390.000   4119003.9848   2647200.4194   4077335.4337   5   4   2.9161   2.5384   6.5889   2.3022   3.0196   3.8287   0.00    0.0
2091    420.000   4118930.7347   2647027.0635   4077205.4080   5   4   2.9173   2.5577   6.5312   2.3149   3.0237   3.8138   0.00    0.0
2091    450.000   4118884.5046   2646897.8788   4077004.4760   5   4   2.9207   2.5793   6.4809   2.3297   3.0310   3.8023   0.00    0.0
2091    480.000   4118866.5920   2646816.0013   4076739.3478   5   4   2.9079   2.5831   6.3866   2.3290   3.0169   3.7688   0.00    0.0
2091    540.000   4118918.8510   2646804.8755   4076039.5783   5   4   2.8889   2.5970   6.2219   2.3334   2.9982   3.7129   0.00    0.0
2091    600.000   4119092.3598   2647015.4323   4075146.6414   5   4   2.8786   2.6199   6.0878   2.3458   2.9920   3.6712   0.00    0.0
2091    660.000   4119391.5869   2647469.3925   4074097.3233   5   4   2.8775   2.6532   5.9840   2.3670   2.9991   3.6439   0.00    0.0
2091    720.000   4119819.9191   2648188.6973   4072923.6133   5   4   2.8843   2.6959   5.9057   2.3960   3.0176   3.6288   0.00    0.0
2091    840.000   4121078.6787   2650512.0911   4070319.8840   5   4   2.8694   2.7463   5.6872   2.4250   3.0185   3.5649   0.00    0.0
2091    870.000   4121479.6578   2651293.6144   4069634.8021   5   4   2.8663   2.7593   5.6369   2.4327   3.0200   3.5506   0.00    0.0
2091    930.000   4121691.8219   2651587.8829   4070503.3975   5   4   2.8661   2.7912   5.5538   2.4535   3.0293   3.5302   0.00    0.0
2091    960.000   4121447.4994   2651003.3536   4071822.0919   5   4   2.8690   2.8100   5.5207   2.4668   3.0371   3.5240   0.00    0.0
2091   1140.000   4120223.3889   2647996.2826   4076919.5087   5   4   2.8756   2.9087   5.3101   2.5342   3.0720   3.4778   0.00    0.0
2091   1170.000   4120069.0801   2647602.9857   4077358.3847   5   4   2.8750   2.9226   5.2732   2.5435   3.0759   3.4687   0.00    0.0
2091   1230.000   4119813.4500   2646933.4614   4077937.1682   5   4   2.8795   2.9585   5.2148   2.5681   3.0916   3.4583   0.00    0.0
2091   1260.000   4119710.0704   2646660.7267   4078082.1854   5   4   2.8845   2.9806   5.1930   2.5835   3.1035   3.4569   0.00    0.0
2091   1410.000   4119494.8638   2646034.7891   4077578.6725   5   4   2.9042   3.0835   5.0779   2.6543   3.1565   3.4452   0.00    0.0
2091   1470.000   4119558.5444   2646175.8413   4076874.5862   5   4   2.9054   3.1148   5.0203   2.6751   3.1694   3.4334   0.00    0.0
2091   1560.000   4119828.6227   2646872.3119   4075368.3392   5   4   2.9205   3.1825   4.9666   2.7214   3.2075   3.4331   0.00    0.0
2091   1680.000   4120539.2826   2648820.1038   4072652.9145   5   4   2.9489   3.2876   4.9176   2.7930   3.2709   3.4441   0.00    0.0
2091   1710.000   4120782.7501   2649507.1623   4071866.4953   5   4   2.9489   3.3025   4.8909   2.8027   3.2772   3.4386   0.00    0.0
2091   1740.000   4121053.0055   2650279.5789   4071041.6773   5   4   2.9505   3.3200   4.8682   2.8142   3.2858   3.4352   0.00    0.0
2091   1770.000   4121349.4344   2651139.4110   4070179.6352   5   4   2.9538   3.3402   4.8493   2.8276   3.2968   3.4338   0.00    0.0
2091   3270.000   4120638.0676   2645966.9404   4077330.8863   5   4   3.4374   4.8602   4.6132   3.8546   4.1622   3.7270   0.00    0.0
2091   3360.000   4121025.7811   2650756.2900   4073150.6228   6   1   3.9107   3.2288   9.4796   2.9792   4.2185   5.5272   0.00    0.0
2091   4260.000   4129110.3888   2656883.9089   4084211.7181   5   4   4.1137   3.5951   4.7377   3.5505   3.5051   4.1707   0.00    0.0
2091   4290.000   4128283.4514   2656260.8377   4082711.0273   5   4   4.0672   3.5749   4.6734   3.5118   3.4472   4.1110   0.00    0.0
2091   4320.000   4127408.7126   2655621.5873   4081086.0155   5   4   4.0255   3.5594   4.6148   3.4777   3.3935   4.0563   0.00    0.0
2091   4350.000   4126490.5095   2654971.3745   4079341.3605   5   4   3.9883   3.5485   4.5615   3.4477   3.3440   4.0063   0.00    0.0
2091   4380.000   4125531.7804   2654314.5332   4077481.2199   5   4   3.9289   3.5159   4.4814   3.3983   3.2749   3.9331   0.00    0.0
2091   4410.000   4124537.0562   2653656.3097   4075510.8928   5   4   3.8742   3.4876   4.4069   3.3531   3.2099   3.8649   0.00    0.0
2091   4440.000   4123508.9107   2653000.6479   4073433.7111   5   4   3.8242   3.4639   4.3380   3.3124   3.1493   3.8017   0.00    0.0
2091   4470.000   4122450.9232   2652352.4111   4071253.7974   5   4   3.7787   3.4446   4.2745   3.2759   3.0928   3.7432   0.00    0.0
2091   4500.000   4121361.9209   2651718.4323   4068956.1251   5   4   3.7374   3.4297   4.2161   3.2434   3.0402   3.6892   0.00    0.0
2091   4530.000   4123401.9120   2653551.1849   4071623.1506   5   4   3.7043   3.4207   4.1660   3.2180   2.9942   3.6432   0.00    0.0
2091   4560.000   4124713.4333   2654771.2621   4073982.9591   5   4   3.6748   3.4158   4.1205   3.1963   2.9516   3.6012   0.00    0.0
2091   4590.000   4125883.5038   2655852.6724   4076112.8473   5   4   3.6491   3.4149   4.0792   3.1781   2.9122   3.5629   0.00    0.0
2091   4620.000   4126919.3591   2656802.4449   4078021.7661   5   4   3.6268   3.4180   4.0420   3.1634   2.8759   3.5283   0.00    0.0
2091   4650.000   4127824.8098   2657625.6540   4079715.9982   5   4   3.6079   3.4250   4.0087   3.1520   2.8425   3.4970   0.00    0.0
2091   4710.000   4129270.5457   2658918.0605   4082492.0584   5   4   3.5338   3.3992   3.8993   3.0965   2.7444   3.3973   0.00    0.0
2091   4740.000   4129822.1279   2659398.9787   4083588.0664   5   4   3.5023   3.3923   3.8510   3.0742   2.7003   3.3532   0.00    0.0
2091   4770.000   4130266.3083   2659777.0352   4084498.0716   5   4   3.4742   3.3893   3.8067   3.0552   2.6593   3.3126   0.00    0.0
2091   4800.000   4130607.0128   2660056.9503   4085227.4708   5   4   3.4495   3.3900   3.7663   3.0395   2.6211   3.2754   0.00    0.0
2091   5520.000   4115906.7314   2648862.4851   4071932.7013   5   4   4.3909   2.6809   2.9324   3.3200   2.6797   3.4890   0.00    0.0
2091   5970.000   4108501.1652   2642167.0565   4074069.0623   5   4   4.8304   3.2948   2.9380   3.8987   2.9941   3.6818   0.00    0.0
2091   6360.000   4117113.3954   2648736.0931   4069789.4388   5   4   5.4762   4.1751   3.0747   4.7052   3.4708   4.0272   0.00    0.0
2091   6390.000   4114883.3067   2647053.3164   4070098.2243   5   4   5.5715   4.2867   3.1074   4.8115   3.5377   4.0851   0.00    0.0
2091   6480.000   4108946.4543   2642233.6794   4070745.9561   5   4   5.8260   4.6080   3.1867   5.1088   3.7209   4.2346   0.00    0.0
2091   6510.000   4107228.7649   2640726.9359   4070874.6205   5   4   5.8596   4.6765   3.1864   5.1641   3.7505   4.2481   0.00    0.0
2091   6600.000   4102903.0977   2636611.9144   4071019.2311   5   4   6.0430   4.9588   3.2260   5.4078   3.8927   4.3451   0.00    0.0
2091   6630.000   4101752.0268   2635405.2304   4070994.3534   5   4   6.1362   5.0834   3.2545   5.5198   3.9610   4.3992   0.00    0.0
2091   6660.000   4100753.9001   2634296.8828   4070936.2192   5   4   6.2452   5.2239   3.2902   5.6474   4.0397   4.4639   0.00    0.0
2091   6690.000   4099914.6105   2633297.9455   4070847.3969   5   4   6.3705   5.3811   3.3332   5.7914   4.1291   4.5394   0.00    0.0
2091   6720.000   4099241.0968   2632420.5529   4070730.9003   5   4   6.5127   5.5559   3.3837   5.9523   4.2298   4.6259   0.00    0.0
2091   6750.000   4098739.9961   2631677.1241   4070589.3509   5   4   6.6720   5.7492   3.4416   6.1310   4.3420   4.7237   0.00    0.0
2091   6780.000   4098414.9124   2631077.9694   4070423.3867   5   4   6.7192   5.8451   3.4454   6.2063   4.3830   4.7445   0.00    0.0
2091   6810.000   4130832.9904   2656511.1926   4091817.5309   5   4   3.4997   4.1417   3.2158   3.6032   2.6014   2.7487   0.00    0.0
2091   6840.000   4098346.0443   2630387.5418   4070044.4163   5   4   6.8588   6.0831   3.4738   6.4019   4.4950   4.8165   0.00    0.0
2091   6870.000   4098615.5529   2630324.6032   4069834.8380   5   4   6.9542   6.2288   3.4994   6.5254   4.5679   4.8694   0.00    0.0
2091   6930.000   4099821.1934   2630859.3984   4069399.2774   5   4   7.2039   6.5836   3.5765   6.8329   4.7532   5.0136   0.00    0.0
2091   6960.000   4128337.5634   2654679.6589   4086556.4974   5   4   3.6176   4.4653   3.1051   3.8231   2.6330   2.7221   0.00    0.0
2091   6990.000   4101992.3045   2632411.0649   4068967.3003   5   4   7.5380   7.0327   3.6891   7.2289   4.9952   5.2122   0.00    0.0
2091   7020.000   4103489.3699   2633640.1423   4068773.8925   5   4   7.7380   7.2956   3.7590   7.4621   5.1387   5.3325   0.00    0.0
2091   7050.000   4105275.4035   2635201.9013   4068598.3110   5   4   7.9613   7.5864   3.8382   7.7208   5.2981   5.4674   0.00    0.0
2091   7080.000   4107377.7843   2637134.7832   4068452.4668   5   4   8.0555   7.7540   3.8591   7.8543   5.3741   5.5165   0.00    0.0
2091   7110.000   4109812.3794   2639468.7458   4068340.2508   5   4   8.1721   7.9471   3.8893   8.0112   5.4650   5.5798   0.00    0.0
2091   7140.000   4112607.7119   2642246.3791   4068272.7951   5   4   8.3111   8.1664   3.9287   8.1923   5.5712   5.6575   0.00    0.0
2091   7170.000   4115790.7845   2645510.8493   4068259.4011   5   4   8.4743   8.4146   3.9780   8.3996   5.6939   5.7504   0.00    0.0
2091   7200.000   4121379.2131   2651168.2431   4069432.9951   5   4   3.8782   5.1306   2.9625   4.2782   2.7343   2.7186   0.00    0.0
2091   7230.000   4117573.6880   2647898.8732   4068660.0998   5   4   8.9009   9.0257   4.1171   8.9206   6.0064   5.9996   0.00    0.0
2091   7320.000   4104932.7116   2634754.4959   4067240.3412   5   4   9.8201  10.2805   4.4342  10.0082   6.6649   6.5470   0.00    0.0
2091   7350.000   4100876.0703   2630285.4986   4066663.6287   5   4  10.2030  10.7978   4.5685  10.4575   6.9373   6.7760   0.00    0.0
2091   7470.000   4133123.0374   2661540.6800   4088622.8041   5   4   4.4249   3.1857   3.6767   3.4669   2.6425   3.6247   0.00    0.0
2091   7500.000   4133954.6260   2662289.9248   4089769.1415   5   4   4.3919   3.1865   3.6506   3.4528   2.6298   3.5956   0.00    0.0
2091   7530.000   4134677.6445   2662957.1367   4090704.9106   5   4   4.3626   3.1893   3.6281   3.4411   2.6193   3.5700   0.00    0.0
2091   7560.000   4135286.0853   2663535.8335   4091430.2118   5   4   4.3364   3.1939   3.6086   3.4314   2.6107   3.5473   0.00    0.0
2091   7590.000   4135774.4972   2664019.7166   4091945.1088   5   4   4.3134   3.2003   3.5920   3.4239   2.6040   3.5275   0.00    0.0
2091   7620.000   4136137.8888   2664402.8259   4092249.9136   5   4   4.2936   3.2084   3.5783   3.4184   2.5993   3.5106   0.00    0.0
2091   7680.000   4136472.7042   2664843.5308   4092233.3509   5   4   4.2299   3.2089   3.5312   3.3892   2.5750   3.4563   0.00    0.0
2091   7800.000   4135476.8895   2664265.8380   4089735.1571   5   4   4.0766   3.1889   3.4180   3.3078   2.5089   3.3270   0.00    0.0
2091   7830.000   4134865.0981   2663786.2385   4088608.0991   5   4   4.0470   3.1889   3.3975   3.2933   2.4978   3.3026   0.00    0.0
2091   7860.000   4134104.3733   2663162.7083   4087284.5845   5   4   4.0206   3.1909   3.3799   3.2810   2.4887   3.2811   0.00    0.0
2091   7890.000   4133193.5216   2662390.6287   4085767.1782   5   4   3.9974   3.1948   3.3650   3.2711   2.4817   3.2624   0.00    0.0
2091   7920.000   4132131.2786   2661465.0986   4084058.9168   5   4   3.9774   3.2009   3.3528   3.2635   2.4768   3.2466   0.00    0.0
2091   7950.000   4130917.2320   2660381.8560   4082162.5845   5   4   3.9605   3.2090   3.3432   3.2582   2.4739   3.2335   0.00    0.0
2091   7980.000   4129550.9756   2659136.7298   4080081.1600   5   4   3.9155   3.1969   3.3110   3.2305   2.4526   3.1964   0.00    0.0
2091   8370.000   4130653.3848   2662637.9133   4084553.7776   5   5   3.4053   2.7935   3.0378   2.7829   2.4080   2.9361   0.00    0.0
2091   8940.000   4126394.3670   2657299.9270   4074859.3363   5   4  17.7505  15.6654  11.9147  16.6183  13.5566  14.4756   0.00    0.0
2091   9630.000   4127361.6014   2662874.2838   4079429.8373   5   4   5.1438   5.4891   9.0917   5.1112   6.6283   6.5872   0.00    0.0
2091   9690.000   4126634.9835   2661481.1548   4077969.3507   5   4   5.1389   5.6100   9.0389   5.1666   6.6939   6.5681   0.00    0.0
2091   9840.000   4123717.2081   2655630.0072   4072404.9561   5   4   5.0514   5.8356   8.7785   5.2252   6.7536   6.4223   0.00    0.0
2091   9900.000   4122090.8803   2652253.2063   4069410.8805   5   4   5.0027   5.9115   8.6541   5.2328   6.7569   6.3466   0.00    0.0
2091   9930.000   4122039.1384   2653007.2164   4069688.1835   5   4   4.9913   5.9669   8.6116   5.2517   6.7763   6.3244   0.00    0.0
2091   9960.000   4122144.0056   2653797.0841   4070327.1604   5   4   4.9819   6.0250   8.5738   5.2726   6.7984   6.3051   0.00    0.0
2091   9990.000   4122258.3746   2654552.1541   4070940.5994   5   4   4.9753   6.0870   8.5415   5.2964   6.8243   6.2894   0.00    0.0
2091  10020.000   4122380.3454   2655270.7067   4071526.1590   5   4   4.9713   6.1532   8.5147   5.3233   6.8541   6.2773   0.00    0.0
2091  10200.000   4123137.6630   2658658.1206   4074274.8407   5   4   4.8117   6.3777   8.1203   5.3274   6.8307   6.0294   0.00    0.0
2091  10440.000   4123648.4525   2659932.0577   4075199.2254   5   4   4.5989   6.6755   7.6308   5.3160   6.7839   5.7060   0.00    0.0
2091  10470.000   4123634.4720   2659766.5996   4075051.6207   5   4   4.5622   6.6971   7.5545   5.3008   6.7611   5.6531   0.00    0.0
2091  10500.000   4123599.1147   2659519.7154   4074841.3042   5   4   4.5287   6.7231   7.4843   5.2891   6.7428   5.6044   0.00    0.0
2091  10530.000   4123541.2392   2659188.3548   4074567.2956   5   4   4.4986   6.7543   7.4210   5.2813   6.7297   5.5604   0.00    0.0
2091  10560.000   4123459.7504   2658769.9291   4074228.6514   5   4   4.4717   6.7903   7.3636   5.2769   6.7213   5.5205   0.00    0.0
2091  10620.000   4123222.4375   2657661.1592   4073354.9754   5   4   4.4267   6.8766   7.2665   5.2787   6.7186   5.4527   0.00    0.0
2091  10710.000   4125626.7234   2655356.3377   4073342.0056   5   4  11.0419   6.6078   2.9535  -7.3177  -2.5933   5.0711   0.00    0.0
2091  10740.000   4122432.9401   2654283.3110   4070812.0790   5   4   4.2659   6.9290   6.9533   5.1869   6.5933   5.2267   0.00    0.0
2091  10800.000   4121025.7636   2650756.2787   4073150.5822   6   1   3.9026   3.2247   9.4618   2.9724   4.2073   5.5140   0.00    0.0
2091  10890.000   4121279.8935   2652740.3288   4069755.5369   5   4   4.1189   7.0773   6.6534   5.1349   6.5138   5.0127   0.00    0.0
2091  10950.000   4121006.0272   2653148.0673   4070272.8842   5   4   4.0877   7.1863   6.5813   5.1496   6.5265   4.9625   0.00    0.0
2091  11010.000   4120842.9826   2653561.6097   4070780.2943   5   4   4.0018   7.1913   6.4149   5.0881   6.4427   4.8420   0.00    0.0
2091  11040.000   4120797.4080   2653764.3690   4071022.2096   5   4   3.9635   7.2014   6.3406   5.0628   6.4082   4.7880   0.00    0.0
2091  11070.000   4120772.8286   2653960.7240   4071252.1055   5   4   3.9284   7.2170   6.2722   5.0415   6.3788   4.7381   0.00    0.0
2091  11130.000   4120776.0409   2654322.3080   4071662.2424   5   4   3.8678   7.2659   6.1535   5.0108   6.3359   4.6511   0.00    0.0
2091  11400.000   4125595.1709   2654317.1636   4074199.9131   5   4   5.4865   7.1884   6.2404   6.0309   6.5437   5.4760   0.00    0.0
2091  11430.000   4125430.1562   2654212.4159   4073951.5625   5   4   5.5073   7.1842   6.2062   6.0440   6.5225   5.4756   0.00    0.0
2091  11490.000   4124965.2530   2653903.6393   4073281.5485   5   4   5.5584   7.1906   6.1512   6.0813   6.4936   5.4846   0.00    0.0
2091  11550.000   4124310.3918   2653451.3566   4072373.8136   5   4   5.6226   7.2169   6.1135   6.1339   6.4826   5.5066   0.00    0.0
2091  12390.000   4107751.6161   2657004.8140   4066880.3425   5   4  11.9121   1.5779   5.4609  -2.6095  -1.4130   7.9525   0.00    0.0
2091  14490.000   4118954.5410   2652687.1448   4070909.1143   5   4   3.3825   4.0050   5.4961   3.3415   4.3679   3.7764   0.00    0.0
2091  14670.000   4115382.7640   2653538.7097   4073532.6491   5   4   3.4719   4.1328   5.4232   3.4642   4.4166   3.8701   0.00    0.0
2091  14700.000   4115073.8528   2653650.7008   4073820.5677   5   4   3.4859   4.1538   5.4101   3.4834   4.4236   3.8830   0.00    0.0
2091  14760.000   4114682.0988   2653841.0871   4074266.3133   5   4   3.5218   4.2074   5.3980   3.5303   4.4493   3.9170   0.00    0.0
2091  14790.000   4114595.1207   2653917.6944   4074423.6527   5   4   3.5433   4.2396   5.3985   3.5578   4.4674   3.9378   0.00    0.0
2091  14880.000   4114746.0448   2654061.9077   4074629.8044   5   4   3.5939   4.3196   5.3767   3.6247   4.5025   3.9816   0.00    0.0
2091  14970.000   4115475.2674   2654059.8116   4074433.0604   5   4   3.6089   4.3543   5.2980   3.6518   4.4884   3.9814   0.00    0.0
2091  15000.000   4115838.4865   2654022.4646   4074276.8384   5   4   3.6185   4.3730   5.2803   3.6660   4.4908   3.9863   0.00    0.0
2091  15030.000   4116258.9266   2653965.3437   4074075.0272   5   4   3.6307   4.3957   5.2673   3.6832   4.4970   3.9941   0.00    0.0
2091  15150.000   4118480.0901   2653521.4450   4072807.4193   5   4   3.7031   4.5242   5.2562   3.7794   4.5576   4.0510   0.00    0.0
2091  15180.000   4119162.6961   2653352.6295   4072375.0028   5   4   3.6982   4.5255   5.2176   3.7775   4.5409   4.0382   0.00    0.0
2091  15210.000   4119893.0996   2653158.7829   4071895.7998   5   4   3.6955   4.5300   5.1829   3.7780   4.5274   4.0277   0.00    0.0
2091  15270.000   4121491.9511   2652693.0590   4070796.9855   5   4   3.6968   4.5498   5.1260   3.7869   4.5110   4.0145   0.00    0.0
2091  15300.000   4122354.7506   2652410.7289   4070157.8551   5   4   3.7010   4.5652   5.1038   3.7953   4.5081   4.0119   0.00    0.0
2091  15330.000   4120467.5952   2652016.0990   4069274.5668   5   4   3.7058   4.5849   5.0824   3.8060   4.5070   4.0091   0.00    0.0
2091  15360.000   4119110.7863   2651864.3892   4069516.6349   5   4   3.7128   4.6080   5.0648   3.8192   4.5091   4.0087   0.00    0.0
2091  15390.000   4117873.7717   2651729.8391   4069754.0186   5   4   2.1789   2.8213   3.0526   2.3139   2.7460   2.3880   0.00    0.0
2091  15420.000   4116754.6419   2651612.2328   4069985.7841   5   4   2.1965   2.8559   3.0622   2.3376   2.7662   2.4031   0.00    0.0
2091  15450.000   4115752.1558   2651511.3352   4070211.2794   5   4   2.2183   2.8970   3.0780   2.3661   2.7922   2.4229   0.00    0.0
2091  15510.000   4114088.9729   2651358.3176   4070639.4845   5   4   2.1772   2.8606   2.9865   2.3275   2.7305   2.3670   0.00    0.0
2091  15570.000   4112866.8833   2651265.7340   4071027.6374   5   4   2.1532   2.8489   2.9220   2.3081   2.6926   2.3304   0.00    0.0
2091  15600.000   4112415.9833   2651240.7160   4071203.6066   5   4   2.1479   2.8530   2.9001   2.3060   2.6830   2.3198   0.00    0.0
2091  15630.000   4112069.0133   2651229.0133   4071365.8011   5   4   2.1479   2.8650   2.8860   2.3100   2.6806   2.3150   0.00    0.0
2091  15660.000   4111823.6125   2651229.8078   4071512.6828   5   4   2.1523   2.8838   2.8785   2.3191   2.6843   2.3152   0.00    0.0
2091  15690.000   4111677.9255   2651242.5553   4071643.2418   5   4   2.1610   2.9094   2.8775   2.3333   2.6941   2.3203   0.00    0.0
2091  15720.000   4111629.8467   2651266.5145   4071756.0998   5   4   2.1740   2.9417   2.8826   2.3525   2.7098   2.3300   0.00    0.0
2091  15750.000   4111677.0433   2651300.8750   4071849.8687   5   4   2.1911   2.9805   2.8936   2.3765   2.7311   2.3443   0.00    0.0
2091  15810.000   4112048.9111   2651397.5410   4071974.9497   5   4   2.1418   2.9353   2.7995   2.3278   2.6616   2.2803   0.00    0.0
2091  15870.000   4112776.4854   2651525.7306   4072007.7403   5   4   2.1103   2.9166   2.7323   2.2994   2.6168   2.2365   0.00    0.0
2091  15900.000   4113268.3725   2651599.5352   4071986.3620   5   4   2.1012   2.9175   2.7086   2.2929   2.6035   2.2220   0.00    0.0
2091  15930.000   4113843.0568   2651678.7914   4071938.3679   5   4   2.0970   2.9263   2.6918   2.2922   2.5970   2.2130   0.00    0.0
2091  16020.000   4116042.6788   2651939.4084   4071621.1802   5   4   2.1100   2.9940   2.6778   2.3200   2.6125   2.2139   0.00    0.0
2091  16080.000   4117883.2844   2652121.3596   4071251.5382   5   4   3.5998   4.8965   4.3779   3.8217   4.2507   3.6879   0.00    0.0
2091  16110.000   4121025.8144   2650756.3165   4073150.7242   6   1   3.8954   3.2199   9.4384   2.9653   4.1933   5.4996   0.00    0.0
2091  16140.000   4120004.7120   2652300.8681   4070744.6243   5   4   3.5585   4.8787   4.2891   3.7826   4.1899   3.6275   0.00    0.0
2091  16170.000   4121167.4767   2652387.9900   4070438.3634   5   4   3.5413   4.8758   4.2502   3.7671   4.1645   3.6012   0.00    0.0
2091  21120.000   4093971.2793   2641716.5012   4075409.8600   5   4  13.8178   5.7051   2.2649   8.8201   2.8073   4.0771   0.00    0.0
2091  21150.000   4094943.9129   2642198.3259   4075510.5707   5   4  13.5496   5.5908   2.2763   8.6415   2.7846   4.0293   0.00    0.0
2091  21180.000   4096087.6091   2642738.7940   4075551.3415   5   4  13.0265   5.3710   2.2438   8.3001   2.7101   3.9073   0.00    0.0
2091  21240.000   4098808.8252   2643955.8519   4075448.4892   5   4  12.1496   5.0041   2.1954   7.7277   2.5912   3.7083   0.00    0.0
2091  21300.000   4101999.7676   2645298.6790   4075094.7101   5   4  11.4766   4.7243   2.1691   7.2880   2.5086   3.5627   0.00    0.0
2091  21360.000   4105551.6435   2646710.1569   4074484.9817   5   4  10.9869   4.5231   2.1656   6.9674   2.4605   3.4668   0.00    0.0
2091  21390.000   4107436.5314   2647427.0438   4074083.0523   5   4  10.7988   4.4467   2.1714   6.8437   2.4474   3.4342   0.00    0.0
2091  21450.000   4111377.2827   2648856.8231   4073083.1599   5   4  10.5206   4.3358   2.1975   6.6597   2.4409   3.3963   0.00    0.0
2091  21480.000   4113418.4124   2649560.8714   4072484.8056   5   4  10.1927   4.2026   2.1709   6.4480   2.3951   3.3196   0.00    0.0
2091  21510.000   4115498.2410   2650252.3738   4071820.5541   5   4   9.8997   4.0842   2.1489   6.2590   2.3559   3.2524   0.00    0.0
2091  21540.000   4117610.7046   2650927.5020   4071090.2926   5   4   9.6418   3.9808   2.1318   6.0926   2.3234   3.1949   0.00    0.0
2091  21570.000   4121025.7802   2650756.2868   4073150.6483   6   1   3.8916   3.2164   9.4308   2.9610   4.1866   5.4937   0.00    0.0
2091  21600.000   4121900.2146   2652203.9394   4069412.5277   5   4  15.6623   6.4616   3.7025   9.8704   3.9897   5.5088   0.00    0.0
2091  21630.000   4118576.2441   2650835.6482   4069681.3289   5   4   9.0648   3.7547   2.1095   5.7206   2.2631   3.0725   0.00    0.0
2091  21690.000   4113009.6229   2648646.8275   4070881.5144   5   4   8.8282   3.6678   2.1184   5.5681   2.2517   3.0282   0.00    0.0
2091  21720.000   4110750.6355   2647780.3981   4071428.7946   5   4   8.7466   3.6401   2.1297   5.5154   2.2544   3.0171   0.00    0.0
2091  21750.000   4108807.9498   2647050.2753   4071937.9648   5   4   8.6872   3.6219   2.1454   5.4767   2.2622   3.0127   0.00    0.0
2091  21780.000   4107162.9173   2646447.1922   4072408.1085   5   4   8.4545   3.5315   2.1201   5.3288   2.2277   2.9542   0.00    0.0
2091  21810.000   4105795.6862   2645961.5150   4072837.6067   5   4   8.2504   3.4531   2.0997   5.1992   2.1990   2.9037   0.00    0.0
2091  21840.000   4104687.7238   2645584.1836   4073224.9485   5   4   8.0720   3.3856   2.0840   5.0860   2.1760   2.8608   0.00    0.0
2091  21870.000   4103822.4141   2645306.8993   4073568.9401   5   4   7.9181   3.3286   2.0728   4.9885   2.1584   2.8253   0.00    0.0
2091  21900.000   4103184.5344   2645122.0388   4073868.5301   5   4   7.7879   3.2816   2.0663   4.9060   2.1461   2.7968   0.00    0.0
2091  21930.000   4102758.8271   2645021.9931   4074122.4875   5   4   7.6826   3.2454   2.0651   4.8396   2.1400   2.7763   0.00    0.0
2091  21960.000   4102529.9606   2644999.0807   4074328.7259   5   4   7.5985   3.2183   2.0684   4.7866   2.1389   2.7622   0.00    0.0
2091  21990.000   4102492.1511   2645049.5810   4074489.1588   5   4   7.5344   3.1999   2.0760   4.7464   2.1428   2.7543   0.00    0.0
2091  22020.000   4102631.1088   2645166.3437   4074601.8583   5   4   7.4891   3.1897   2.0880   4.7180   2.1514   2.7523   0.00    0.0
2091  22050.000   4102933.3833   2645342.5627   4074665.0781   5   4   7.4613   3.1871   2.1041   4.7008   2.1646   2.7557   0.00    0.0
2091  22080.000   4103390.3124   2645573.4014   4074678.5872   5   4   7.2889   3.1230   2.0812   4.5927   2.1382   2.7115   0.00    0.0
2091  22140.000   4104729.5179   2646178.0592   4074553.6034   5   4   7.0029   3.0200   2.0481   4.4141   2.0997   2.6421   0.00    0.0
2091  22170.000   4105595.4681   2646542.7296   4074414.4022   5   4   6.8897   2.9813   2.0381   4.3437   2.0878   2.6166   0.00    0.0
2091  22200.000   4106581.9288   2646943.0427   4074223.3177   5   4   6.7955   2.9508   2.0326   4.2854   2.0806   2.5969   0.00    0.0
2091  22230.000   4107681.2710   2647374.8128   4073980.0488   5   4   6.7221   2.9295   2.0321   4.2402   2.0789   2.5840   0.00    0.0
2091  22260.000   4108887.5130   2647834.2144   4073684.1561   5   4   6.6659   2.9157   2.0359   4.2061   2.0818   2.5764   0.00    0.0
2091  22290.000   4110193.6390   2648317.2989   4073335.1886   5   4   6.6263   2.9093   2.0440   4.1823   2.0893   2.5742   0.00    0.0
2091  22320.000   4111594.3777   2648820.6930   4072932.8712   5   4   6.6022   2.9098   2.0561   4.1683   2.1011   2.5769   0.00    0.0
2091  22350.000   4113083.7112   2649340.7973   4072477.0368   5   4   6.5927   2.9169   2.0722   4.1635   2.1172   2.5845   0.00    0.0
2091  22380.000   4114657.4424   2649874.8350   4071968.0557   5   4   6.4555   2.8682   2.0504   4.0791   2.0952   2.5495   0.00    0.0
2091  22440.000   4118030.1023   2650967.9572   4070784.6430   5   4  10.7851   4.8548   3.6145   6.8627   3.7018   4.6242   0.00    0.0
2091  22470.000   4119819.5079   2651520.7818   4070109.3137   5   4  10.6699   4.8251   3.6098   6.7958   3.6976   4.6050   0.00    0.0
2091  22500.000   4121679.9275   2652073.6564   4069368.1788   5   4  10.5658   4.8003   3.6075   6.7361   3.6962   4.5891   0.00    0.0
2091  22530.000   4119400.2098   2651091.7597   4069517.5809   5   4  10.4756   4.7832   3.6069   6.6864   3.6972   4.5743   0.00    0.0
2091  22560.000   4117109.2980   2650113.4643   4069979.9259   5   4   5.9852   2.7318   2.0087   3.7957   2.0567   2.4462   0.00    0.0
2091  22590.000   4115053.9869   2649242.5307   4070415.1774   5   4   5.9619   2.7344   2.0164   3.7837   2.0659   2.4459   0.00    0.0
2091  22620.000   4113226.8790   2648475.2932   4070823.9893   5   4   5.9520   2.7432   2.0279   3.7799   2.0792   2.4501   0.00    0.0
2091  22650.000   4111618.3843   2647806.8461   4071205.2337   5   4   5.9546   2.7579   2.0432   3.7841   2.0966   2.4585   0.00    0.0
2091  22680.000   4110219.2829   2647232.6217   4071557.9997   5   4   5.8443   2.7210   2.0225   3.7178   2.0772   2.4284   0.00    0.0
2091  22710.000   4109019.4697   2646747.4178   4071880.5371   5   4   5.7481   2.6904   2.0055   3.6605   2.0618   2.4026   0.00    0.0
2091  22740.000   4108011.2218   2646347.1287   4072172.0167   5   4   5.6663   2.6662   1.9926   3.6121   2.0506   2.3817   0.00    0.0
2091  22770.000   4107186.2995   2646027.4274   4072431.4577   5   4   5.5985   2.6484   1.9837   3.5725   2.0437   2.3654   0.00    0.0
2091  22800.000   4106537.4609   2645784.5193   4072658.1022   5   4   5.5444   2.6369   1.9789   3.5416   2.0410   2.3537   0.00    0.0
2091  22830.000   4106059.0580   2645615.1528   4072851.8175   5   4   5.5056   2.6326   1.9787   3.5203   2.0433   2.3474   0.00    0.0
2091  22860.000   4105743.0278   2645515.2362   4073011.5414   5   4   5.4796   2.6344   1.9825   3.5071   2.0497   2.3455   0.00    0.0
2091  22890.000   4105581.7995   2645480.5973   4073135.9307   5   4   5.4659   2.6420   1.9901   3.5015   2.0603   2.3477   0.00    0.0
2091  22920.000   4105570.1312   2645508.1928   4073224.6132   5   4   5.4639   2.6554   2.0014   3.5033   2.0749   2.3539   0.00    0.0
2091  22950.000   4105700.7881   2645594.1569   4073276.4554   5   4   5.4730   2.6743   2.0164   3.5120   2.0933   2.3639   0.00    0.0
2091  22980.000   4105969.8884   2645735.9729   4073291.4582   5   4   5.3809   2.6446   1.9968   3.4578   2.0760   2.3388   0.00    0.0
2091  23010.000   4106371.3473   2645930.4285   4073269.0675   5   4   5.3007   2.6203   1.9807   3.4110   2.0623   2.3174   0.00    0.0
2091  23040.000   4106900.8263   2646174.6474   4073208.7833   5   4   5.2331   2.6019   1.9684   3.3721   2.0526   2.3002   0.00    0.0
2091  23070.000   4107552.2152   2646465.3072   4073109.7394   5   4   5.1778   2.5894   1.9601   3.3409   2.0471   2.2873   0.00    0.0
2091  23100.000   4108320.3725   2646799.3127   4072971.1012   5   4   5.1347   2.5828   1.9557   3.3173   2.0457   2.2784   0.00    0.0
2091  23130.000   4109202.1552   2647174.6349   4072793.2251   5   4   5.1053   2.5830   1.9557   3.3024   2.0491   2.2747   0.00    0.0
2091  23160.000   4110192.8286   2647588.3238   4072575.2143   5   4   5.0874   2.5888   1.9595   3.2947   2.0566   2.2748   0.00    0.0
2091  23190.000   4111288.0633   2648037.5670   4072316.4336   5   4   5.0805   2.6002   1.9670   3.2938   2.0680   2.2787   0.00    0.0
2091  23250.000   4113776.3975   2649033.5478   4071676.3552   5   4   5.0975   2.6391   1.9927   3.3113   2.1024   2.2973   0.00    0.0
2091  23280.000   4115162.4347   2649575.4404   4071294.1230   5   4   5.0186   2.6141   1.9739   3.2658   2.0862   2.2753   0.00    0.0
2091  23310.000   4116639.2583   2650143.8141   4070870.2427   5   4   4.9506   2.5945   1.9587   3.2272   2.0738   2.2572   0.00    0.0
2091  23340.000   4118202.8874   2650736.2554   4070404.3638   5   4   4.8939   2.5804   1.9472   3.1955   2.0654   2.2431   0.00    0.0
2091  26730.000   4118224.3638   2647678.6455   4075348.1885   5   4   4.6245   2.9286   4.5600   2.8135   1.1097   3.9802   0.00    0.0
2091  27120.000   4121025.6984   2650756.2283   4073150.4289   6   1   3.8813   3.2101   9.4002   2.9514   4.1682   5.4741   0.00    0.0
2091  27180.000   4121148.9272   2649979.6496   4074716.6098   5   4   4.1667   3.1911   4.5151   2.7377  -1.3024   3.4072   0.00    0.0
2091  27240.000   4120759.8362   2649358.0423   4075983.3413   5   4   4.1036   3.2289   4.4933   2.7373  -1.4474   3.3091   0.00    0.0
2091  27420.000   4119596.8503   2648057.5956   4077936.2112   5   4   3.9904   3.4019   4.5019   2.7988  -1.8599   3.0380   0.00    0.0
2091  27480.000   4119301.7120   2647868.3737   4077977.6966   5   4   3.9577   3.4650   4.5025   2.8286  -1.9820   2.9369   0.00    0.0
2091  27570.000   4119042.9945   2647875.3183   4077472.3222   5   4   3.9039   3.5555   4.4880   2.8750  -2.1464   2.7677   0.00    0.0
2091  27840.000   4120564.4243   2650642.0662   4071877.3655   5   4   3.8704   3.9317   4.5297   3.1358  -2.6561   2.1865   0.00    0.0
2091  27930.000   4121964.9236   2651886.5445   4070245.8274   5   4   3.8864   4.0753   4.5469   3.2508  -2.8214   1.9315   0.00    0.0
2091  27990.000   4121025.7400   2650756.2592   4073150.5396   6   1   3.8728   3.2044   9.3753   2.9431   4.1526   5.4581   0.00    0.0
2091  28080.000   4121531.4970   2650360.0716   4075089.3778   5   4   3.9733   4.3567   4.6078   3.4946  -3.1192   1.3558   0.00    0.0
2091  28110.000   4121365.9617   2650066.9629   4075813.5418   5   4   3.9876   4.4077   4.6099   3.5409  -3.1701   1.2002   0.00    0.0
2091  28140.000   4121183.3847   2649784.1435   4076457.1476   5   4   4.0062   4.4622   4.6150   3.5909  -3.2233   1.0177   0.00    0.0
2091  28230.000   4120566.9309   2649016.7211   4077902.4707   5   4   4.0897   4.6486   4.6487   3.7647  -3.3979  -0.4896   0.00    0.0
2091  28440.000   4119235.5364   2648026.7991   4078431.3110   5   4   4.3967   5.1642   4.7647   4.2648  -3.8413  -1.9080   0.00    0.0
2091  28500.000   4119039.6258   2648055.9316   4077843.7756   5   4   4.5078   5.3257   4.7992   4.4262  -3.9710  -2.1740   0.00    0.0
2091  28680.000   4119549.1018   2649403.0820   4074058.9106   5   4   4.9672   5.9113   4.9578   5.0188  -4.4225  -2.9313   0.00    0.0
2091  28710.000   4119854.7779   2649855.4031   4073126.0835   5   4   5.0458   6.0065   4.9765   5.1175  -4.4915  -3.0438   0.00    0.0
2091  28740.000   4120240.8674   2650385.7033   4072104.9185   5   4   5.1313   6.1075   4.9985   5.2222  -4.5644  -3.1579   0.00    0.0
2091  28770.000   4120714.4187   2650999.5397   4070994.1271   5   4   5.2239   6.2145   5.0239   5.3332  -4.6413  -3.2740   0.00    0.0
2091  28800.000   4121025.7252   2650756.2539   4073150.5117   6   1   3.8717   3.2042   9.3736   2.9425   4.1519   5.4566   0.00    0.0
2091  28830.000   4122076.0767   2652023.8583   4070199.8269   5   4   5.4311   6.4453   5.0875   5.5735  -4.8089  -3.5154   0.00    0.0
2091  28890.000   4122178.8940   2651641.6928   4072313.1175   5   4   5.6692   6.7002   5.1665   5.8403  -4.9946  -3.7695   0.00    0.0
2091  28920.000   4122160.0798   2651427.7572   4073256.8048   5   4   5.8012   6.8386   5.2117   5.9852  -5.0948  -3.9021   0.00    0.0
2091  28950.000   4122098.9008   2651201.4974   4074125.0497   5   4   5.9424   6.9847   5.2608   6.1384  -5.2000  -4.0387   0.00    0.0
2091  29010.000   4121863.2200   2650720.6521   4075635.3586   5   4   6.1907   7.2382   5.3240   6.4092  -5.3744  -4.2777   0.00    0.0
2091  29070.000   4121501.8286   2650218.5514   4076843.6603   5   4   6.4758   7.5230   5.4033   6.7131  -5.5695  -4.5339   0.00    0.0
2091  29190.000   4120531.1471   2649239.7091   4078339.4494   5   4   7.1749   8.2021   5.6151   7.4368  -6.0316  -5.1101   0.00    0.0
2091  29220.000   4120263.1949   2649017.6936   4078520.3773   5   4   7.3797   8.3974   5.6798   7.6449  -6.1636  -5.2697   0.00    0.0
2091  29250.000   4118400.4605   2646812.0498   4078207.9210   5   4  12.6686  14.8612   4.9126  13.5956  -6.7841  -5.7746   0.00    0.0
2091  29520.000   4116789.9191   2646225.7291   4075526.5905   5   4  16.8255  19.0013   5.5774  17.7934  -8.7259  -7.8864   0.00    0.0
2091  29610.000   4117609.5239   2647496.5028   4073092.6151   5   4   8.5589   9.3683   2.4979   8.9261  -4.1653  -3.8724   0.00    0.0
2091  29640.000   4118162.2248   2648197.5893   4072091.3066   5   4   8.8355   9.6342   2.5290   9.1993  -4.2792  -3.9958   0.00    0.0
2091  29670.000   4118890.8670   2649070.2412   4070990.4175   5   4   9.1542   9.9431   2.5686   9.5150  -4.4109  -4.1364   0.00    0.0
2091  29700.000   4119878.3220   2650197.3666   4069757.7676   5   4  21.2554  23.3669   6.2513  22.2210 -10.6724  -9.9437   0.00    0.0
2091  29730.000   4121025.6346   2650756.1979   4073150.2818   6   1   3.8589   3.1983   9.3396   2.9321   4.1331   5.4335   0.00    0.0
2091  29760.000   4123648.4676   2653444.1530   4070962.8616   5   4  23.3026  25.3790   6.5844  24.2599 -11.5765 -10.8845   0.00    0.0
2091  31200.000   4112699.7096   2643537.7129   4078289.6595   5   4  12.1239  10.9181   2.0499  11.4890  -3.5703  -3.7889   0.00    0.0
2091  31230.000   4113817.7663   2644655.2593   4077699.8867   5   4  11.7040  10.5114   2.0053  11.0748  -3.3783  -3.5958   0.00    0.0
2091  31260.000   4114917.7790   2645746.1328   4077039.5692   5   4  11.3409  10.1586   1.9704  10.7157  -3.2070  -3.4244   0.00    0.0
2091  31290.000   4115990.7380   2646801.6394   4076307.3253   5   4  28.0011  24.7821   4.4596  26.2956  -6.3687  -6.8050   0.00    0.0
2091  31320.000   4117039.5227   2647821.8866   4075505.5766   5   4  27.2300  24.0368   4.4056  25.5350  -5.9379  -6.3670   0.00    0.0
2091  31350.000   4118072.0086   2648811.4325   4074638.0628   5   4  26.5217  23.3527   4.3618  24.8364  -5.5249  -5.9481   0.00    0.0
2091  31380.000   4119079.0898   2649761.6303   4073702.6927   5   4  25.7875  22.6485   4.3082  24.1150  -5.0895  -5.5055   0.00    0.0
2091  31410.000   4120057.4334   2650668.2531   4072699.9913   5   4  25.1096  21.9992   4.2637  23.4492  -4.6654  -5.0761   0.00    0.0
2091  31440.000   4121006.8854   2651529.6003   4071630.5932   5   4  24.4832  21.3998   4.2274  22.8341  -4.2482  -4.6559   0.00    0.0
2091  31470.000   4121929.4833   2652345.9071   4070495.3231   5   4  23.9035  20.8459   4.1984  22.2652  -3.8328  -4.2405   0.00    0.0
2091  31500.000   4121025.6715   2650756.2187   4073150.3713   6   1   3.8513   3.1954   9.3209   2.9264   4.1233   5.4203   0.00    0.0
2091  31530.000   4119673.9424   2650017.4870   4070391.4215   5   4  22.8564  19.8487   4.1607  21.2388  -3.0177  -3.4411   0.00    0.0
2091  31560.000   4117725.4235   2648170.0368   4071634.0778   5   4   8.5546   7.4863   1.7303   7.9771  -1.8084  -2.0445   0.00    0.0
2091  31650.000   4113447.0120   2644198.0733   4074690.3574   5   4   8.1744   7.1154   1.7403   7.5977  -1.5461  -1.8106   0.00    0.0
2091  31680.000   4112473.2367   2643323.6880   4075499.7948   5   4   7.9327   6.8916   1.7145   7.3643  -1.4172  -1.6884   0.00    0.0
2091  31710.000   4111689.8202   2642637.7510   4076208.9760   5   4   7.7171   6.6920   1.6930   7.1560  -1.2928  -1.5733   0.00    0.0
2091  31770.000   4110645.8628   2641776.1585   4077340.8286   5   4   7.3600   6.3609   1.6642   6.8103  -1.0551  -1.3644   0.00    0.0
2091  31800.000   4110354.8430   2641568.6600   4077768.0509   5   4   7.2157   6.2265   1.6565   6.6701  -0.9386  -1.2692   0.00    0.0
2091  31950.000   4110698.2336   2642225.1097   4078588.5545   5   4   6.7905   5.8232   1.6831   6.2492  -0.1455  -0.8685   0.00    0.0
2091  31980.000   4111061.0350   2642622.6889   4078501.5808   5   4   6.6255   5.6747   1.6643   6.0919   0.4115  -0.7306   0.00    0.0
2091  32010.000   4111505.3058   2643089.6228   4078334.7925   5   4   6.4786   5.5424   1.6494   5.9516   0.5830  -0.5820   0.00    0.0
2091  32040.000   4112023.8621   2643617.8210   4078089.3091   5   4   6.3496   5.4263   1.6384   5.8283   0.7029  -0.4070   0.00    0.0
2091  32070.000   4112610.2241   2644199.8931   4077766.3643   5   4   6.2377   5.3257   1.6313   5.7212   0.7965  -0.1087   0.00    0.0
2091  32100.000   4113257.5518   2644828.2216   4077366.9077   5   4   6.1421   5.2397   1.6280   5.6294   0.8739   0.3542   0.00    0.0
2091  32130.000   4113962.3161   2645497.7772   4076892.2495   5   4   6.0639   5.1690   1.6292   5.5538   0.9399   0.4968   0.00    0.0
2091  32160.000   4114719.8386   2646202.8429   4076343.5082   5   4   6.0002   5.1114   1.6340   5.4919   0.9982   0.5968   0.00    0.0
2091  32190.000   4115524.6127   2646937.0661   4075721.3650   5   4   5.9503   5.0660   1.6424   5.4428   1.0510   0.6748   0.00    0.0
2091  32250.000   4117254.8462   2648469.2586   4074257.5890   5   4  16.0990  13.6325   4.3451  14.7033   4.5948   4.5812   0.00    0.0
2091  32280.000   4118175.3519   2649259.3966   4073418.4811   5   4  15.9255  13.4850   4.3580  14.5412   4.6697   4.6612   0.00    0.0
2091  32310.000   4119132.1403   2650062.2473   4072511.8934   5   4  15.7629  13.3479   4.3727  14.3897   4.7412   4.7367   0.00    0.0
2091  32340.000   4120118.6879   2650871.3339   4071536.1879   5   4  15.6102  13.2204   4.3892  14.2479   4.8098   4.8082   0.00    0.0
2091  32370.000   4121136.3964   2651686.1007   4070493.1069   5   4  15.4669  13.1020   4.4074  14.1153   4.8758   4.8760   0.00    0.0
2091  32400.000   4122173.6972   2652492.0873   4069368.0481   5   4  15.3326  12.9922   4.4274  13.9914   4.9396   4.9407   0.00    0.0
2091  32430.000   4120208.9630   2650596.1792   4070114.0739   5   4  15.2035  12.8886   4.4455  13.8732   4.9915   4.9909   0.00    0.0
2091  32550.000   4114998.6485   2645937.1222   4073621.4933   5   4   5.2651   4.4760   1.6778   4.7894   1.4623   1.1979   0.00    0.0
2091  32580.000   4114079.2524   2645144.9133   4074297.7770   5   4   5.1714   4.3977   1.6649   4.7031   1.4795   1.2260   0.00    0.0
2091  32610.000   4113298.5477   2644485.3483   4074896.3074   5   4   5.0899   4.3301   1.6554   4.6280   1.4966   1.2514   0.00    0.0
2091  33270.000   4120815.7168   2651399.5379   4070338.6214   5   4  12.9350  11.4207   5.0433  11.9515   6.1746   6.0262   0.00    0.0
2091  33300.000   4121929.3847   2652254.4707   4069378.6642   5   4  12.8867  11.4050   5.0672  11.9174   6.2130   6.0562   0.00    0.0
2091  33330.000   4120407.0894   2650752.1553   4069839.2319   5   4  12.8422  11.3943   5.0884  11.8878   6.2469   6.0803   0.00    0.0
2091  33360.000   4119033.1027   2649474.8705   4070600.7362   5   4   4.2338   3.7197   1.7201   3.8615   1.8700   1.6194   0.00    0.0
2091  33390.000   4117779.2256   2648319.0466   4071294.1416   5   4   4.2301   3.7243   1.7310   3.8596   1.8865   1.6299   0.00    0.0
2091  33420.000   4116654.1169   2647289.4008   4071928.3275   5   4   4.2332   3.7349   1.7446   3.8636   1.9049   1.6408   0.00    0.0
2091  33510.000   4114027.3110   2644926.0939   4073490.0558   5   4   4.1520   3.6896   1.7467   3.7973   1.9335   1.6685   0.00    0.0
2091  34200.000   4121955.8515   2652257.9603   4069450.3630   5   4   6.0906   3.5746   4.6342   4.1558   2.6510   2.3421   0.00    0.0
2091  34230.000   4120721.8496   2650900.3570   4069649.4432   5   4   6.1338   3.6027   4.6165   4.1952   2.6500   2.3484   0.00    0.0
2091  34260.000   4119545.6765   2649670.3167   4070194.8502   5   4   6.1797   3.6326   4.6002   4.2369   2.6504   2.3566   0.00    0.0
2091  34290.000   4118421.0227   2648500.6927   4070669.3443   5   4   2.4856   1.3939   1.6755   1.6712   1.0213   0.7905   0.00    0.0
2091  34320.000   4117350.6188   2647393.9186   4071074.1635   5   4   2.5239   1.4160   1.6776   1.7013   1.0292   0.8038   0.00    0.0
2091  34350.000   4116340.6641   2646354.2464   4071415.3319   5   4   2.5682   1.4414   1.6830   1.7355   1.0395   0.8192   0.00    0.0
2091  34380.000   4115395.3994   2645384.8871   4071696.5212   5   4   2.5598   1.4407   1.6573   1.7362   1.0309   0.8237   0.00    0.0
2091  34410.000   4114519.0139   2644489.1009   4071921.2503   5   4   2.5568   1.4428   1.6354   1.7403   1.0246   0.8294   0.00    0.0
2091  34440.000   4113715.6965   2643670.2629   4072093.3019   5   4   2.5593   1.4479   1.6171   1.7481   1.0207   0.8367   0.00    0.0
2091  34470.000   4112989.5801   2642931.7084   4072215.9336   5   4   2.5676   1.4561   1.6024   1.7597   1.0191   0.8456   0.00    0.0
2091  34500.000   4112344.3587   2642276.7626   4072292.9924   5   4   2.5818   1.4676   1.5912   1.7752   1.0199   0.8563   0.00    0.0
2091  34530.000   4111784.0463   2641708.8919   4072327.8126   5   4   2.6030   1.4829   1.5840   1.7955   1.0236   0.8693   0.00    0.0
2091  34560.000   4111312.3735   2641231.5135   4072323.9903   5   4   2.6305   1.5017   1.5802   1.8202   1.0297   0.8843   0.00    0.0
2091  34590.000   4110933.5607   2640848.3430   4072284.9666   5   4   2.6643   1.5240   1.5797   1.8492   1.0384   0.9015   0.00    0.0
2091  34620.000   4110651.0185   2640562.8941   4072214.4692   5   4   2.7044   1.5501   1.5824   1.8828   1.0496   0.9210   0.00    0.0
2091  34650.000   4110468.5102   2640378.8603   4072115.4337   5   4   2.7509   1.5798   1.5881   1.9209   1.0633   0.9429   0.00    0.0
2091  34680.000   4110389.6766   2640299.7148   4071992.0781   5   4   2.7408   1.5802   1.5655   1.9212   1.0575   0.9492   0.00    0.0
2091  34710.000   4110418.0921   2640329.2187   4071847.6723   5   4   2.7360   1.5835   1.5462   1.9250   1.0538   0.9568   0.00    0.0
2091  34740.000   4110557.1474   2640471.0755   4071685.2985   5   4   2.7371   1.5901   1.5302   1.9328   1.0525   0.9661   0.00    0.0
2091  34770.000   4110810.3720   2640729.1514   4071508.6546   5   4   2.7444   1.6001   1.5176   1.9449   1.0537   0.9774   0.00    0.0
2091  34800.000   4111180.8628   2641107.0562   4071320.8242   5   4   2.7581   1.6138   1.5084   1.9615   1.0575   0.9908   0.00    0.0
2091  34830.000   4111672.2634   2641608.7341   4071125.2832   5   4   2.7794   1.6318   1.5029   1.9834   1.0643   1.0070   0.00    0.0
2091  34860.000   4112287.3539   2642237.9316   4070925.1724   5   4   2.8073   1.6538   1.5006   2.0101   1.0738   1.0256   0.00    0.0
2091  34890.000   4113029.4834   2642998.6020   4070723.9455   5   4   2.8420   1.6797   1.5016   2.0417   1.0861   1.0468   0.00    0.0
2091  34920.000   4113901.7528   2643894.5564   4070524.8008   5   4   2.8834   1.7096   1.5055   2.0783   1.1011   1.0707   0.00    0.0
2091  34950.000   4114906.9864   2644929.5770   4070330.7891   5   4   2.9315   1.7437   1.5125   2.1198   1.1190   1.0974   0.00    0.0
2091  34980.000   4116048.2685   2646107.8118   4070144.8565   5   4   2.9186   1.7443   1.4926   2.1185   1.1150   1.1028   0.00    0.0
2091  35010.000   4117328.1891   2647432.8756   4069970.7317   5   4   2.9117   1.7484   1.4760   2.1214   1.1136   1.1102   0.00    0.0
2091  35040.000   4118749.6364   2648908.8042   4069811.1581   5   4   2.9111   1.7562   1.4627   2.1289   1.1148   1.1198   0.00    0.0
2091  35070.000   4120313.3705   2650538.5731   4069666.1486   5   4   7.4390   4.6758   4.1887   5.5271   2.8356   2.9130   0.00    0.0
2091  35100.000   4122039.5250   2652342.7419   4069536.8578   5   4   7.4880   4.7247   4.1773   5.5818   2.8514   2.9439   0.00    0.0
2091  35130.000   4121026.3630   2650967.2843   4069483.8509   5   4   7.5316   4.7674   4.1644   5.6300   2.8594   2.9646   0.00    0.0
2091  35160.000   4120150.2680   2649808.1829   4069890.2761   5   4   7.5782   4.8126   4.1529   5.6810   2.8695   2.9875   0.00    0.0
2091  35190.000   4119319.9120   2648713.7825   4070250.4543   5   4   3.0078   1.8505   1.4422   2.2356   1.1545   1.1962   0.00    0.0
2091  35220.000   4118535.8339   2647685.6634   4070563.7234   5   4   3.0479   1.8816   1.4470   2.2721   1.1702   1.2189   0.00    0.0
2091  35250.000   4117802.8136   2646727.4156   4070835.1018   5   4   3.0951   1.9172   1.4548   2.3139   1.1888   1.2446   0.00    0.0
2091  35280.000   4117122.9966   2645841.3238   4071066.5774   5   4   3.0776   1.9154   1.4370   2.3086   1.1834   1.2446   0.00    0.0
2091  35310.000   4116498.9969   2645029.8782   4071260.2243   5   4   3.0665   1.9174   1.4222   2.3078   1.1805   1.2469   0.00    0.0
2091  35340.000   4115932.8898   2644295.2417   4071418.4216   5   4   3.0621   1.9234   1.4104   2.3120   1.1803   1.2518   0.00    0.0
2091  35370.000   4115426.8089   2643639.7980   4071543.2330   5   4   3.0647   1.9337   1.4016   2.3214   1.1829   1.2596   0.00    0.0
2091  35400.000   4114983.0616   2643066.0986   4071636.0645   5   4   3.0746   1.9483   1.3958   2.3361   1.1884   1.2703   0.00    0.0
2091  35430.000   4114603.7080   2642576.5900   4071698.9739   5   4   3.0928   1.9681   1.3935   2.3572   1.1974   1.2846   0.00    0.0
2091  35460.000   4114290.6742   2642173.3008   4071735.0642   5   4   3.1183   1.9926   1.3941   2.3839   1.2095   1.3022   0.00    0.0
2091  35490.000   4114046.1823   2641858.7167   4071744.7724   5   4   3.1513   2.0218   1.3977   2.4163   1.2247   1.3231   0.00    0.0
2091  35520.000   4113872.1481   2641635.4581   4071730.4941   5   4   3.1916   2.0559   1.4041   2.4544   1.2431   1.3473   0.00    0.0
2091  35550.000   4113770.3668   2641505.8755   4071693.9499   5   4   3.2392   2.0947   1.4134   2.4983   1.2646   1.3749   0.00    0.0
2091  35580.000   4113742.8257   2641472.2981   4071636.8772   5   4   3.2189   2.0920   1.3976   2.4907   1.2593   1.3725   0.00    0.0
2091  35610.000   4113791.5237   2641537.3154   4071561.0894   5   4   3.2057   2.0938   1.3848   2.4885   1.2570   1.3732   0.00    0.0
2091  35640.000   4113917.8715   2641702.9105   4071468.2510   5   4   3.1997   2.1001   1.3749   2.4917   1.2576   1.3769   0.00    0.0
2091  35670.000   4114123.7409   2641971.6610   4071359.8720   5   4   3.2009   2.1110   1.3680   2.5004   1.2613   1.3838   0.00    0.0
2091  35700.000   4114410.9987   2642345.9773   4071238.1757   5   4   3.2097   2.1266   1.3640   2.5150   1.2680   1.3940   0.00    0.0
2091  35730.000   4114781.0341   2642828.1514   4071104.3425   5   4   3.2269   2.1478   1.3633   2.5361   1.2785   1.4082   0.00    0.0
2091  35760.000   4115235.6041   2643420.6046   4070959.9027   5   4   3.2519   2.1741   1.3654   2.5633   1.2922   1.4259   0.00    0.0
2091  35790.000   4115776.0965   2644125.5487   4070806.6192   5   4   3.2845   2.2055   1.3705   2.5966   1.3094   1.4472   0.00    0.0
2091  35820.000   4116404.2829   2644945.6652   4070645.7914   5   4   3.3246   2.2421   1.3785   2.6360   1.3299   1.4722   0.00    0.0
2091  35850.000   4117121.8047   2645883.3896   4070478.8356   5   4   3.3722   2.2839   1.3893   2.6814   1.3538   1.5009   0.00    0.0
2091  35880.000   4117929.6378   2646940.7610   4070307.1051   5   4   3.3507   2.2810   1.3755   2.6726   1.3488   1.4968   0.00    0.0
2091  35910.000   4118829.2621   2648120.1329   4070132.0825   5   4   3.3355   2.2823   1.3643   2.6688   1.3464   1.4956   0.00    0.0
2091  35970.000   4120906.1066   2650852.8555   4069771.5292   5   4   8.7708   6.2106   3.9189   7.1123   3.2933   3.6825   0.00    0.0
2091  36000.000   4122099.7712   2652426.2522   4069588.5253   5   4   8.8160   6.2707   3.9142   7.1695   3.3153   3.7109   0.00    0.0
2091  36030.000   4121629.5438   2651364.2990   4069540.6667   5   4   8.8547   6.3226   3.9070   7.2189   3.3265   3.7271   0.00    0.0
2091  36090.000   4121031.6960   2649853.8077   4070439.3756   5   4   8.9423   6.4349   3.8965   7.3267   3.3552   3.7660   0.00    0.0
2091  36120.000   4120754.3754   2649171.7793   4070830.3639   5   4   8.9909   6.4950   3.8930   7.3847   3.3722   3.7881   0.00    0.0
2091  36150.000   4120492.9712   2648540.1306   4071183.1655   5   4   9.0427   6.5576   3.8908   7.4455   3.3910   3.8120   0.00    0.0
2091  36180.000   4120250.1376   2647960.5816   4071501.9502   5   4   9.0672   6.6026   3.8799   7.4847   3.3967   3.8210   0.00    0.0
2091  36210.000   4120023.9937   2647433.0650   4071781.1597   5   4   9.0949   6.6500   3.8703   7.5265   3.4041   3.8318   0.00    0.0
2091  36240.000   4119817.1554   2646959.4871   4072024.5451   5   4   9.1259   6.7000   3.8618   7.5711   3.4131   3.8442   0.00    0.0
2091  36270.000   4119630.7806   2646541.0524   4072232.7115   5   4   9.1601   6.7525   3.8545   7.6184   3.4239   3.8583   0.00    0.0
2091  36300.000   4119465.9358   2646178.8812   4072406.2593   5   4   9.1975   6.8076   3.8483   7.6685   3.4365   3.8742   0.00    0.0
2091  36330.000   4119324.7282   2645874.2827   4072549.2825   5   4   3.4441   2.5040   1.3279   2.8592   1.4258   1.5912   0.00    0.0
2091  36360.000   4119205.5681   2645627.6036   4072656.5359   5   4   3.4660   2.5301   1.3308   2.8844   1.4376   1.6043   0.00    0.0
2091  36390.000   4119110.4867   2645440.1957   4072731.6792   5   4   3.4959   2.5621   1.3365   2.9163   1.4532   1.6214   0.00    0.0
2091  36420.000   4119041.0050   2645313.6958   4072775.0413   5   4   3.5337   2.6000   1.3450   2.9548   1.4725   1.6426   0.00    0.0
2091  36450.000   4118998.0102   2645249.1770   4072787.2952   5   4   3.5792   2.6436   1.3561   2.9999   1.4955   1.6678   0.00    0.0
2091  36480.000   4118982.6823   2645248.0301   4072768.9841   5   4   3.5521   2.6357   1.3425   2.9849   1.4851   1.6556   0.00    0.0
2091  36660.000   4118496.0378   2645375.8329   4073097.1640   5   4   2.4416   1.5751   2.1865   1.7660   1.5656   2.1724   0.00    0.0
2091  36720.000   4119060.6417   2646552.0705   4072465.5997   5   4   2.4440   1.5835   2.2186   1.7680   1.5718   2.1868   0.00    0.0
2091  36750.000   4119414.3026   2647272.9756   4072095.1871   5   4   6.5349   4.3597   5.8098   4.7517   4.1478   5.7424   0.00    0.0
2091  36780.000   4119820.7946   2648086.8450   4071692.9920   5   4   6.4937   4.3425   5.8062   4.7212   4.1259   5.7196   0.00    0.0
2091  36810.000   4120277.0624   2648992.5566   4071255.3551   5   4   6.4544   4.3263   5.8044   4.6920   4.1047   5.6985   0.00    0.0
2091  36840.000   4120789.3297   2649995.1748   4070787.6579   5   4   6.4170   4.3112   5.8044   4.6639   4.0843   5.6789   0.00    0.0
2091  36870.000   4121356.0806   2651094.6090   4070288.0659   5   4   6.3816   4.2973   5.8062   4.6369   4.0647   5.6610   0.00    0.0
2091  36900.000   4121984.1760   2652303.8079   4069745.8511   5   4   6.3480   4.2844   5.8099   4.6111   4.0459   5.6448   0.00    0.0
2091  36930.000   4121933.3036   2651513.6601   4070059.4583   5   4   6.3126   4.2679   5.8097   4.5819   4.0214   5.6245   0.00    0.0
2091  36960.000   4121900.5120   2650866.1169   4071014.9316   5   4   6.2789   4.2528   5.8111   4.5540   3.9979   5.6057   0.00    0.0
2091  37080.000   4121622.5734   2648597.4272   4074107.9704   5   4   6.1442   4.1933   5.8164   4.4415   3.8988   5.5289   0.00    0.0
2091  37140.000   4121425.1284   2647681.6369   4075224.3218   5   4   6.0608   4.1542   5.8012   4.3731   3.8355   5.4738   0.00    0.0
2091  37200.000   4121211.3668   2646931.7896   4076059.4644   5   4   5.9852   4.1204   5.7938   4.3099   3.7753   5.4253   0.00    0.0
2091  37230.000   4121103.4685   2646623.8826   4076372.7987   5   4   5.9505   4.1057   5.7933   4.2803   3.7463   5.4038   0.00    0.0
2091  37260.000   4120997.8429   2646363.2955   4076617.3900   5   4   5.9177   4.0923   5.7947   4.2520   3.7179   5.3838   0.00    0.0
2091  37290.000   4120896.5007   2646152.0208   4076793.7030   5   4   5.8865   4.0802   5.7980   4.2248   3.6900   5.3654   0.00    0.0
2091  37350.000   4120714.8894   2645885.5105   4076943.3611   5   4   5.8293   4.0600   5.8102   4.1738   3.6356   5.3328   0.00    0.0
2091  37380.000   4120638.7827   2645834.2640   4076917.6373   5   4   5.7867   4.0411   5.8002   4.1382   3.5985   5.3024   0.00    0.0
2091  37650.000   4120769.9877   2648216.1183   4073754.8205   5   4   5.4849   3.9373   5.7988   3.8741   3.2835   5.0986   0.00    0.0
2091  37770.000   4121553.7551   2651186.8774   4070708.7740   5   4   5.3353   3.8895   5.7752   3.7453   3.1127   4.9859   0.00    0.0
2091  37800.000   4121847.4661   2652151.1711   4069777.8041   5   4   5.3021   3.8814   5.7742   3.7161   3.0701   4.9612   0.00    0.0
2091  37890.000   4122401.3987   2650725.5318   4072607.8878   5   4   5.2069   3.8596   5.7710   3.6303   2.9284   4.8839   0.00    0.0
2091  37920.000   4122483.7135   2650265.6479   4073621.3035   5   4   5.1783   3.8558   5.7738   3.6043   2.8803   4.8606   0.00    0.0
2091  37950.000   4122535.7660   2649823.5632   4074545.8052   5   4   5.1511   3.8537   5.7785   3.5795   2.8317   4.8384   0.00    0.0
2091  37980.000   4122560.0360   2649401.5397   4075382.0412   5   4   5.1126   3.8438   5.7677   3.5467   2.7760   4.8045   0.00    0.0
2091  38010.000   4122559.2396   2649001.9793   4076130.3511   5   4   5.0756   3.8354   5.7587   3.5151   2.7198   4.7719   0.00    0.0
2091  38040.000   4122535.7399   2648627.0689   4076790.9668   5   4   5.0403   3.8289   5.7518   3.4849   2.6629   4.7406   0.00    0.0
2091  38070.000   4122492.2605   2648279.2493   4077364.3733   5   4   5.0067   3.8242   5.7469   3.4561   2.6052   4.7106   0.00    0.0
2091  38100.000   4122431.4019   2647961.0441   4077851.0539   5   4   4.9746   3.8213   5.7440   3.4286   2.5466   4.6818   0.00    0.0
2091  38130.000   4122355.7977   2647674.9017   4078251.3731   5   4   4.9444   3.8206   5.7435   3.4027   2.4869   4.6544   0.00    0.0
2091  38160.000   4122267.6759   2647423.4740   4078565.3848   5   4   4.9156   3.8217   5.7450   3.3782   2.4257   4.6281   0.00    0.0
2091  38190.000   4122170.2453   2647209.0848   4078793.7852   5   4   4.8883   3.8247   5.7484   3.3549   2.3628   4.6028   0.00    0.0
2091  38220.000   4122065.8097   2647034.2933   4078936.7288   5   4   4.8625   3.8297   5.7538   3.3331   2.2978   4.5784   0.00    0.0
2091  38250.000   4121957.1666   2646901.8190   4078994.5575   5   4   4.8381   3.8367   5.7611   3.3125   2.2305   4.5550   0.00    0.0
2091  38280.000   4121847.0181   2646814.4302   4078967.7216   5   4   4.8033   3.8356   5.7532   3.2845   2.1570   4.5212   0.00    0.0
2091  38310.000   4121737.9155   2646774.7146   4078856.3054   5   4   4.7701   3.8367   5.7474   3.2581   2.0811   4.4885   0.00    0.0
2091  38340.000   4121632.8070   2646785.5394   4078660.7684   5   4   4.7386   3.8398   5.7437   3.2331   2.0023   4.4568   0.00    0.0
2091  38370.000   4121025.7453   2650756.2691   4073150.5430   6   1   3.8430   3.1907   9.3025   2.9190   4.1111   5.4067   0.00    0.0
2091  38400.000   4121444.0803   2646969.5429   4078017.2525   5   4   4.6799   3.8521   5.7422   3.1877   1.8335   4.3964   0.00    0.0
2091  38430.000   4121366.5306   2647148.8359   4077570.0987   5   4   4.6530   3.8616   5.7447   3.1673   1.7420   4.3677   0.00    0.0
2091  38460.000   4121025.7954   2650756.3064   4073150.6823   6   1   3.8358   3.1860   9.2795   2.9120   4.0972   5.3925   0.00    0.0
2091  38490.000   4121258.7262   2647696.5755   4076425.7221   5   4   4.6033   3.8871   5.7556   3.1311   1.5392   4.3126   0.00    0.0
2091  38520.000   4121234.2481   2648071.0934   4075728.9375   5   4   4.5805   3.9031   5.7640   3.1154   1.4246   4.2860   0.00    0.0
2091  38550.000   4121233.3702   2648517.1306   4074949.2232   5   4   4.5591   3.9215   5.7743   3.1013   1.2976   4.2600   0.00    0.0
2091  38580.000   4121258.5738   2649037.4114   4074086.7838   5   4   4.5285   3.9319   5.7701   3.0804   1.1568   4.2251   0.00    0.0
2091  38610.000   4121313.1308   2649635.6551   4073141.5790   5   4   4.4994   3.9445   5.7679   3.0612   0.9948   4.1909   0.00    0.0
2091  38640.000   4121399.9735   2650314.9547   4072113.8994   5   4   4.4718   3.9595   5.7677   3.0437   0.7981   4.1574   0.00    0.0
2091  38670.000   4121522.0491   2651078.9185   4071003.4554   5   4   4.4456   3.9767   5.7695   3.0279   0.5285   4.1246   0.00    0.0
