% program   : RTKLIB ver.2.4.2
% inp file  : /home/fkarlitepe/Documents/Projects/Estimation-Orbit/precise orbit/ankr0330.20o
% inp file  : /home/fkarlitepe/Documents/Projects/Estimation-Orbit/precise orbit/precise/EKF Sonuçları/SHA0/deneme2.sp3
% inp file  : /home/fkarlitepe/Documents/Projects/Estimation-Orbit/precise orbit/igs20910.clk
% inp file  : /home/fkarlitepe/Documents/Projects/Estimation-Orbit/precise orbit/ankr0330.20n
% obs start : 2020/02/02 00:00:00.0 GPST (week2091      0.0s)
% obs end   : 2020/02/02 23:59:30.0 GPST (week2091  86370.0s)
%
% (x/y/z-ecef=WGS84,Q=1:fix,2:float,3:sbas,4:dgps,5:single,6:ppp,ns=# of satellites)
%  GPST              x-ecef(m)      y-ecef(m)      z-ecef(m)   Q  ns   sdx(m)   sdy(m)   sdz(m)  sdxy(m)  sdyz(m)  sdzx(m) age(s)  ratio
2091     90.000   4121025.7453   2650756.2478   4073150.4222   6   4   3.9449   3.2454  10.1059   3.0076   4.1900   5.4831   0.00    0.0
2091    120.000   4120734.8332   2650292.5478   4074146.0978   5   4   2.9944   2.4501   7.4591   2.2666   3.1168   4.1235   0.00    0.0
2091    150.000   4120462.7536   2649847.9572   4074993.0617   5   4   2.9930   2.4681   7.3757   2.2776   3.1144   4.0982   0.00    0.0
2091    210.000   4119968.9770   2649016.2468   4076257.8374   5   4   2.9584   2.4720   7.1183   2.2706   3.0678   4.0032   0.00    0.0
2091    240.000   4119751.4175   2648635.5322   4076698.2877   5   4   2.9450   2.4772   7.0057   2.2703   3.0504   3.9630   0.00    0.0
2091    300.000   4121025.8026   2650756.2844   4073150.6849   6   1   3.9217   3.2350   9.5153   2.9891   4.2381   5.5490   0.00    0.0
2091    330.000   4119230.7288   2647669.4975   4077361.4764   5   4   2.9202   2.5067   6.7280   2.2828   3.0211   3.8697   0.00    0.0
2091    360.000   4119104.0893   2647415.3987   4077389.4619   5   4   2.9170   2.5214   6.6543   2.2915   3.0187   3.8473   0.00    0.0
2091    390.000   4119003.9422   2647200.3652   4077335.3183   5   4   2.9161   2.5384   6.5889   2.3022   3.0196   3.8287   0.00    0.0
2091    420.000   4118930.6922   2647027.0093   4077205.2952   5   4   2.9173   2.5577   6.5312   2.3149   3.0237   3.8138   0.00    0.0
2091    450.000   4118884.4651   2646897.8262   4077004.3707   5   4   2.9207   2.5793   6.4809   2.3297   3.0310   3.8023   0.00    0.0
2091    480.000   4118866.5523   2646815.9482   4076739.2433   5   4   2.9079   2.5831   6.3866   2.3290   3.0169   3.7688   0.00    0.0
2091    540.000   4118918.8104   2646804.8205   4076039.4666   5   4   2.8889   2.5970   6.2219   2.3334   2.9982   3.7129   0.00    0.0
2091    600.000   4119092.3217   2647015.3795   4075146.5379   5   4   2.8786   2.6199   6.0878   2.3458   2.9920   3.6712   0.00    0.0
2091    660.000   4119391.5486   2647469.3378   4074097.2162   5   4   2.8775   2.6532   5.9840   2.3670   2.9991   3.6439   0.00    0.0
2091    720.000   4119819.8802   2648188.6419   4072923.5098   5   4   2.8843   2.6959   5.9057   2.3960   3.0176   3.6288   0.00    0.0
2091    840.000   4121078.6443   2650512.0372   4070319.7905   5   4   2.8694   2.7463   5.6872   2.4250   3.0185   3.5649   0.00    0.0
2091    870.000   4121479.6235   2651293.5605   4069634.7075   5   4   2.8663   2.7593   5.6369   2.4327   3.0200   3.5506   0.00    0.0
2091    930.000   4121691.7867   2651587.8283   4070503.3023   5   4   2.8661   2.7912   5.5538   2.4535   3.0293   3.5302   0.00    0.0
2091    960.000   4121447.4654   2651003.2997   4071821.9993   5   4   2.8690   2.8100   5.5207   2.4668   3.0371   3.5240   0.00    0.0
2091   1140.000   4120223.3555   2647996.2274   4076919.4203   5   4   2.8756   2.9087   5.3101   2.5342   3.0720   3.4778   0.00    0.0
2091   1170.000   4120069.0471   2647602.9293   4077358.2948   5   4   2.8750   2.9226   5.2732   2.5435   3.0759   3.4687   0.00    0.0
2091   1230.000   4119813.4181   2646933.4065   4077937.0817   5   4   2.8795   2.9585   5.2148   2.5681   3.0916   3.4583   0.00    0.0
2091   1260.000   4119710.0377   2646660.6705   4078082.0986   5   4   2.8845   2.9806   5.1930   2.5835   3.1035   3.4569   0.00    0.0
2091   1410.000   4119494.8335   2646034.7332   4077578.5920   5   4   2.9042   3.0835   5.0779   2.6543   3.1565   3.4452   0.00    0.0
2091   1470.000   4119558.5141   2646175.7857   4076874.5082   5   4   2.9054   3.1148   5.0203   2.6751   3.1694   3.4334   0.00    0.0
2091   1560.000   4119828.5912   2646872.2538   4075368.2569   5   4   2.9205   3.1825   4.9666   2.7214   3.2075   3.4331   0.00    0.0
2091   1680.000   4120539.2538   2648820.0470   4072652.8358   5   4   2.9489   3.2876   4.9176   2.7930   3.2709   3.4441   0.00    0.0
2091   1710.000   4120782.7228   2649507.1061   4071866.4208   5   4   2.9489   3.3025   4.8909   2.8027   3.2772   3.4386   0.00    0.0
2091   1740.000   4121052.9762   2650279.5193   4071041.5991   5   4   2.9505   3.3200   4.8682   2.8142   3.2858   3.4352   0.00    0.0
2091   1770.000   4121349.4062   2651139.3531   4070179.5592   5   4   2.9538   3.3402   4.8493   2.8276   3.2968   3.4338   0.00    0.0
2091   3270.000   4120638.0524   2645966.8832   4077330.8396   5   4   3.4374   4.8602   4.6132   3.8546   4.1622   3.7270   0.00    0.0
2091   3360.000   4121025.7365   2650756.2390   4073150.4996   6   1   3.9107   3.2288   9.4796   2.9792   4.2185   5.5272   0.00    0.0
2091   4260.000   4129110.4319   2656883.9172   4084211.7373   5   4   4.1137   3.5951   4.7377   3.5505   3.5051   4.1707   0.00    0.0
2091   4290.000   4128283.4938   2656260.8452   4082711.0463   5   4   4.0672   3.5749   4.6734   3.5118   3.4472   4.1110   0.00    0.0
2091   4320.000   4127408.7569   2655621.5950   4081086.0386   5   4   4.0255   3.5594   4.6148   3.4777   3.3935   4.0563   0.00    0.0
2091   4350.000   4126490.5525   2654971.3843   4079341.3794   5   4   3.9883   3.5485   4.5615   3.4477   3.3440   4.0063   0.00    0.0
2091   4380.000   4125531.8223   2654314.5398   4077481.2385   5   4   3.9289   3.5159   4.4814   3.3983   3.2749   3.9331   0.00    0.0
2091   4410.000   4124537.1002   2653656.3184   4075510.9130   5   4   3.8742   3.4876   4.4069   3.3531   3.2099   3.8649   0.00    0.0
2091   4440.000   4123508.9507   2653000.6551   4073433.7274   5   4   3.8242   3.4639   4.3380   3.3124   3.1493   3.8017   0.00    0.0
2091   4470.000   4122450.9640   2652352.4176   4071253.8152   5   4   3.7787   3.4446   4.2745   3.2759   3.0928   3.7432   0.00    0.0
2091   4500.000   4121361.9613   2651718.4387   4068956.1426   5   4   3.7374   3.4297   4.2161   3.2434   3.0402   3.6892   0.00    0.0
2091   4530.000   4123401.9516   2653551.1912   4071623.1668   5   4   3.7043   3.4207   4.1660   3.2180   2.9942   3.6432   0.00    0.0
2091   4560.000   4124713.4732   2654771.2689   4073982.9761   5   4   3.6748   3.4158   4.1205   3.1963   2.9516   3.6012   0.00    0.0
2091   4590.000   4125883.5433   2655852.6787   4076112.8644   5   4   3.6491   3.4149   4.0792   3.1781   2.9122   3.5629   0.00    0.0
2091   4620.000   4126919.4005   2656802.4516   4078021.7848   5   4   3.6268   3.4180   4.0420   3.1634   2.8759   3.5283   0.00    0.0
2091   4650.000   4127824.8480   2657625.6580   4079716.0145   5   4   3.6079   3.4250   4.0087   3.1520   2.8425   3.4970   0.00    0.0
2091   4710.000   4129270.5852   2658918.0665   4082492.0756   5   4   3.5338   3.3992   3.8993   3.0965   2.7444   3.3973   0.00    0.0
2091   4740.000   4129822.1660   2659398.9841   4083588.0817   5   4   3.5023   3.3923   3.8510   3.0742   2.7003   3.3532   0.00    0.0
2091   4770.000   4130266.3434   2659777.0375   4084498.0842   5   4   3.4742   3.3893   3.8067   3.0552   2.6593   3.3126   0.00    0.0
2091   4800.000   4130607.0504   2660056.9552   4085227.4854   5   4   3.4495   3.3900   3.7663   3.0395   2.6211   3.2754   0.00    0.0
2091   5520.000   4115906.7814   2648862.4993   4071932.7207   5   4   4.3909   2.6809   2.9324   3.3200   2.6797   3.4890   0.00    0.0
2091   5970.000   4108501.2226   2642167.0803   4074069.0846   5   4   4.8304   3.2948   2.9380   3.8987   2.9941   3.6818   0.00    0.0
2091   6360.000   4117113.4719   2648736.1371   4069789.4689   5   4   5.4762   4.1751   3.0747   4.7052   3.4708   4.0272   0.00    0.0
2091   6390.000   4114883.3821   2647053.3594   4070098.2530   5   4   5.5715   4.2867   3.1074   4.8115   3.5377   4.0851   0.00    0.0
2091   6480.000   4108946.5288   2642233.7241   4070745.9850   5   4   5.8260   4.6080   3.1867   5.1088   3.7209   4.2346   0.00    0.0
2091   6510.000   4107228.8410   2640726.9825   4070874.6488   5   4   5.8596   4.6765   3.1864   5.1641   3.7505   4.2481   0.00    0.0
2091   6600.000   4102903.1817   2636611.9679   4071019.2628   5   4   6.0430   4.9588   3.2260   5.4078   3.8927   4.3451   0.00    0.0
2091   6630.000   4101752.1016   2635405.2787   4070994.3810   5   4   6.1362   5.0834   3.2545   5.5198   3.9610   4.3992   0.00    0.0
2091   6660.000   4100753.9875   2634296.9427   4070936.2524   5   4   6.2452   5.2239   3.2902   5.6474   4.0397   4.4639   0.00    0.0
2091   6690.000   4099914.6970   2633298.0058   4070847.4292   5   4   6.3705   5.3811   3.3332   5.7914   4.1291   4.5394   0.00    0.0
2091   6720.000   4099241.1871   2632420.6172   4070730.9344   5   4   6.5127   5.5559   3.3837   5.9523   4.2298   4.6259   0.00    0.0
2091   6750.000   4098740.0883   2631677.1909   4070589.3861   5   4   6.6720   5.7492   3.4416   6.1310   4.3420   4.7237   0.00    0.0
2091   6780.000   4098415.0070   2631078.0390   4070423.4226   5   4   6.7192   5.8451   3.4454   6.2063   4.3830   4.7445   0.00    0.0
2091   6810.000   4130833.0338   2656511.2200   4091817.5336   5   4   3.4997   4.1417   3.2158   3.6032   2.6014   2.7487   0.00    0.0
2091   6840.000   4098346.1346   2630387.6087   4070044.4488   5   4   6.8588   6.0831   3.4738   6.4019   4.4950   4.8165   0.00    0.0
2091   6870.000   4098615.6539   2630324.6800   4069834.8766   5   4   6.9542   6.2288   3.4994   6.5254   4.5679   4.8694   0.00    0.0
2091   6930.000   4099821.2884   2630859.4726   4069399.3119   5   4   7.2039   6.5836   3.5765   6.8329   4.7532   5.0136   0.00    0.0
2091   6960.000   4128337.6097   2654679.6921   4086556.5001   5   4   3.6176   4.4653   3.1051   3.8231   2.6330   2.7221   0.00    0.0
2091   6990.000   4101992.4029   2632411.1443   4068967.3358   5   4   7.5380   7.0327   3.6891   7.2289   4.9952   5.2122   0.00    0.0
2091   7020.000   4103489.4769   2633640.2292   4068773.9326   5   4   7.7380   7.2956   3.7590   7.4621   5.1387   5.3325   0.00    0.0
2091   7050.000   4105275.5083   2635201.9876   4068598.3492   5   4   7.9613   7.5864   3.8382   7.7208   5.2981   5.4674   0.00    0.0
2091   7080.000   4107377.8996   2637134.8802   4068452.5107   5   4   8.0555   7.7540   3.8591   7.8543   5.3741   5.5165   0.00    0.0
2091   7110.000   4109812.4884   2639468.8383   4068340.2906   5   4   8.1721   7.9471   3.8893   8.0112   5.4650   5.5798   0.00    0.0
2091   7140.000   4112607.8249   2642246.4781   4068272.8370   5   4   8.3111   8.1664   3.9287   8.1923   5.5712   5.6575   0.00    0.0
2091   7170.000   4115790.8877   2645510.9394   4068259.4382   5   4   8.4743   8.4146   3.9780   8.3996   5.6939   5.7504   0.00    0.0
2091   7200.000   4121379.2645   2651168.2869   4069433.0001   5   4   3.8782   5.1306   2.9625   4.2782   2.7343   2.7186   0.00    0.0
2091   7230.000   4117573.8065   2647898.9808   4068660.1430   5   4   8.9009   9.0257   4.1171   8.9206   6.0064   5.9996   0.00    0.0
2091   7320.000   4104932.8387   2634754.6167   4067240.3874   5   4   9.8201  10.2805   4.4342  10.0082   6.6649   6.5470   0.00    0.0
2091   7350.000   4100876.2009   2630285.6247   4066663.6761   5   4  10.2030  10.7978   4.5685  10.4575   6.9373   6.7760   0.00    0.0
2091   7470.000   4133122.9604   2661540.5971   4088622.7408   5   4   4.4249   3.1857   3.6767   3.4669   2.6425   3.6247   0.00    0.0
2091   7500.000   4133954.5470   2662289.8393   4089769.0777   5   4   4.3919   3.1865   3.6506   3.4528   2.6298   3.5956   0.00    0.0
2091   7530.000   4134677.5650   2662957.0509   4090704.8473   5   4   4.3626   3.1893   3.6281   3.4411   2.6193   3.5700   0.00    0.0
2091   7560.000   4135286.0085   2663535.7486   4091430.1505   5   4   4.3364   3.1939   3.6086   3.4314   2.6107   3.5473   0.00    0.0
2091   7590.000   4135774.4218   2664019.6322   4091945.0490   5   4   4.3134   3.2003   3.5920   3.4239   2.6040   3.5275   0.00    0.0
2091   7620.000   4136137.8136   2664402.7413   4092249.8531   5   4   4.2936   3.2084   3.5783   3.4184   2.5993   3.5106   0.00    0.0
2091   7680.000   4136472.6292   2664843.4443   4092233.2934   5   4   4.2299   3.2089   3.5312   3.3892   2.5750   3.4563   0.00    0.0
2091   7800.000   4135476.8178   2664265.7512   4089735.1016   5   4   4.0766   3.1889   3.4180   3.3078   2.5089   3.3270   0.00    0.0
2091   7830.000   4134865.0240   2663786.1486   4088608.0434   5   4   4.0470   3.1889   3.3975   3.2933   2.4978   3.3026   0.00    0.0
2091   7860.000   4134104.3013   2663162.6190   4087284.5306   5   4   4.0206   3.1909   3.3799   3.2810   2.4887   3.2811   0.00    0.0
2091   7890.000   4133193.4518   2662390.5412   4085767.1258   5   4   3.9974   3.1948   3.3650   3.2711   2.4817   3.2624   0.00    0.0
2091   7920.000   4132131.2055   2661465.0066   4084058.8650   5   4   3.9774   3.2009   3.3528   3.2635   2.4768   3.2466   0.00    0.0
2091   7950.000   4130917.1608   2660381.7642   4082162.5339   5   4   3.9605   3.2090   3.3432   3.2582   2.4739   3.2335   0.00    0.0
2091   7980.000   4129550.9063   2659136.6399   4080081.1096   5   4   3.9155   3.1969   3.3110   3.2305   2.4526   3.1964   0.00    0.0
2091   8370.000   4130653.3397   2662637.8488   4084553.7311   5   5   3.4053   2.7935   3.0378   2.7829   2.4080   2.9361   0.00    0.0
2091   8940.000   4126394.0084   2657299.5747   4074859.0890   5   4  17.7505  15.6654  11.9147  16.6183  13.5566  14.4756   0.00    0.0
2091   9630.000   4127361.4985   2662874.1365   4079429.6702   5   4   5.1438   5.4891   9.0917   5.1112   6.6283   6.5872   0.00    0.0
2091   9690.000   4126634.8840   2661481.0082   4077969.1938   5   4   5.1389   5.6100   9.0389   5.1666   6.6939   6.5681   0.00    0.0
2091   9840.000   4123717.1114   2655629.8561   4072404.8055   5   4   5.0514   5.8356   8.7785   5.2252   6.7536   6.4223   0.00    0.0
2091   9900.000   4122090.7875   2652253.0574   4069410.7374   5   4   5.0027   5.9115   8.6541   5.2328   6.7569   6.3466   0.00    0.0
2091   9930.000   4122039.0460   2653007.0665   4069688.0418   5   4   4.9913   5.9669   8.6116   5.2517   6.7763   6.3244   0.00    0.0
2091   9960.000   4122143.9134   2653796.9341   4070327.0194   5   4   4.9819   6.0250   8.5738   5.2726   6.7984   6.3051   0.00    0.0
2091   9990.000   4122258.2809   2654551.9999   4070940.4570   5   4   4.9753   6.0870   8.5415   5.2964   6.8243   6.2894   0.00    0.0
2091  10020.000   4122380.2560   2655270.5565   4071526.0241   5   4   4.9713   6.1532   8.5147   5.3233   6.8541   6.2773   0.00    0.0
2091  10200.000   4123137.5764   2658657.9678   4074274.7142   5   4   4.8117   6.3777   8.1203   5.3274   6.8307   6.0294   0.00    0.0
2091  10440.000   4123648.3756   2659931.9077   4075199.1178   5   4   4.5989   6.6755   7.6308   5.3160   6.7839   5.7060   0.00    0.0
2091  10470.000   4123634.3971   2659766.4486   4075051.5170   5   4   4.5622   6.6971   7.5545   5.3008   6.7611   5.6531   0.00    0.0
2091  10500.000   4123599.0417   2659519.5690   4074841.2043   5   4   4.5287   6.7231   7.4843   5.2891   6.7428   5.6044   0.00    0.0
2091  10530.000   4123541.1672   2659188.2087   4074567.1955   5   4   4.4986   6.7543   7.4210   5.2813   6.7297   5.5604   0.00    0.0
2091  10560.000   4123459.6766   2658769.7778   4074228.5490   5   4   4.4717   6.7903   7.3636   5.2769   6.7213   5.5205   0.00    0.0
2091  10620.000   4123222.3704   2657661.0159   4073354.8864   5   4   4.4267   6.8766   7.2665   5.2787   6.7186   5.4527   0.00    0.0
2091  10710.000   4125626.8230   2655356.1948   4073342.0161   5   4  11.0419   6.6078   2.9535  -7.3177  -2.5933   5.0711   0.00    0.0
2091  10740.000   4122432.8775   2654283.1710   4070811.9958   5   4   4.2659   6.9290   6.9533   5.1869   6.5933   5.2267   0.00    0.0
2091  10800.000   4121025.7188   2650756.2277   4073150.4588   6   1   3.9026   3.2247   9.4618   2.9724   4.2073   5.5140   0.00    0.0
2091  10890.000   4121279.8374   2652740.1923   4069755.4648   5   4   4.1189   7.0773   6.6534   5.1349   6.5138   5.0127   0.00    0.0
2091  10950.000   4121005.9690   2653147.9266   4070272.8098   5   4   4.0877   7.1863   6.5813   5.1496   6.5265   4.9625   0.00    0.0
2091  11010.000   4120842.9249   2653561.4659   4070780.2202   5   4   4.0018   7.1913   6.4149   5.0881   6.4427   4.8420   0.00    0.0
2091  11040.000   4120797.3531   2653764.2311   4071022.1414   5   4   3.9635   7.2014   6.3406   5.0628   6.4082   4.7880   0.00    0.0
2091  11070.000   4120772.7747   2653960.5868   4071252.0371   5   4   3.9284   7.2170   6.2722   5.0415   6.3788   4.7381   0.00    0.0
2091  11130.000   4120775.9879   2654322.1706   4071662.1774   5   4   3.8678   7.2659   6.1535   5.0108   6.3359   4.6511   0.00    0.0
2091  11400.000   4125595.0901   2654317.0433   4074199.8484   5   4   5.4865   7.1884   6.2404   6.0309   6.5437   5.4760   0.00    0.0
2091  11430.000   4125430.0778   2654212.2996   4073951.5021   5   4   5.5073   7.1842   6.2062   6.0440   6.5225   5.4756   0.00    0.0
2091  11490.000   4124965.1718   2653903.5183   4073281.4841   5   4   5.5584   7.1906   6.1512   6.0813   6.4936   5.4846   0.00    0.0
2091  11550.000   4124310.3139   2653451.2412   4072373.7554   5   4   5.6226   7.2169   6.1135   6.1339   6.4826   5.5066   0.00    0.0
2091  12390.000   4107751.4332   2657004.8022   4066880.2780   5   4  11.9121   1.5779   5.4609  -2.6095  -1.4130   7.9525   0.00    0.0
2091  14490.000   4118954.5698   2652687.1626   4070909.1629   5   4   3.3825   4.0050   5.4961   3.3415   4.3679   3.7764   0.00    0.0
2091  14670.000   4115382.7925   2653538.7266   4073532.6946   5   4   3.4719   4.1328   5.4232   3.4642   4.4166   3.8701   0.00    0.0
2091  14700.000   4115073.8832   2653650.7208   4073820.6159   5   4   3.4859   4.1538   5.4101   3.4834   4.4236   3.8830   0.00    0.0
2091  14760.000   4114682.1311   2653841.1087   4074266.3621   5   4   3.5218   4.2074   5.3980   3.5303   4.4493   3.9170   0.00    0.0
2091  14790.000   4114595.1544   2653917.7179   4074423.7028   5   4   3.5433   4.2396   5.3985   3.5578   4.4674   3.9378   0.00    0.0
2091  14880.000   4114746.0771   2654061.9298   4074629.8510   5   4   3.5939   4.3196   5.3767   3.6247   4.5025   3.9816   0.00    0.0
2091  14970.000   4115475.2975   2654059.8308   4074433.0989   5   4   3.6089   4.3543   5.2980   3.6518   4.4884   3.9814   0.00    0.0
2091  15000.000   4115838.5174   2654022.4854   4074276.8784   5   4   3.6185   4.3730   5.2803   3.6660   4.4908   3.9863   0.00    0.0
2091  15030.000   4121025.6166   2650756.1618   4073150.1866   6   1   3.8874   3.2171   9.4173   2.9595   4.1831   5.4853   0.00    0.0
2091  15150.000   4118480.1190   2653521.4653   4072807.4562   5   4   3.7031   4.5242   5.2562   3.7794   4.5576   4.0510   0.00    0.0
2091  15180.000   4119162.7265   2653352.6506   4072375.0406   5   4   3.6982   4.5255   5.2176   3.7775   4.5409   4.0382   0.00    0.0
2091  15210.000   4119893.1305   2653158.8060   4071895.8394   5   4   3.6955   4.5300   5.1829   3.7780   4.5274   4.0277   0.00    0.0
2091  15270.000   4121491.9803   2652693.0792   4070797.0208   5   4   3.6968   4.5498   5.1260   3.7869   4.5110   4.0145   0.00    0.0
2091  15300.000   4122354.7805   2652410.7508   4070157.8909   5   4   3.7010   4.5652   5.1038   3.7953   4.5081   4.0119   0.00    0.0
2091  15330.000   4120467.6245   2652016.1213   4069274.6037   5   4   3.7058   4.5849   5.0824   3.8060   4.5070   4.0091   0.00    0.0
2091  15360.000   4119110.8158   2651864.4120   4069516.6720   5   4   3.7128   4.6080   5.0648   3.8192   4.5091   4.0087   0.00    0.0
2091  15390.000   4117873.8036   2651729.8636   4069754.0556   5   4   2.1789   2.8213   3.0526   2.3139   2.7460   2.3880   0.00    0.0
2091  15420.000   4116754.6715   2651612.2543   4069985.8179   5   4   2.1965   2.8559   3.0622   2.3376   2.7662   2.4031   0.00    0.0
2091  15450.000   4115752.1833   2651511.3558   4070211.3101   5   4   2.2183   2.8970   3.0780   2.3661   2.7922   2.4229   0.00    0.0
2091  15510.000   4114089.0018   2651358.3395   4070639.5164   5   4   2.1772   2.8606   2.9865   2.3275   2.7305   2.3670   0.00    0.0
2091  15570.000   4112866.9099   2651265.7534   4071027.6658   5   4   2.1532   2.8489   2.9220   2.3081   2.6926   2.3304   0.00    0.0
2091  15600.000   4112416.0122   2651240.7401   4071203.6399   5   4   2.1479   2.8530   2.9001   2.3060   2.6830   2.3198   0.00    0.0
2091  15630.000   4112069.0407   2651229.0370   4071365.8310   5   4   2.1479   2.8650   2.8860   2.3100   2.6806   2.3150   0.00    0.0
2091  15660.000   4111823.6397   2651229.8308   4071512.7133   5   4   2.1523   2.8838   2.8785   2.3191   2.6843   2.3152   0.00    0.0
2091  15690.000   4111677.9509   2651242.5764   4071643.2706   5   4   2.1610   2.9094   2.8775   2.3333   2.6941   2.3203   0.00    0.0
2091  15720.000   4111629.8720   2651266.5376   4071756.1274   5   4   2.1740   2.9417   2.8826   2.3525   2.7098   2.3300   0.00    0.0
2091  15750.000   4111677.0712   2651300.8993   4071849.8981   5   4   2.1911   2.9805   2.8936   2.3765   2.7311   2.3443   0.00    0.0
2091  15810.000   4112048.9358   2651397.5622   4071974.9755   5   4   2.1418   2.9353   2.7995   2.3278   2.6616   2.2803   0.00    0.0
2091  15870.000   4112776.5084   2651525.7510   4072007.7633   5   4   2.1103   2.9166   2.7323   2.2994   2.6168   2.2365   0.00    0.0
2091  15900.000   4113268.3934   2651599.5525   4071986.3824   5   4   2.1012   2.9175   2.7086   2.2929   2.6035   2.2220   0.00    0.0
2091  15930.000   4113843.0780   2651678.8113   4071938.3902   5   4   2.0970   2.9263   2.6918   2.2922   2.5970   2.2130   0.00    0.0
2091  16020.000   4116042.7001   2651939.4274   4071621.2021   5   4   2.1100   2.9940   2.6778   2.3200   2.6125   2.2139   0.00    0.0
2091  16080.000   4117883.3064   2652121.3819   4071251.5604   5   4   3.5998   4.8965   4.3779   3.8217   4.2507   3.6879   0.00    0.0
2091  16110.000   4121025.6677   2650756.1999   4073150.3295   6   1   3.8803   3.2123   9.3942   2.9525   4.1693   5.4711   0.00    0.0
2091  16140.000   4120004.7319   2652300.8883   4070744.6436   5   4   3.5585   4.8787   4.2891   3.7826   4.1899   3.6275   0.00    0.0
2091  16170.000   4121167.4963   2652388.0103   4070438.3823   5   4   3.5413   4.8758   4.2502   3.7671   4.1645   3.6012   0.00    0.0
2091  29520.000   4116789.8144   2646225.5905   4075526.6422   5   4  16.8255  19.0013   5.5774  17.7934  -8.7259  -7.8864   0.00    0.0
2091  29610.000   4117609.4069   2647496.3514   4073092.6706   5   4   8.5589   9.3683   2.4979   8.9261  -4.1653  -3.8724   0.00    0.0
2091  29700.000   4119878.1803   2650197.1917   4069757.8272   5   4  21.2554  23.3669   6.2513  22.2210 -10.6724  -9.9437   0.00    0.0
2091  29730.000   4121025.5769   2650756.1435   4073150.0989   6   1   3.8674   3.2063   9.3599   2.9420   4.1504   5.4479   0.00    0.0
2091  31200.000   4112699.9297   2643537.9028   4078289.6706   5   4  12.1239  10.9181   2.0499  11.4890  -3.5703  -3.7889   0.00    0.0
2091  31230.000   4113817.9786   2644655.4418   4077699.8960   5   4  11.7040  10.5114   2.0053  11.0748  -3.3783  -3.5958   0.00    0.0
2091  31260.000   4114917.9941   2645746.3177   4077039.5789   5   4  11.3409  10.1586   1.9704  10.7157  -3.2070  -3.4244   0.00    0.0
2091  31320.000   4117039.7264   2647822.0597   4075505.5884   5   4  27.2300  24.0368   4.4056  25.5350  -5.9379  -6.3670   0.00    0.0
2091  31350.000   4118072.2045   2648811.5999   4074638.0763   5   4  26.5217  23.3527   4.3618  24.8364  -5.5249  -5.9481   0.00    0.0
2091  31440.000   4121007.0639   2651529.7515   4071630.6100   5   4  24.4832  21.3998   4.2274  22.8341  -4.2482  -4.6559   0.00    0.0
2091  31470.000   4121929.6456   2652346.0437   4070495.3419   5   4  23.9035  20.8459   4.1984  22.2652  -3.8328  -4.2405   0.00    0.0
2091  31500.000   4121025.6146   2650756.1649   4073150.1904   6   1   3.8597   3.2033   9.3411   2.9363   4.1405   5.4346   0.00    0.0
2091  31560.000   4117725.5819   2648170.1704   4071634.0987   5   4   8.5546   7.4863   1.7303   7.9771  -1.8084  -2.0445   0.00    0.0
2091  31650.000   4113447.1554   2644198.1940   4074690.3819   5   4   8.1744   7.1154   1.7403   7.5977  -1.5461  -1.8106   0.00    0.0
2091  31680.000   4112473.3780   2643323.8067   4075499.8194   5   4   7.9327   6.8916   1.7145   7.3643  -1.4172  -1.6884   0.00    0.0
2091  31710.000   4111689.9600   2642637.8683   4076208.9989   5   4   7.7171   6.6920   1.6930   7.1560  -1.2928  -1.5733   0.00    0.0
2091  31770.000   4110646.0002   2641776.2738   4077340.8529   5   4   7.3600   6.3609   1.6642   6.8103  -1.0551  -1.3644   0.00    0.0
2091  31800.000   4110354.9849   2641568.7800   4077768.0766   5   4   7.2157   6.2265   1.6565   6.6701  -0.9386  -1.2692   0.00    0.0
2091  31950.000   4110698.3522   2642225.2105   4078588.5822   5   4   6.7905   5.8232   1.6831   6.2492  -0.1455  -0.8685   0.00    0.0
2091  31980.000   4111061.1537   2642622.7891   4078501.6068   5   4   6.6255   5.6747   1.6643   6.0919   0.4115  -0.7306   0.00    0.0
2091  32010.000   4111505.4251   2643089.7246   4078334.8210   5   4   6.4786   5.5424   1.6494   5.9516   0.5830  -0.5820   0.00    0.0
2091  32040.000   4112023.9725   2643617.9143   4078089.3358   5   4   6.3496   5.4263   1.6384   5.8283   0.7029  -0.4070   0.00    0.0
2091  32070.000   4112610.3347   2644199.9873   4077766.3935   5   4   6.2377   5.3257   1.6313   5.7212   0.7965  -0.1087   0.00    0.0
2091  32130.000   4113962.4338   2645497.8775   4076892.2779   5   4   6.0639   5.1690   1.6292   5.5538   0.9399   0.4968   0.00    0.0
2091  32160.000   4114719.9418   2646202.9327   4076343.5395   5   4   6.0002   5.1114   1.6340   5.4919   0.9982   0.5968   0.00    0.0
2091  32190.000   4115524.7224   2646937.1599   4075721.3930   5   4   5.9503   5.0660   1.6424   5.4428   1.0510   0.6748   0.00    0.0
2091  32250.000   4117254.9538   2648469.3510   4074257.6203   5   4  16.0990  13.6325   4.3451  14.7033   4.5948   4.5812   0.00    0.0
2091  32280.000   4118175.4514   2649259.4818   4073418.5095   5   4  15.9255  13.4850   4.3580  14.5412   4.6697   4.6612   0.00    0.0
2091  32310.000   4119132.2438   2650062.3369   4072511.9232   5   4  15.7629  13.3479   4.3727  14.3897   4.7412   4.7367   0.00    0.0
2091  32340.000   4120118.7880   2650871.4209   4071536.2187   5   4  15.6102  13.2204   4.3892  14.2479   4.8098   4.8082   0.00    0.0
2091  32370.000   4121136.4955   2651686.1871   4070493.1377   5   4  15.4669  13.1020   4.4074  14.1153   4.8758   4.8760   0.00    0.0
2091  32400.000   4122173.7944   2652492.1724   4069368.0795   5   4  15.3326  12.9922   4.4274  13.9914   4.9396   4.9407   0.00    0.0
2091  32430.000   4120209.0589   2650596.2634   4070114.1056   5   4  15.2035  12.8886   4.4455  13.8732   4.9915   4.9909   0.00    0.0
2091  32550.000   4114998.7415   2645937.2036   4073621.5247   5   4   5.2651   4.4760   1.6778   4.7894   1.4623   1.1979   0.00    0.0
2091  32580.000   4114079.3405   2645144.9920   4074297.8079   5   4   5.1714   4.3977   1.6649   4.7031   1.4795   1.2260   0.00    0.0
2091  32610.000   4113298.6407   2644485.4319   4074896.3385   5   4   5.0899   4.3301   1.6554   4.6280   1.4966   1.2514   0.00    0.0
2091  33270.000   4120815.7834   2651399.6048   4070338.6533   5   4  12.9350  11.4207   5.0433  11.9515   6.1746   6.0262   0.00    0.0
2091  33300.000   4121929.4506   2652254.5373   4069378.6962   5   4  12.8867  11.4050   5.0672  11.9174   6.2130   6.0562   0.00    0.0
2091  33330.000   4120407.1589   2650752.2260   4069839.2646   5   4  12.8422  11.3943   5.0884  11.8878   6.2469   6.0803   0.00    0.0
2091  33360.000   4119033.1684   2649474.9371   4070600.7675   5   4   4.2338   3.7197   1.7201   3.8615   1.8700   1.6194   0.00    0.0
2091  33390.000   4117779.2932   2648319.1164   4071294.1747   5   4   4.2301   3.7243   1.7310   3.8596   1.8865   1.6299   0.00    0.0
2091  33420.000   4116654.1796   2647289.4662   4071928.3603   5   4   4.2332   3.7349   1.7446   3.8636   1.9049   1.6408   0.00    0.0
2091  33510.000   4114027.3705   2644926.1585   4073490.0887   5   4   4.1520   3.6896   1.7467   3.7973   1.9335   1.6685   0.00    0.0
2091  34200.000   4121955.8058   2652257.9318   4069450.3396   5   4   6.0906   3.5746   4.6342   4.1558   2.6510   2.3421   0.00    0.0
2091  34230.000   4120721.8037   2650900.3281   4069649.4195   5   4   6.1338   3.6027   4.6165   4.1952   2.6500   2.3484   0.00    0.0
2091  34260.000   4119545.6336   2649670.2880   4070194.8247   5   4   6.1797   3.6326   4.6002   4.2369   2.6504   2.3566   0.00    0.0
2091  34290.000   4118420.9759   2648500.6631   4070669.3206   5   4   2.4856   1.3939   1.6755   1.6712   1.0213   0.7905   0.00    0.0
2091  34320.000   4117350.5715   2647393.8885   4071074.1397   5   4   2.5239   1.4160   1.6776   1.7013   1.0292   0.8038   0.00    0.0
2091  34350.000   4116340.6165   2646354.2164   4071415.3070   5   4   2.5682   1.4414   1.6830   1.7355   1.0395   0.8192   0.00    0.0
2091  34380.000   4115395.3541   2645384.8580   4071696.4984   5   4   2.5598   1.4407   1.6573   1.7362   1.0309   0.8237   0.00    0.0
2091  34410.000   4114518.9696   2644489.0712   4071921.2260   5   4   2.5568   1.4428   1.6354   1.7403   1.0246   0.8294   0.00    0.0
2091  34440.000   4113715.6503   2643670.2319   4072093.2754   5   4   2.5593   1.4479   1.6171   1.7481   1.0207   0.8367   0.00    0.0
2091  34470.000   4112989.5334   2642931.6776   4072215.9085   5   4   2.5676   1.4561   1.6024   1.7597   1.0191   0.8456   0.00    0.0
2091  34500.000   4112344.3131   2642276.7323   4072292.9692   5   4   2.5818   1.4676   1.5912   1.7752   1.0199   0.8563   0.00    0.0
2091  34530.000   4111784.0006   2641708.8605   4072327.7859   5   4   2.6030   1.4829   1.5840   1.7955   1.0236   0.8693   0.00    0.0
2091  34560.000   4111312.3264   2641231.4817   4072323.9661   5   4   2.6305   1.5017   1.5802   1.8202   1.0297   0.8843   0.00    0.0
2091  34590.000   4110933.5142   2640848.3108   4072284.9394   5   4   2.6643   1.5240   1.5797   1.8492   1.0384   0.9015   0.00    0.0
2091  34620.000   4110650.9704   2640562.8614   4072214.4430   5   4   2.7044   1.5501   1.5824   1.8828   1.0496   0.9210   0.00    0.0
2091  34650.000   4110468.4622   2640378.8278   4072115.4078   5   4   2.7509   1.5798   1.5881   1.9209   1.0633   0.9429   0.00    0.0
2091  34680.000   4110389.6291   2640299.6822   4071992.0521   5   4   2.7408   1.5802   1.5655   1.9212   1.0575   0.9492   0.00    0.0
2091  34710.000   4110418.0413   2640329.1833   4071847.6447   5   4   2.7360   1.5835   1.5462   1.9250   1.0538   0.9568   0.00    0.0
2091  34740.000   4110557.0970   2640471.0416   4071685.2719   5   4   2.7371   1.5901   1.5302   1.9328   1.0525   0.9661   0.00    0.0
2091  34770.000   4110810.3247   2640729.1186   4071508.6283   5   4   2.7444   1.6001   1.5176   1.9449   1.0537   0.9774   0.00    0.0
2091  34800.000   4111180.8132   2641107.0212   4071320.7950   5   4   2.7581   1.6138   1.5084   1.9615   1.0575   0.9908   0.00    0.0
2091  34830.000   4111672.2126   2641608.6990   4071125.2570   5   4   2.7794   1.6318   1.5029   1.9834   1.0643   1.0070   0.00    0.0
2091  34860.000   4112287.3067   2642237.8962   4070925.1447   5   4   2.8073   1.6538   1.5006   2.0101   1.0738   1.0256   0.00    0.0
2091  34890.000   4113029.4361   2642998.5676   4070723.9189   5   4   2.8420   1.6797   1.5016   2.0417   1.0861   1.0468   0.00    0.0
2091  34920.000   4113901.7051   2643894.5222   4070524.7734   5   4   2.8834   1.7096   1.5055   2.0783   1.1011   1.0707   0.00    0.0
2091  34950.000   4114906.9383   2644929.5413   4070330.7599   5   4   2.9315   1.7437   1.5125   2.1198   1.1190   1.0974   0.00    0.0
2091  34980.000   4116048.2171   2646107.7755   4070144.8287   5   4   2.9186   1.7443   1.4926   2.1185   1.1150   1.1028   0.00    0.0
2091  35010.000   4117328.1400   2647432.8393   4069970.7029   5   4   2.9117   1.7484   1.4760   2.1214   1.1136   1.1102   0.00    0.0
2091  35040.000   4118749.5864   2648908.7670   4069811.1293   5   4   2.9111   1.7562   1.4627   2.1289   1.1148   1.1198   0.00    0.0
2091  35070.000   4120313.3206   2650538.5358   4069666.1196   5   4   7.4390   4.6758   4.1887   5.5271   2.8356   2.9130   0.00    0.0
2091  35100.000   4122039.4750   2652342.7042   4069536.8287   5   4   7.4880   4.7247   4.1773   5.5818   2.8514   2.9439   0.00    0.0
2091  35130.000   4121026.3125   2650967.2462   4069483.8218   5   4   7.5316   4.7674   4.1644   5.6300   2.8594   2.9646   0.00    0.0
2091  35160.000   4120150.2175   2649808.1445   4069890.2469   5   4   7.5782   4.8126   4.1529   5.6810   2.8695   2.9875   0.00    0.0
2091  35190.000   4119319.8615   2648713.7437   4070250.4249   5   4   3.0078   1.8505   1.4422   2.2356   1.1545   1.1962   0.00    0.0
2091  35220.000   4118535.7830   2647685.6235   4070563.6930   5   4   3.0479   1.8816   1.4470   2.2721   1.1702   1.2189   0.00    0.0
2091  35250.000   4117802.7627   2646727.3759   4070835.0718   5   4   3.0951   1.9172   1.4548   2.3139   1.1888   1.2446   0.00    0.0
2091  35280.000   4117122.9466   2645841.2833   4071066.5460   5   4   3.0776   1.9154   1.4370   2.3086   1.1834   1.2446   0.00    0.0
2091  35310.000   4116498.9482   2645029.8388   4071260.1935   5   4   3.0665   1.9174   1.4222   2.3078   1.1805   1.2469   0.00    0.0
2091  35340.000   4115932.8377   2644295.2017   4071418.3926   5   4   3.0621   1.9234   1.4104   2.3120   1.1803   1.2518   0.00    0.0
2091  35370.000   4115426.7561   2643639.7570   4071543.2032   5   4   3.0647   1.9337   1.4016   2.3214   1.1829   1.2596   0.00    0.0
2091  35400.000   4114983.0129   2643066.0586   4071636.0336   5   4   3.0746   1.9483   1.3958   2.3361   1.1884   1.2703   0.00    0.0
2091  35430.000   4114603.6551   2642576.5483   4071698.9439   5   4   3.0928   1.9681   1.3935   2.3572   1.1974   1.2846   0.00    0.0
2091  35460.000   4114290.6200   2642173.2573   4071735.0324   5   4   3.1183   1.9926   1.3941   2.3839   1.2095   1.3022   0.00    0.0
2091  35490.000   4114046.1337   2641858.6764   4071744.7416   5   4   3.1513   2.0218   1.3977   2.4163   1.2247   1.3231   0.00    0.0
2091  35520.000   4113872.0943   2641635.4141   4071730.4619   5   4   3.1916   2.0559   1.4041   2.4544   1.2431   1.3473   0.00    0.0
2091  35550.000   4113770.3141   2641505.8316   4071693.9174   5   4   3.2392   2.0947   1.4134   2.4983   1.2646   1.3749   0.00    0.0
2091  35580.000   4113742.7732   2641472.2557   4071636.8461   5   4   3.2189   2.0920   1.3976   2.4907   1.2593   1.3725   0.00    0.0
2091  35610.000   4113791.4725   2641537.2733   4071561.0581   5   4   3.2057   2.0938   1.3848   2.4885   1.2570   1.3732   0.00    0.0
2091  35640.000   4113917.8184   2641702.8658   4071468.2180   5   4   3.1997   2.1001   1.3749   2.4917   1.2576   1.3769   0.00    0.0
2091  35670.000   4114123.6924   2641971.6201   4071359.8414   5   4   3.2009   2.1110   1.3680   2.5004   1.2613   1.3838   0.00    0.0
2091  35700.000   4114410.9445   2642345.9324   4071238.1439   5   4   3.2097   2.1266   1.3640   2.5150   1.2680   1.3940   0.00    0.0
2091  35730.000   4114780.9834   2642828.1074   4071104.3100   5   4   3.2269   2.1478   1.3633   2.5361   1.2785   1.4082   0.00    0.0
2091  35760.000   4115235.5525   2643420.5605   4070959.8711   5   4   3.2519   2.1741   1.3654   2.5633   1.2922   1.4259   0.00    0.0
2091  35790.000   4115776.0468   2644125.5064   4070806.5886   5   4   3.2845   2.2055   1.3705   2.5966   1.3094   1.4472   0.00    0.0
2091  35820.000   4116404.2291   2644945.6196   4070645.7592   5   4   3.3246   2.2421   1.3785   2.6360   1.3299   1.4722   0.00    0.0
2091  35850.000   4117121.7528   2645883.3441   4070478.8026   5   4   3.3722   2.2839   1.3893   2.6814   1.3538   1.5009   0.00    0.0
2091  35880.000   4117929.5860   2646940.7154   4070307.0722   5   4   3.3507   2.2810   1.3755   2.6726   1.3488   1.4968   0.00    0.0
2091  35910.000   4118829.2106   2648120.0869   4070132.0495   5   4   3.3355   2.2823   1.3643   2.6688   1.3464   1.4956   0.00    0.0
2091  35970.000   4120906.0546   2650852.8090   4069771.4960   5   4   8.7708   6.2106   3.9189   7.1123   3.2933   3.6825   0.00    0.0
2091  36000.000   4122099.7194   2652426.2054   4069588.4919   5   4   8.8160   6.2707   3.9142   7.1695   3.3153   3.7109   0.00    0.0
2091  36030.000   4121629.4920   2651364.2521   4069540.6334   5   4   8.8547   6.3226   3.9070   7.2189   3.3265   3.7271   0.00    0.0
2091  36090.000   4121031.6442   2649853.7604   4070439.3423   5   4   8.9423   6.4349   3.8965   7.3267   3.3552   3.7660   0.00    0.0
2091  36120.000   4120754.3257   2649171.7337   4070830.3314   5   4   8.9909   6.4950   3.8930   7.3847   3.3722   3.7881   0.00    0.0
2091  36150.000   4120492.9222   2648540.0860   4071183.1345   5   4   9.0427   6.5576   3.8908   7.4455   3.3910   3.8120   0.00    0.0
2091  36180.000   4120250.0844   2647960.5327   4071501.9167   5   4   9.0672   6.6026   3.8799   7.4847   3.3967   3.8210   0.00    0.0
2091  36210.000   4120023.9427   2647433.0175   4071781.1267   5   4   9.0949   6.6500   3.8703   7.5265   3.4041   3.8318   0.00    0.0
2091  36240.000   4119817.1054   2646959.4406   4072024.5115   5   4   9.1259   6.7000   3.8618   7.5711   3.4131   3.8442   0.00    0.0
2091  36270.000   4119630.7316   2646541.0061   4072232.6783   5   4   9.1601   6.7525   3.8545   7.6184   3.4239   3.8583   0.00    0.0
2091  36300.000   4119465.8907   2646178.8381   4072406.2292   5   4   9.1975   6.8076   3.8483   7.6685   3.4365   3.8742   0.00    0.0
2091  36330.000   4119324.6826   2645874.2391   4072549.2522   5   4   3.4441   2.5040   1.3279   2.8592   1.4258   1.5912   0.00    0.0
2091  36360.000   4119205.5163   2645627.5553   4072656.5038   5   4   3.4660   2.5301   1.3308   2.8844   1.4376   1.6043   0.00    0.0
2091  36390.000   4119110.4401   2645440.1501   4072731.6458   5   4   3.4959   2.5621   1.3365   2.9163   1.4532   1.6214   0.00    0.0
2091  36420.000   4119040.9569   2645313.6493   4072775.0093   5   4   3.5337   2.6000   1.3450   2.9548   1.4725   1.6426   0.00    0.0
2091  36450.000   4118997.9630   2645249.1304   4072787.2626   5   4   3.5792   2.6436   1.3561   2.9999   1.4955   1.6678   0.00    0.0
2091  36480.000   4118982.6383   2645247.9857   4072768.9528   5   4   3.5521   2.6357   1.3425   2.9849   1.4851   1.6556   0.00    0.0
2091  36660.000   4118495.9731   2645375.7639   4073097.1513   5   4   2.4416   1.5751   2.1865   1.7660   1.5656   2.1724   0.00    0.0
2091  36720.000   4119060.5766   2646552.0005   4072465.5858   5   4   2.4440   1.5835   2.2186   1.7680   1.5718   2.1868   0.00    0.0
2091  36750.000   4119414.2412   2647272.9095   4072095.1765   5   4   6.5349   4.3597   5.8098   4.7517   4.1478   5.7424   0.00    0.0
2091  36780.000   4119820.7299   2648086.7751   4071692.9782   5   4   6.4937   4.3425   5.8062   4.7212   4.1259   5.7196   0.00    0.0
2091  36810.000   4120276.9998   2648992.4886   4071255.3433   5   4   6.4544   4.3263   5.8044   4.6920   4.1047   5.6985   0.00    0.0
2091  36840.000   4120789.2668   2649995.1064   4070787.6456   5   4   6.4170   4.3112   5.8044   4.6639   4.0843   5.6789   0.00    0.0
2091  36870.000   4121356.0185   2651094.5415   4070288.0544   5   4   6.3816   4.2973   5.8062   4.6369   4.0647   5.6610   0.00    0.0
2091  36900.000   4121984.1131   2652303.7390   4069745.8388   5   4   6.3480   4.2844   5.8099   4.6111   4.0459   5.6448   0.00    0.0
2091  36930.000   4121933.2407   2651513.5910   4070059.4459   5   4   6.3126   4.2679   5.8097   4.5819   4.0214   5.6245   0.00    0.0
2091  36960.000   4121900.4491   2650866.0476   4071014.9192   5   4   6.2789   4.2528   5.8111   4.5540   3.9979   5.6057   0.00    0.0
2091  37080.000   4121622.5117   2648597.3586   4074107.9580   5   4   6.1442   4.1933   5.8164   4.4415   3.8988   5.5289   0.00    0.0
2091  37140.000   4121425.0692   2647681.5694   4075224.3102   5   4   6.0608   4.1542   5.8012   4.3731   3.8355   5.4738   0.00    0.0
2091  37200.000   4121211.3075   2646931.7222   4076059.4520   5   4   5.9852   4.1204   5.7938   4.3099   3.7753   5.4253   0.00    0.0
2091  37230.000   4121103.4100   2646623.8152   4076372.7864   5   4   5.9505   4.1057   5.7933   4.2803   3.7463   5.4038   0.00    0.0
2091  37260.000   4120997.7816   2646363.2272   4076617.3756   5   4   5.9177   4.0923   5.7947   4.2520   3.7179   5.3838   0.00    0.0
2091  37290.000   4120896.4424   2646151.9531   4076793.6911   5   4   5.8865   4.0802   5.7980   4.2248   3.6900   5.3654   0.00    0.0
2091  37350.000   4120714.8310   2645885.4438   4076943.3473   5   4   5.8293   4.0600   5.8102   4.1738   3.6356   5.3328   0.00    0.0
2091  37380.000   4120638.7250   2645834.1977   4076917.6232   5   4   5.7867   4.0411   5.8002   4.1382   3.5985   5.3024   0.00    0.0
2091  37650.000   4120769.9352   2648216.0540   4073754.8102   5   4   5.4849   3.9373   5.7988   3.8741   3.2835   5.0986   0.00    0.0
2091  37770.000   4121553.7015   2651186.8126   4070708.7623   5   4   5.3353   3.8895   5.7752   3.7453   3.1127   4.9859   0.00    0.0
2091  37800.000   4121847.4132   2652151.1070   4069777.7923   5   4   5.3021   3.8814   5.7742   3.7161   3.0701   4.9612   0.00    0.0
2091  37890.000   4122401.3469   2650725.4682   4072607.8784   5   4   5.2069   3.8596   5.7710   3.6303   2.9284   4.8839   0.00    0.0
2091  37920.000   4122483.6627   2650265.5858   4073621.2922   5   4   5.1783   3.8558   5.7738   3.6043   2.8803   4.8606   0.00    0.0
2091  37950.000   4122535.7147   2649823.5009   4074545.7955   5   4   5.1511   3.8537   5.7785   3.5795   2.8317   4.8384   0.00    0.0
2091  37980.000   4122559.9855   2649401.4788   4075382.0297   5   4   5.1126   3.8438   5.7677   3.5467   2.7760   4.8045   0.00    0.0
2091  38010.000   4122559.1883   2649001.9166   4076130.3392   5   4   5.0756   3.8354   5.7587   3.5151   2.7198   4.7719   0.00    0.0
2091  38040.000   4122535.6900   2648627.0069   4076790.9579   5   4   5.0403   3.8289   5.7518   3.4849   2.6629   4.7406   0.00    0.0
2091  38070.000   4122492.2094   2648279.1870   4077364.3630   5   4   5.0067   3.8242   5.7469   3.4561   2.6052   4.7106   0.00    0.0
2091  38100.000   4122431.3517   2647960.9825   4077851.0430   5   4   4.9746   3.8213   5.7440   3.4286   2.5466   4.6818   0.00    0.0
2091  38130.000   4122355.7487   2647674.8415   4078251.3646   5   4   4.9444   3.8206   5.7435   3.4027   2.4869   4.6544   0.00    0.0
2091  38160.000   4122267.6265   2647423.4133   4078565.3763   5   4   4.9156   3.8217   5.7450   3.3782   2.4257   4.6281   0.00    0.0
2091  38190.000   4122170.1968   2647209.0260   4078793.7761   5   4   4.8883   3.8247   5.7484   3.3549   2.3628   4.6028   0.00    0.0
2091  38220.000   4122065.7614   2647034.2344   4078936.7193   5   4   4.8625   3.8297   5.7538   3.3331   2.2978   4.5784   0.00    0.0
2091  38250.000   4121957.1184   2646901.7598   4078994.5484   5   4   4.8381   3.8367   5.7611   3.3125   2.2305   4.5550   0.00    0.0
2091  38280.000   4121846.9722   2646814.3736   4078967.7139   5   4   4.8033   3.8356   5.7532   3.2845   2.1570   4.5212   0.00    0.0
2091  38310.000   4121737.8675   2646774.6551   4078856.2978   5   4   4.7701   3.8367   5.7474   3.2581   2.0811   4.4885   0.00    0.0
2091  38340.000   4121632.7590   2646785.4795   4078660.7610   5   4   4.7386   3.8398   5.7437   3.2331   2.0023   4.4568   0.00    0.0
2091  38370.000   4121025.6889   2650756.2157   4073150.3633   6   1   3.8513   3.1986   9.3225   2.9288   4.1281   5.4208   0.00    0.0
2091  38400.000   4121444.0348   2646969.4873   4078017.2454   5   4   4.6799   3.8521   5.7422   3.1877   1.8335   4.3964   0.00    0.0
2091  38430.000   4121366.4849   2647148.7790   4077570.0919   5   4   4.6530   3.8616   5.7447   3.1673   1.7420   4.3677   0.00    0.0
2091  38460.000   4121025.7396   2650756.2534   4073150.5041   6   1   3.8441   3.1938   9.2994   2.9217   4.1141   5.4065   0.00    0.0
2091  38490.000   4121258.6807   2647696.5191   4076425.7159   5   4   4.6033   3.8871   5.7556   3.1311   1.5392   4.3126   0.00    0.0
2091  38520.000   4121234.2043   2648071.0396   4075728.9316   5   4   4.5805   3.9031   5.7640   3.1154   1.4246   4.2860   0.00    0.0
2091  38550.000   4121233.3237   2648517.0725   4074949.2167   5   4   4.5591   3.9215   5.7743   3.1013   1.2976   4.2600   0.00    0.0
2091  38580.000   4121258.5301   2649037.3567   4074086.7788   5   4   4.5285   3.9319   5.7701   3.0804   1.1568   4.2251   0.00    0.0
2091  38610.000   4121313.0864   2649635.6001   4073141.5734   5   4   4.4994   3.9445   5.7679   3.0612   0.9948   4.1909   0.00    0.0
2091  38640.000   4121399.9288   2650314.8990   4072113.8937   5   4   4.4718   3.9595   5.7677   3.0437   0.7981   4.1574   0.00    0.0
2091  38670.000   4121522.0046   2651078.8629   4071003.4500   5   4   4.4456   3.9767   5.7695   3.0279   0.5285   4.1246   0.00    0.0
2091  38700.000   4121686.1757   2651942.9938   4069790.1959   5   4   4.4209   3.9964   5.7734   3.0139  -0.2898   4.0923   0.00    0.0
2091  38730.000   4122191.8913   2651762.1547   4070443.1392   5   4   4.3975   4.0169   5.7775   3.0016  -0.6797   4.0585   0.00    0.0
2091  38760.000   4122392.0350   2651336.6558   4071760.2792   5   4   4.3753   4.0397   5.7828   2.9913  -0.9193   4.0247   0.00    0.0
2091  38790.000   4122548.8019   2650913.7204   4072980.5525   5   4   4.3546   4.0651   5.7902   2.9830  -1.1117   3.9913   0.00    0.0
2091  38820.000   4122664.9508   2650495.8530   4074104.3997   5   4   4.3353   4.0931   5.7995   2.9767  -1.2787   3.9580   0.00    0.0
2091  38850.000   4122743.3734   2650085.9036   4075131.9619   5   4   4.3175   4.1238   5.8109   2.9726  -1.4296   3.9249   0.00    0.0
2091  38880.000   4122786.2772   2649686.5691   4076063.0270   5   4   4.2915   4.1460   5.8085   2.9621  -1.5600   3.8844   0.00    0.0
2091  38910.000   4122798.0804   2649300.5809   4076899.3471   5   4   4.2669   4.1708   5.8081   2.9537  -1.6823   3.8442   0.00    0.0
2091  38940.000   4122780.8169   2648930.8529   4077640.2671   5   4   4.2439   4.1981   5.8098   2.9474  -1.7984   3.8043   0.00    0.0
2091  38970.000   4122737.3725   2648580.2870   4078285.8271   5   4   4.2224   4.2281   5.8136   2.9435  -1.9099   3.7644   0.00    0.0
2091  39000.000   4122670.7396   2648251.9064   4078836.2603   5   4   4.2026   4.2609   5.8194   2.9418  -2.0176   3.7246   0.00    0.0
2091  39030.000   4122583.8859   2647948.6910   4079291.7263   5   4   4.1845   4.2966   5.8275   2.9427  -2.1225   3.6849   0.00    0.0
2091  40530.000   4122187.1977   2651881.3006   4070381.8766   5   5   3.9741   3.3548   3.7611   3.0708   1.4363   2.3992   0.00    0.0
2091  40770.000   4122631.3615   2649780.4468   4078607.2309   5   4   4.1538   4.8521  10.5587   3.4893   5.8209   2.8654   0.00    0.0
2091  40860.000   4121551.4440   2648590.4826   4078423.9756   5   4   6.6024   3.8423   4.9061   4.1248   2.1860   4.6021   0.00    0.0
2091  40890.000   4121331.1943   2648362.1108   4078599.7870   5   4   6.6072   3.8873   4.8647   4.1698   2.1723   4.5527   0.00    0.0
2091  41040.000   4120215.7916   2647646.2965   4078213.5732   5   4   6.6394   4.1172   4.6607   4.4011   2.0947   4.3001   0.00    0.0
2091  41340.000   4120111.4623   2650066.1678   4071478.8270   5   4   6.9350   4.7388   4.3356   5.0386   1.9120   3.8450   0.00    0.0
2091  41520.000   4122732.6118   2650945.6150   4073845.4115   5   4   7.3136   5.2566   4.1863   5.5857   1.7683   3.5865   0.00    0.0
2091  41730.000   4121835.3204   2648363.8704   4078543.1904   5   4   7.9510   6.0303   4.0340   6.4028   1.4952   3.2363   0.00    0.0
2091  41790.000   4121222.6852   2647644.0323   4079059.9384   5   4   8.2065   6.3182   4.0016   6.7042   1.3769   3.1262   0.00    0.0
2091  42030.000   4118557.4203   2645919.0575   4077630.2313   5   4   9.5453   7.7866   3.8877   8.2245  -0.4477   2.4951   0.00    0.0
2091  42180.000   4117614.5474   2647060.6022   4076857.8532   5   4  13.8470   9.4310  17.5201  10.7801  -9.6256 -14.1608   0.00    0.0
2091  42210.000   4117810.6586   2647634.5693   4075754.8959   5   4  14.6744  10.0193  18.0067  11.5251 -10.4172 -14.8999   0.00    0.0
2091  42300.000   4119753.7613   2650691.2356   4071084.5855   5   4  17.8199  12.3751  19.8594  14.3832 -13.2433 -17.6321   0.00    0.0
2091  42330.000   4122723.3953   2652211.7953   4069600.1992   5   4  19.1924  13.4306  20.6907  15.6306 -14.4192 -18.8086   0.00    0.0
2091  42900.000   4119365.3049   2644824.1447   4073625.6696   5   4   5.9173   3.3105  15.8088   3.4746   2.5069  -5.9999   0.00    0.0
2091  47160.000   4158025.5092   2669789.4785   4130487.6463   5   4  21.3415  12.9523  32.3066  16.4450  20.0810  26.1341   0.00    0.0
2091  47190.000   4156256.2519   2668477.4098   4127914.5078   5   4  20.0497  12.1492  30.3081  15.4116  18.7831  24.5193   0.00    0.0
2091  47220.000   4154390.2737   2667153.3601   4125137.1367   5   4  18.9195  11.4506  28.5564  14.5079  17.6450  23.1042   0.00    0.0
2091  47280.000   4150456.4683   2664530.1138   4119105.0018   5   4  16.9934  10.2719  25.5624  12.9707  15.7018  20.6871   0.00    0.0
2091  47310.000   4148419.5542   2663252.9202   4115898.9809   5   4  16.1637   9.7699  24.2686  12.3100  14.8631  19.6433   0.00    0.0
2091  47370.000   4144258.4587   2660807.1396   4109191.6814   5   4  14.7504   8.9259  22.0575  11.1863  13.4293  17.8603   0.00    0.0
2091  47400.000   4142149.6987   2659650.6716   4105715.6264   5   4  14.1451   8.5700  21.1071  10.7060  12.8127  17.0942   0.00    0.0
2091  47460.000   4137906.2603   2657495.8069   4098568.4225   5   4  13.0975   7.9648  19.4552   9.8765  11.7404  15.7634   0.00    0.0
2091  47520.000   4133659.5987   2655579.1999   4091212.4428   5   4  12.2252   7.4750  18.0715   9.1884  10.8414  14.6495   0.00    0.0
2091  47550.000   4131544.1224   2654718.8744   4087471.2704   5   4  11.8430   7.2658  17.4621   8.8878  10.4450  14.1592   0.00    0.0
2091  47670.000   4123192.7985   2651994.1977   4072186.4298   5   4  10.4836   6.5443  15.2811   7.8285   9.0356  12.4084   0.00    0.0
2091  47790.000   4129150.5767   2655265.8013   4081996.7513   5   4   9.5184   6.0774  13.6969   7.0875   8.0127  11.1432   0.00    0.0
2091  48000.000   4136469.8137   2657462.1668   4095984.8332   5   4   8.2853   5.5652  11.6209   6.1703   6.6836   9.4947   0.00    0.0
2091  48090.000   4136750.4678   2657105.5688   4096902.7008   5   4   7.8971   5.4416  10.9463   5.8941   6.2540   8.9618   0.00    0.0
2091  48150.000   4136247.5563   2656621.8250   4096232.1561   5   4   7.6788   5.3878  10.5582   5.7437   6.0073   8.6563   0.00    0.0
2091  48180.000   4135817.9611   2656327.3219   4095557.8332   5   4   7.5618   5.3543  10.3526   5.6633   5.8787   8.4946   0.00    0.0
2091  48210.000   4135280.9325   2656006.4101   4094674.8110   5   4   7.4521   5.3258  10.1579   5.5888   5.7572   8.3419   0.00    0.0
2091  48240.000   4134643.9577   2655664.6993   4093595.1765   5   4   7.3493   5.3021   9.9738   5.5201   5.6424   8.1975   0.00    0.0
2091  48270.000   4133914.4199   2655307.7256   4092330.3604   5   4   7.2529   5.2829   9.7994   5.4568   5.5340   8.0611   0.00    0.0
2091  48450.000   4121638.8244   2649331.5980   4076128.2563   5   4  24.4608  13.0945  22.1181  17.6759  16.5015  23.0276   0.00    0.0
2091  48510.000   4121519.3499   2650088.1508   4073398.7779   5   4  22.3103  11.9171  20.0772  16.0555  14.8906  20.9148   0.00    0.0
2091  48870.000   4121347.1230   2649469.9386   4079714.9171   5   4  15.0259   8.1002  13.1907  10.5815   9.3583  13.7391   0.00    0.0
2091  48900.000   4121146.3297   2649151.2025   4080118.8880   5   4  14.6477   7.9158  12.8352  10.2986   9.0656  13.3657   0.00    0.0
2091  49110.000   4121025.7345   2650756.2497   4073150.4918   6   1   3.8355   3.1882   9.2783   2.9134   4.0998   5.3916   0.00    0.0
2091  50310.000   4120401.7604   2650850.6292   4071202.4825   5   4   8.9786   4.4438   8.4201   5.9366   5.4685   8.3549   0.00    0.0
2091  50370.000   4121600.1295   2651552.5777   4070285.6595   5   4   8.7125   4.3908   8.0886   5.7976   5.2920   8.0453   0.00    0.0
2091  50430.000   4121673.6490   2652130.9371   4070073.2449   5   4   8.4757   4.3541   7.7889   5.6806   5.1368   7.7654   0.00    0.0
2091  50460.000   4121419.6971   2652063.7593   4071043.8023   5   4   8.3672   4.3417   7.6495   5.6301   5.0667   7.6353   0.00    0.0
2091  50730.000   4120052.3059   2651166.1844   4076563.1877   5   4   7.5149   4.2754   6.5658   5.2509   4.5194   6.6118   0.00    0.0
2091  61320.000   4102544.6901   2643246.0341   4064679.2141   5   4   5.4372   3.0216   3.0259   3.9752   2.6313   3.7298   0.00    0.0
2091  61860.000   4100000.5792   2641035.7117   4070494.5617   5   4   4.3884   2.7293   2.7577   3.3760   2.1861   3.0151   0.00    0.0
2091  61950.000   4108006.0307   2645040.1053   4071520.9618   5   4   4.3362   2.7434   2.8027   3.3606   2.1722   2.9883   0.00    0.0
2091  62430.000   4099093.1707   2639165.3898   4074558.8285   5   4   3.4046   2.3397   2.6745   2.7272   1.7944   2.4340   0.00    0.0
2091  62520.000   4099743.9078   2639555.8281   4076788.1539   5   4   3.3272   2.3195   2.7252   2.6795   1.7810   2.4068   0.00    0.0
2091  62550.000   4100394.5023   2639947.6814   4077426.7393   5   4   3.3161   2.3226   2.7549   2.6752   1.7852   2.4091   0.00    0.0
2091  62580.000   4101230.6320   2640451.8079   4077987.9841   5   4   3.2417   2.2802   2.7298   2.6192   1.7565   2.3655   0.00    0.0
2091  62670.000   4104658.8037   2642517.5890   4079059.5508   5   4   3.0658   2.1840   2.6898   2.4883   1.6968   2.2692   0.00    0.0
2091  62700.000   4106050.6473   2643352.8126   4079167.6159   5   4   3.0233   2.1629   2.6892   2.4575   1.6860   2.2490   0.00    0.0
2091  62730.000   4107539.5009   2644242.2543   4079129.4625   5   4   2.9899   2.1481   2.6967   2.4340   1.6804   2.2359   0.00    0.0
2091  62760.000   4109109.6557   2645174.3596   4078933.1140   5   4   2.9638   2.1384   2.7106   2.4164   1.6792   2.2285   0.00    0.0
2091  62790.000   4110747.0809   2646138.6455   4078567.1898   5   4   2.9446   2.1336   2.7311   2.4044   1.6824   2.2265   0.00    0.0
2091  62820.000   4112437.0433   2647123.5963   4078020.2583   5   4   2.9321   2.1336   2.7580   2.3977   1.6898   2.2300   0.00    0.0
2091  62850.000   4114165.1207   2648117.7501   4077280.6473   5   4   5.0137   3.6302   4.6527   4.0905   2.9274   3.7927   0.00    0.0
2091  62880.000   4115918.5648   2649110.3098   4076338.3938   5   4   4.9407   3.5920   4.6391   4.0368   2.9084   3.7543   0.00    0.0
2091  62910.000   4117688.6618   2650092.9368   4075187.0478   5   4   4.8733   3.5574   4.6294   3.9875   2.8925   3.7198   0.00    0.0
2091  62940.000   4119460.8226   2651053.1992   4073815.0345   5   4   4.8109   3.5263   4.6234   3.9421   2.8796   3.6891   0.00    0.0
2091  62970.000   4121224.8765   2651981.2173   4072214.0044   5   4   4.7533   3.4984   4.6214   3.9006   2.8696   3.6620   0.00    0.0
2091  63000.000   4122957.5991   2652854.8561   4070334.8659   5   4   4.7004   3.4737   4.6233   3.8628   2.8626   3.6385   0.00    0.0
2091  63030.000   4119551.5810   2650737.1743   4070450.9323   5   4   4.6467   3.4505   4.6287   3.8252   2.8560   3.6147   0.00    0.0
2091  63060.000   4117474.9615   2649497.5185   4071897.2016   5   4   2.6340   1.9822   2.7549   2.1794   1.6446   2.1015   0.00    0.0
2091  63090.000   4115698.5498   2648456.1023   4073353.3738   5   4   2.6177   1.9793   2.7761   2.1696   1.6530   2.1025   0.00    0.0
2091  63120.000   4114203.0148   2647601.1863   4074804.3621   5   4   2.6073   1.9810   2.8040   2.1648   1.6656   2.1086   0.00    0.0
2091  63150.000   4112968.0363   2646919.9915   4076234.1418   5   4   2.6026   1.9871   2.8382   2.1646   1.6824   2.1196   0.00    0.0
2091  63180.000   4111973.9860   2646399.8570   4077627.7680   5   4   2.5484   1.9546   2.8132   2.1230   1.6665   2.0880   0.00    0.0
2091  63210.000   4111202.4637   2646028.5479   4078970.6453   5   4   2.5008   1.9272   2.7940   2.0869   1.6546   2.0613   0.00    0.0
2091  63270.000   4110257.3384   2645684.1900   4081448.9317   5   4   2.4247   1.8865   2.7747   2.0304   1.6429   2.0232   0.00    0.0
2091  63300.000   4110048.8911   2645686.2956   4082556.7971   5   4   4.2011   3.2561   4.6581   3.5109   2.8251   3.4201   0.00    0.0
2091  63330.000   4109995.6726   2645788.9758   4083560.6175   5   4   4.1592   3.2394   4.6649   3.4819   2.8272   3.4039   0.00    0.0
2091  63390.000   4110303.9435   2646255.4749   4085216.5150   5   4   4.0871   3.2150   4.6908   3.4334   2.8404   3.3816   0.00    0.0
2091  63420.000   4110635.1676   2646595.1163   4085844.1578   5   4   4.0567   3.2073   4.7099   3.4138   2.8514   3.3754   0.00    0.0
2091  63450.000   4111067.0739   2646991.0078   4086324.2568   5   4   4.0298   3.2025   4.7332   3.3973   2.8655   3.3724   0.00    0.0
2091  63480.000   4111586.5477   2647431.8315   4086646.7940   5   4   3.9782   3.1772   4.7195   3.3596   2.8593   3.3444   0.00    0.0
2091  63540.000   4112845.1400   2648407.7286   4086782.8093   5   4   3.8856   3.1348   4.7033   3.2928   2.8548   3.2975   0.00    0.0
2091  63570.000   4113562.2656   2648921.7630   4086578.5190   5   4   3.8449   3.1181   4.7013   3.2641   2.8566   3.2788   0.00    0.0
2091  63600.000   4114325.5663   2649440.2840   4086182.1706   5   4   3.8079   3.1043   4.7034   3.2384   2.8613   3.2633   0.00    0.0
2091  63630.000   4115123.9220   2649952.3309   4085585.3646   5   4   3.7750   3.0941   4.7108   3.2164   2.8694   3.2517   0.00    0.0
2091  63660.000   4115949.2317   2650448.5404   4084780.9684   5   4   3.7456   3.0867   4.7223   3.1973   2.8804   3.2432   0.00    0.0
2091  63690.000   4116792.7712   2650919.2505   4083761.8774   5   4   3.7195   3.0823   4.7381   3.1811   2.8944   3.2379   0.00    0.0
2091  63720.000   4117646.7596   2651355.1185   4082521.6262   5   4   3.6966   3.0807   4.7580   3.1678   2.9113   3.2356   0.00    0.0
2091  63750.000   4118503.4149   2651746.5334   4081053.6859   5   4   3.6769   3.0821   4.7821   3.1572   2.9312   3.2363   0.00    0.0
2091  63780.000   4119356.2549   2652084.7879   4079352.1759   5   4   3.6340   3.0630   4.7682   3.1261   2.9288   3.2117   0.00    0.0
2091  63810.000   4120198.8971   2652360.9366   4077411.4619   5   4   3.5944   3.0465   4.7578   3.0976   2.9288   3.1897   0.00    0.0
2091  63840.000   4121025.3274   2652566.3238   4075226.2822   5   4   3.5580   3.0329   4.7516   3.0721   2.9315   3.1706   0.00    0.0
2091  63870.000   4121829.3841   2652692.0273   4072791.4264   5   4   3.5249   3.0222   4.7495   3.0493   2.9370   3.1546   0.00    0.0
2091  63900.000   4122593.1121   2652713.6166   4070059.2907   5   4   3.4950   3.0144   4.7515   3.0294   2.9453   3.1416   0.00    0.0
2091  63930.000   4120732.4718   2651648.4382   4071302.4788   5   4   3.4664   3.0100   4.7598   3.0117   2.9574   3.1316   0.00    0.0
2091  63960.000   4119689.2565   2651239.2442   4073493.9674   5   4   3.4409   3.0084   4.7718   2.9966   2.9722   3.1244   0.00    0.0
2091  63990.000   4118806.7770   2650948.8988   4075594.6486   5   4   3.4183   3.0098   4.7881   2.9843   2.9901   3.1204   0.00    0.0
