% program   : RTKLIB ver.2.4.2
% inp file  : /home/fkarlitepe/Documents/Projects/Estimation-Orbit/precise orbit/ankr0330.20o
% inp file  : /home/fkarlitepe/Documents/Projects/Estimation-Orbit/precise orbit/precise/EKF Sonuçları/COD0/deneme2.sp3
% inp file  : /home/fkarlitepe/Documents/Projects/Estimation-Orbit/precise orbit/igs20910.clk
% inp file  : /home/fkarlitepe/Documents/Projects/Estimation-Orbit/precise orbit/ankr0330.20n
% obs start : 2020/02/02 00:00:00.0 GPST (week2091      0.0s)
% obs end   : 2020/02/02 23:59:30.0 GPST (week2091  86370.0s)
%
% (x/y/z-ecef=WGS84,Q=1:fix,2:float,3:sbas,4:dgps,5:single,6:ppp,ns=# of satellites)
%  GPST              x-ecef(m)      y-ecef(m)      z-ecef(m)   Q  ns   sdx(m)   sdy(m)   sdz(m)  sdxy(m)  sdyz(m)  sdzx(m) age(s)  ratio
2091     90.000   4121644.9751   2651746.9227   4069787.8272   6   4   3.9451   3.2477  10.1062   3.0082   4.1924   5.4837   0.00    0.0
2091    120.000   4121667.0765   2651755.3575   4069926.4365   6   2   3.5262   2.8298   7.7888   2.4990   3.0831   4.6314   0.00    0.0
2091    150.000   4121573.6066   2651633.7703   4069856.3501   5   4   2.9932   2.4711   7.3761   2.2785   3.1175   4.0991   0.00    0.0
2091    210.000   4121626.2019   2651701.9025   4069672.2247   5   4   2.9586   2.4761   7.1187   2.2717   3.0721   4.0044   0.00    0.0
2091    240.000   4121700.4124   2651809.9064   4069499.8917   5   4   2.9452   2.4819   7.0061   2.2716   3.0553   3.9642   0.00    0.0
2091    300.000   4121947.7480   2652188.4896   4069025.2714   5   4   2.9259   2.5001   6.8108   2.2778   3.0329   3.8975   0.00    0.0
2091    330.000   4121829.9804   2651993.6184   4069388.6905   5   4   2.9203   2.5125   6.7284   2.2843   3.0271   3.8711   0.00    0.0
2091    360.000   4121735.5166   2651833.8372   4069648.6591   5   4   2.9170   2.5272   6.6547   2.2930   3.0247   3.8487   0.00    0.0
2091    390.000   4121666.3937   2651712.9883   4069819.2356   5   4   2.9160   2.5442   6.5893   2.3037   3.0257   3.8301   0.00    0.0
2091    420.000   4121667.0461   2651755.3452   4069926.3589   6   1   3.5191   2.8283   7.7680   2.4950   3.0747   4.6177   0.00    0.0
2091    450.000   4121667.0290   2651755.3382   4069926.3150   6   1   3.5121   2.8269   7.7473   2.4910   3.0664   4.6040   0.00    0.0
2091    480.000   4121615.8705   2651610.8348   4069857.4626   5   4   2.9077   2.5889   6.3871   2.3304   3.0230   3.7702   0.00    0.0
2091    540.000   4121721.4971   2651788.1430   4069550.6721   5   4   2.8887   2.6028   6.2225   2.3349   3.0043   3.7143   0.00    0.0
2091    600.000   4121945.1841   2652188.2176   4069030.9543   5   4   2.8783   2.6257   6.0884   2.3473   2.9982   3.6726   0.00    0.0
2091    660.000   4121755.7091   2651813.1632   4069669.0741   5   4   2.8772   2.6578   5.9844   2.3681   3.0040   3.6449   0.00    0.0
2091    720.000   4121652.7310   2651603.0159   4069943.2601   5   4   2.8840   2.6994   5.9059   2.3968   3.0212   3.6295   0.00    0.0
2091    840.000   4121741.1240   2651768.0089   4069582.1415   5   4   2.8692   2.7474   5.6871   2.4252   3.0197   3.5650   0.00    0.0
2091    870.000   4121829.0381   2651947.2417   4069332.6189   5   4   2.8662   2.7599   5.6368   2.4327   3.0205   3.5507   0.00    0.0
2091    930.000   4121666.9968   2651755.3205   4069926.2449   6   1   3.5053   2.8243   7.7327   2.4857   3.0571   4.5928   0.00    0.0
2091    960.000   4121666.9725   2651755.3070   4069926.1918   6   1   3.4987   2.8218   7.7183   2.4805   3.0479   4.5817   0.00    0.0
2091   1140.000   4121759.4994   2651750.6280   4069605.6858   5   4   2.8763   2.9148   5.3136   2.5367   3.0790   3.4808   0.00    0.0
2091   1170.000   4121839.2746   2651937.5443   4069346.3515   5   4   2.8757   2.9295   5.2771   2.5462   3.0837   3.4720   0.00    0.0
2091   1230.000   4121667.0174   2651755.3321   4069926.2884   6   1   3.4924   2.8194   7.7051   2.4756   3.0392   4.5713   0.00    0.0
2091   1260.000   4121667.0419   2651755.3459   4069926.3411   6   1   3.4861   2.8169   7.6921   2.4706   3.0306   4.5611   0.00    0.0
2091   1410.000   4121667.0107   2651755.3326   4069926.2635   6   1   3.4791   2.8154   7.6723   2.4664   3.0219   4.5476   0.00    0.0
2091   1470.000   4121667.0139   2651755.3344   4069926.2703   6   1   3.4731   2.8130   7.6602   2.4616   3.0137   4.5380   0.00    0.0
2091   1560.000   4121802.4185   2651765.3659   4069690.8875   5   4   2.9207   3.1890   4.9702   2.7238   3.2146   3.4358   0.00    0.0
2091   1680.000   4121721.0180   2651513.2123   4069966.8528   5   4   2.9489   3.2908   4.9194   2.7942   3.2744   3.4454   0.00    0.0
2091   1710.000   4121681.4667   2651744.4028   4070007.1371   6   2   3.3448   2.7254   5.6958   2.5819   3.5420   3.9804   0.00    0.0
2091   1740.000   4121793.0765   2651724.5707   4069636.8198   5   4   2.9505   3.3215   4.8692   2.8148   3.2876   3.4359   0.00    0.0
2091   1770.000   4121681.5597   2651744.3371   4070007.6451   6   1   3.3394   2.7218   5.6735   2.5783   3.5399   3.9702   0.00    0.0
2091   3270.000   4121893.4411   2651918.4536   4069373.9749   5   4   3.4391   4.8758   4.6223   3.8619   4.1768   3.7333   0.00    0.0
2091   3360.000   4121681.5083   2651744.3016   4070007.5568   6   1   3.3346   2.7190   5.6652   2.5741   3.5346   3.9633   0.00    0.0
2091   4260.000   4122724.0202   2652794.7611   4070491.8128   5   4   4.1023   3.5900   4.7274   3.5411   3.4964   4.1598   0.00    0.0
2091   4290.000   4122944.9830   2652960.8348   4070922.3967   5   4   4.0575   3.5705   4.6646   3.5038   3.4397   4.1016   0.00    0.0
2091   4320.000   4123062.9200   2653044.7149   4071162.8054   5   4   4.0174   3.5558   4.6074   3.4708   3.3872   4.0484   0.00    0.0
2091   4350.000   4123084.5624   2653053.4317   4071220.8258   5   4   3.9816   3.5456   4.5554   3.4421   3.3388   3.9999   0.00    0.0
2091   4380.000   4123015.7971   2652993.4390   4071104.2189   5   4   3.9237   3.5136   4.4766   3.3939   3.2708   3.9281   0.00    0.0
2091   4410.000   4122862.0593   2652870.7496   4070819.8815   5   4   3.8704   3.4859   4.4034   3.3499   3.2070   3.8612   0.00    0.0
2091   4440.000   4122628.3891   2652691.0402   4070374.1976   5   4   3.8217   3.4628   4.3358   3.3103   3.1474   3.7993   0.00    0.0
2091   4470.000   4122320.1823   2652460.4468   4069773.6799   5   4   3.7775   3.4440   4.2734   3.2749   3.0919   3.7420   0.00    0.0
2091   4500.000   4121940.6207   2652183.3392   4069023.4962   5   4   3.7376   3.4297   4.2161   3.2434   3.0402   3.6893   0.00    0.0
2091   4530.000   4122355.0105   2652529.3946   4069794.0766   5   4   3.7033   3.4204   4.1651   3.2172   2.9934   3.6423   0.00    0.0
2091   4560.000   4122660.9355   2652781.5801   4070376.6765   5   4   3.6729   3.4153   4.1187   3.1948   2.9501   3.5993   0.00    0.0
2091   4590.000   4122868.1715   2652948.8931   4070778.5473   5   4   3.6462   3.4142   4.0766   3.1758   2.9101   3.5601   0.00    0.0
2091   4620.000   4122982.0352   2653036.9937   4071006.1944   5   4   3.6230   3.4171   4.0385   3.1604   2.8731   3.5246   0.00    0.0
2091   4650.000   4123006.2015   2653050.7660   4071065.1813   5   4   3.6032   3.4239   4.0044   3.1482   2.8390   3.4925   0.00    0.0
2091   4710.000   4122804.6478   2652876.3354   4070700.0763   5   4   3.5273   3.3978   3.8933   3.0915   2.7397   3.3912   0.00    0.0
2091   4740.000   4122588.0648   2652698.4029   4070287.0483   5   4   3.4950   3.3908   3.8443   3.0685   2.6950   3.3462   0.00    0.0
2091   4770.000   4122299.7469   2652466.4706   4069727.1265   5   4   3.4661   3.3876   3.7993   3.0489   2.6534   3.3049   0.00    0.0
2091   4800.000   4121941.6691   2652184.1259   4069024.1349   5   4   3.4406   3.3883   3.7582   3.0325   2.6146   3.2669   0.00    0.0
2091   5100.000   4121940.4649   2652181.1313   4069024.5768   5   5   3.1803   2.6094   3.3576   2.6548   2.6069   3.0411   0.00    0.0
2091   5400.000   4121681.4801   2651744.2827   4070007.5113   6   1   3.3309   2.7169   5.6594   2.5708   3.5307   3.9582   0.00    0.0
2091   5520.000   4120741.0980   2651433.1621   4069763.9694   5   4   7.5862   4.6132   5.1889   5.7338   4.6715   6.0975   0.00    0.0
2091   5700.000   4121681.5259   2651744.3133   4070007.5845   6   1   3.3273   2.7150   5.6541   2.5677   3.5271   3.9534   0.00    0.0
2091   5970.000   4121392.4115   2651777.2641   4069246.5701   5   4   8.5080   5.7500   5.3131   6.8432   5.3164   6.5696   0.00    0.0
2091   6000.000   4121940.5501   2652179.9673   4069025.2693   5   5   3.0829   3.0453   2.6733   2.8483   2.4184   2.6029   0.00    0.0
2091   6300.000   4121941.6972   2652180.2407   4069025.8663   5   5   3.1663   3.3450   2.5461   3.0483   2.4569   2.5581   0.00    0.0
2091   6360.000   4120668.4376   2651207.3202   4069283.4606   5   4   9.7699   7.3596   5.6321   8.3535   6.2379   7.2806   0.00    0.0
2091   6390.000   4120257.9230   2650870.4448   4069361.4110   5   4   9.9075   7.5307   5.6745   8.5134   6.3374   7.3618   0.00    0.0
2091   6480.000   4119949.4778   2650552.2388   4069379.8726   5   4  10.3182   8.0601   5.7970   9.0006   6.6384   7.6012   0.00    0.0
2091   6510.000   4120177.0044   2650715.1167   4069326.6021   5   4  10.4321   8.2235   5.8252   9.1455   6.7256   7.6642   0.00    0.0
2091   6600.000   4121925.4093   2652167.0909   4069017.5848   5   4  10.8390   8.7865   5.9387   9.6484   7.0318   7.8959   0.00    0.0
2091   6630.000   4121097.3184   2651483.6750   4069113.1317   5   4  11.0062   9.0071   5.9906   9.8480   7.1549   7.9939   0.00    0.0
2091   6660.000   4120426.7272   2650908.0052   4069180.5383   5   4  11.1863   9.2428   6.0477  10.0614   7.2868   8.1002   0.00    0.0
2091   6690.000   4119923.6959   2650458.4583   4069217.4784   5   4  11.3797   9.4943   6.1104  10.2893   7.4278   8.2149   0.00    0.0
2091   6720.000   4119603.5958   2650153.8076   4069233.6220   5   4   6.4733   5.5261   3.3654   5.9175   4.2062   4.5991   0.00    0.0
2091   6750.000   4119469.2029   2650004.4878   4069227.8573   5   4   6.6314   5.7182   3.4229   6.0949   4.3176   4.6961   0.00    0.0
2091   6780.000   4119527.4015   2650023.9220   4069203.1502   5   4   6.6777   5.8132   3.4263   6.1693   4.3581   4.7164   0.00    0.0
2091   6810.000   4122809.5072   2652629.6551   4071168.1301   5   4   3.4951   4.1427   3.2134   3.6001   2.6005   2.7471   0.00    0.0
2091   6840.000   4120276.2517   2650648.5677   4069122.3634   5   4  12.3446  10.8175   6.4088  11.4606   8.1443   8.7774   0.00    0.0
2091   6870.000   4120978.3914   2651282.5064   4069067.4858   5   4  12.5535  11.1111   6.4730  11.7171   8.3003   8.8986   0.00    0.0
2091   6900.000   4121941.3687   2652179.0007   4069026.1143   5   5   3.5429   4.3153   2.3976   3.7303   2.6999   2.6050   0.00    0.0
2091   6930.000   4120915.0750   2651244.1983   4069039.1077   5   4  13.0328  11.7712   6.6263  12.2966   8.6542   9.1798   0.00    0.0
2091   6960.000   4122646.1708   2652614.5812   4070657.8976   5   4   3.6137   4.4664   3.1033   3.8206   2.6325   2.7209   0.00    0.0
2091   6990.000   4119456.6691   2649842.9396   4069029.9267   5   4   7.5019   7.0033   3.6734   7.1959   4.9736   5.1884   0.00    0.0
2091   7020.000   4119047.8709   2649418.2966   4069011.9901   5   4   7.7057   7.2690   3.7450   7.4325   5.1192   5.3112   0.00    0.0
2091   7050.000   4118863.4748   2649200.0656   4068988.0067   5   4   7.9330   7.5628   3.8260   7.6947   5.2811   5.4489   0.00    0.0
2091   7080.000   4118924.8552   2649217.6722   4068967.8333   5   4   8.0319   7.7341   3.8490   7.8323   5.3598   5.5011   0.00    0.0
2091   7110.000   4119241.2697   2649491.1083   4068953.0993   5   4   8.1534   7.9310   3.8814   7.9938   5.4537   5.5677   0.00    0.0
2091   7140.000   4119833.9570   2650051.9250   4068952.4511   5   4   8.2976   8.1546   3.9231   8.1796   5.5630   5.6488   0.00    0.0
2091   7170.000   4120718.6930   2650928.4484   4068970.0514   5   4  15.5103  15.2274   7.4334  15.2943  10.4755  10.6359   0.00    0.0
2091   7200.000   4121941.8053   2652177.7386   4069028.8645   5   4   3.8783   5.1304   2.9626   4.2782   2.7344   2.7188   0.00    0.0
2091   7230.000   4120637.1700   2650858.6080   4068934.6297   5   4  16.3203  16.3697   7.7007  16.2750  11.0680  11.1121   0.00    0.0
2091   7320.000   4118159.8245   2648185.6458   4068678.3453   5   4   9.7915  10.2558   4.4224   9.9813   6.6477   6.5286   0.00    0.0
2091   7350.000   4117885.1196   2647837.1318   4068623.2618   5   4  10.1652  10.7647   4.5530  10.4218   6.9146   6.7519   0.00    0.0
2091   7470.000   4122575.1325   2652686.8212   4070006.7519   5   4   4.4203   3.1776   3.6757   3.4584   2.6378   3.6235   0.00    0.0
2091   7500.000   4121953.6882   2652189.5533   4069034.8102   5   4   4.3867   3.1776   3.6496   3.4434   2.6246   3.5943   0.00    0.0
2091   7530.000   4122488.5243   2652648.7743   4069946.0935   5   4   4.3574   3.1804   3.6270   3.4317   2.6141   3.5686   0.00    0.0
2091   7560.000   4122921.0186   2653022.8105   4070660.0166   5   4   4.3313   3.1849   3.6074   3.4220   2.6055   3.5459   0.00    0.0
2091   7590.000   4123240.6239   2653303.9879   4071168.3053   5   4   4.3083   3.1913   3.5908   3.4145   2.5989   3.5261   0.00    0.0
2091   7620.000   4123442.2701   2653486.4178   4071471.1288   5   4   4.2884   3.1995   3.5770   3.4091   2.5942   3.5091   0.00    0.0
2091   7680.000   4123474.4831   2653532.1339   4071463.9375   5   4   4.2248   3.1999   3.5298   3.3799   2.5698   3.4548   0.00    0.0
2091   7800.000   4121954.1425   2652190.8532   4069034.4126   5   4   4.0715   3.1800   3.4165   3.2985   2.5038   3.3254   0.00    0.0
2091   7830.000   4122455.8013   2652675.7994   4069881.9588   5   4   4.0424   3.1809   3.3962   3.2850   2.4932   3.3011   0.00    0.0
2091   7860.000   4122858.4687   2653068.3204   4070543.9185   5   4   4.0166   3.1838   3.3787   3.2737   2.4847   3.2798   0.00    0.0
2091   7890.000   4123153.6391   2653361.3703   4071013.5425   5   4   3.9940   3.1887   3.3640   3.2648   2.4783   3.2613   0.00    0.0
2091   7920.000   4123337.5237   2653549.3073   4071292.1641   5   4   3.9745   3.1956   3.3520   3.2581   2.4739   3.2457   0.00    0.0
2091   7950.000   4123407.2362   2653627.1063   4071380.9374   5   4   3.9582   3.2047   3.3426   3.2538   2.4716   3.2328   0.00    0.0
2091   7980.000   4123359.9274   2653589.8026   4071281.2622   5   4   3.9137   3.1935   3.3105   3.2271   2.4508   3.1960   0.00    0.0
2091   8100.000   4121952.6725   2652189.3801   4069033.9800   5   5   3.5647   2.6915   3.2070   2.7994   2.4388   3.1065   0.00    0.0
2091   8130.000   4121681.5320   2651744.3176   4070007.5958   6   1   3.3228   2.7123   5.6450   2.5636   3.5216   3.9464   0.00    0.0
2091   8400.000   4121951.2957   2652188.7622   4069032.4273   5   5   3.3804   2.7954   3.0146   2.7699   2.3963   2.9120   0.00    0.0
2091   8430.000   4122360.9342   2652692.7824   4069751.6007   5   5   3.3640   2.8072   2.9978   2.7681   2.3933   2.8946   0.00    0.0
2091   8700.000   4121951.5294   2652189.1729   4069031.9828   5   5   3.1993   2.8956   2.8408   2.7298   2.3509   2.7276   0.00    0.0
2091   8730.000   4121681.5151   2651744.3066   4070007.5664   6   1   3.3190   2.7103   5.6382   2.5604   3.5175   3.9408   0.00    0.0
2091   8760.000   4122600.0389   2653097.0417   4070203.2467   5   5   3.1699   2.9212   2.8128   2.7266   2.3465   2.6971   0.00    0.0
2091   8790.000   4122806.5508   2653392.4277   4070565.6503   5   5   3.1590   2.9374   2.8017   2.7283   2.3470   2.6850   0.00    0.0
2091   8820.000   4122932.5679   2653577.7067   4070780.1068   5   5   3.1507   2.9559   2.7925   2.7321   2.3492   2.6750   0.00    0.0
2091   8850.000   4122977.1548   2653649.3196   4070847.6476   5   5   3.1447   2.9768   2.7851   2.7380   2.3531   2.6669   0.00    0.0
2091   8940.000   4122692.7556   2653219.7856   4070234.1813   5   4  17.7272  15.6424  11.9019  16.5950  13.5391  14.4581   0.00    0.0
2091   9000.000   4121950.5173   2652188.9679   4069030.2743   5   5   3.0255   2.9944   2.6862   2.6823   2.3061   2.5558   0.00    0.0
2091   9270.000   4122273.8753   2652727.3560   4069619.3163   5   5   2.8795   3.0860   2.5638   2.6375   2.2694   2.4144   0.00    0.0
2091   9300.000   4121949.9908   2652189.7086   4069030.7508   5   5   2.8620   3.0942   2.5499   2.6305   2.2641   2.3980   0.00    0.0
2091   9600.000   4121950.0958   2652189.4904   4069029.7235   5   5   2.7106   3.1979   2.4306   2.5764   2.2268   2.2543   0.00    0.0
2091   9630.000   4122117.7063   2652600.7044   4069410.0088   5   4   5.1234   5.4625   9.0660   5.0861   6.6001   6.5636   0.00    0.0
2091   9690.000   4122349.4033   2653167.9434   4069922.3995   5   4   5.1229   5.5888   9.0188   5.1468   6.6718   6.5496   0.00    0.0
2091   9840.000   4122271.4738   2652976.9690   4069724.5765   5   4   5.0471   5.8299   8.7734   5.2199   6.7478   6.4174   0.00    0.0
2091   9900.000   4121951.5272   2652191.8563   4069033.6949   5   4   5.0034   5.9126   8.6551   5.2337   6.7580   6.3474   0.00    0.0
2091   9930.000   4122057.8099   2652547.1167   4069331.2100   5   4   4.9885   5.9631   8.6081   5.2482   6.7725   6.3212   0.00    0.0
2091   9960.000   4122145.0916   2652831.5003   4069568.6320   5   4   4.9763   6.0174   8.5666   5.2656   6.7906   6.2986   0.00    0.0
2091   9990.000   4122210.5785   2653041.2478   4069741.1240   5   4   4.9668   6.0755   8.5308   5.2859   6.8125   6.2796   0.00    0.0
2091  10020.000   4121681.5487   2651744.3298   4070007.6266   6   1   3.3144   2.7075   5.6295   2.5562   3.5121   3.9339   0.00    0.0
2091  10200.000   4121681.5574   2651744.3360   4070007.6410   6   1   3.3100   2.7048   5.6223   2.5521   3.5071   3.9277   0.00    0.0
2091  10440.000   4122076.5198   2652769.3160   4069478.5296   5   4   4.5707   6.6318   7.5968   5.2785   6.7433   5.6739   0.00    0.0
2091  10470.000   4122023.1909   2652521.0713   4069284.8369   5   4   4.5342   6.6532   7.5207   5.2633   6.7206   5.6211   0.00    0.0
2091  10500.000   4121949.5808   2652190.6956   4069030.6926   5   4   4.5008   6.6790   7.4508   5.2515   6.7023   5.5726   0.00    0.0
2091  10530.000   4121962.7599   2652423.2381   4069212.6808   5   4   4.4737   6.7145   7.3910   5.2474   6.6934   5.5319   0.00    0.0
2091  10560.000   4121977.1505   2652610.5201   4069360.1697   5   4   4.4496   6.7547   7.3372   5.2468   6.6892   5.4953   0.00    0.0
2091  10620.000   4122003.6567   2652841.7914   4069540.8561   5   4   4.4103   6.8498   7.2471   5.2561   6.6946   5.4341   0.00    0.0
2091  10710.000   4122870.9278   2652812.1520   4070017.1050   5   4  11.0307   6.5947   2.9548  -7.3048  -2.5928   5.0714   0.00    0.0
2091  10740.000   4122001.1373   2652654.3823   4069388.9132   5   4   4.2610   6.9207   6.9476   5.1800   6.5861   5.2211   0.00    0.0
2091  10800.000   4121948.2480   2652189.5386   4069028.8818   5   4   4.1877   6.9553   6.8034   5.1407   6.5315   5.1172   0.00    0.0
2091  10890.000   4121911.5290   2652596.5805   4069377.3874   5   4   4.1104   7.0623   6.6433   5.1227   6.5008   5.0030   0.00    0.0
2091  10950.000   4121918.8390   2652696.4904   4069461.6080   5   4   4.0736   7.1609   6.5646   5.1292   6.5049   4.9465   0.00    0.0
2091  11010.000   4121934.6029   2652634.7011   4069406.0364   5   4   3.9825   7.1557   6.3921   5.0597   6.4128   4.8200   0.00    0.0
2091  11040.000   4121942.0667   2652536.5639   4069321.2840   5   4   3.9417   7.1606   6.3149   5.0305   6.3742   4.7631   0.00    0.0
2091  11070.000   4121947.3732   2652389.7270   4069196.2503   5   4   3.9041   7.1711   6.2437   5.0051   6.3407   4.7104   0.00    0.0
2091  11130.000   4121900.9652   2652289.3729   4069141.0694   5   4   3.8412   7.2145   6.1224   4.9705   6.2939   4.6208   0.00    0.0
2091  11400.000   4121950.7541   2652187.1327   4069028.4378   5   4   5.4535   7.1414   6.2110   5.9897   6.5057   5.4431   0.00    0.0
2091  11430.000   4122009.9401   2652201.8893   4069177.4831   5   4   5.4777   7.1422   6.1803   6.0071   6.4887   5.4464   0.00    0.0
2091  11490.000   4122098.0539   2652231.1469   4069388.8033   5   4   5.5356   7.1584   6.1318   6.0530   6.4680   5.4624   0.00    0.0
2091  11550.000   4121681.6004   2651744.3680   4070007.7184   6   1   3.3041   2.7008   5.6111   2.5465   3.4997   3.9188   0.00    0.0
2091  11700.000   4121949.5603   2652187.7222   4069028.1496   5   5   2.7425   2.3147   2.7789   2.0472   2.2125   1.9753   0.00    0.0
2091  12000.000   4121949.3660   2652187.3626   4069027.8288   5   5   2.7736   2.3586   2.7531   2.1218   2.2321   2.0793   0.00    0.0
2091  12300.000   4121949.4735   2652187.0422   4069027.5134   5   5   2.8048   2.3999   2.7181   2.1861   2.2418   2.1581   0.00    0.0
2091  12390.000   4119860.7897   2652730.5821   4068599.5402   5   4  19.5386   2.7546   8.9829  -4.5275  -2.4847  13.0504   0.00    0.0
2091  12600.000   4121949.1718   2652186.6133   4069027.2664   5   5   2.8314   2.4393   2.6754   2.2394   2.2430   2.2139   0.00    0.0
2091  12900.000   4121949.0374   2652186.1825   4069026.9223   5   5   2.8503   2.4782   2.6267   2.2819   2.2370   2.2494   0.00    0.0
2091  13200.000   4121948.8363   2652185.7989   4069026.7498   5   5   2.8600   2.5184   2.5736   2.3145   2.2258   2.2675   0.00    0.0
2091  13500.000   4121681.5936   2651744.3616   4070007.7051   6   1   3.3019   2.6983   5.6059   2.5437   3.4957   3.9150   0.00    0.0
2091  13800.000   4121947.6780   2652184.7578   4069025.8929   5   5   2.8518   2.6110   2.4608   2.3574   2.1948   2.2638   0.00    0.0
2091  14100.000   4121947.2659   2652184.0723   4069025.5502   5   5   2.8358   2.6680   2.4035   2.3713   2.1780   2.2472   0.00    0.0
2091  14400.000   4121681.6054   2651744.3704   4070007.7253   6   1   3.2971   2.6950   5.5977   2.5390   3.4899   3.9081   0.00    0.0
2091  14490.000   4121333.5387   2652416.6691   4069594.9620   5   4   3.3832   4.0048   5.4991   3.3415   4.3695   3.7785   0.00    0.0
2091  14670.000   4121681.6031   2651744.3687   4070007.7213   6   1   3.2925   2.6918   5.5899   2.5345   3.4843   3.9015   0.00    0.0
2091  14700.000   4121948.8615   2652186.4770   4069030.3965   5   4   3.4898   4.1538   5.4214   3.4846   4.4299   3.8914   0.00    0.0
2091  14760.000   4121400.0352   2652304.8477   4069379.2852   5   4   3.5260   4.2076   5.4097   3.5319   4.4558   3.9258   0.00    0.0
2091  14790.000   4121235.5286   2652344.9582   4069491.4096   5   4   3.5477   4.2399   5.4103   3.5595   4.4742   3.9467   0.00    0.0
2091  14880.000   4121156.4231   2652377.9471   4069561.8159   5   4   3.5988   4.3203   5.3891   3.6269   4.5097   3.9911   0.00    0.0
2091  14970.000   4121677.9765   2651743.9461   4070005.7275   6   2   2.8921   2.6834   5.5194   2.4772   3.4586   3.7233   0.00    0.0
2091  15000.000   4121949.0872   2652186.6223   4069030.5807   5   4   3.6242   4.3742   5.2932   3.6688   4.4985   3.9964   0.00    0.0
2091  15030.000   4121594.2383   2652217.4150   4069179.8764   5   4   3.6360   4.3970   5.2791   3.6859   4.5042   4.0034   0.00    0.0
2091  15150.000   4120995.8366   2652284.4649   4069465.6959   5   4   3.7064   4.5253   5.2632   3.7813   4.5620   4.0565   0.00    0.0
2091  15180.000   4121041.2853   2652283.6597   4069450.6462   5   4   3.7010   4.5265   5.2233   3.7792   4.5445   4.0427   0.00    0.0
2091  15210.000   4121160.9053   2652274.0867   4069399.6988   5   4   3.6976   4.5308   5.1872   3.7793   4.5303   4.0312   0.00    0.0
2091  15270.000   4121615.8165   2652225.9520   4069188.5900   5   4   3.6976   4.5503   5.1276   3.7874   4.5121   4.0158   0.00    0.0
2091  15300.000   4121948.8363   2652186.3061   4069030.2112   5   4   3.7010   4.5655   5.1040   3.7955   4.5083   4.0120   0.00    0.0
2091  15330.000   4121552.3223   2652179.6983   4069139.7786   5   4   3.7064   4.5849   5.0836   3.8063   4.5077   4.0100   0.00    0.0
2091  15360.000   4121249.9993   2652176.4328   4069232.3874   5   4   3.7140   4.6081   5.0671   3.8198   4.5105   4.0106   0.00    0.0
2091  15390.000   4121677.9588   2651743.9284   4070005.6895   6   1   2.8895   2.6807   5.5132   2.4742   3.4540   3.7190   0.00    0.0
2091  15420.000   4121677.9913   2651743.9608   4070005.7591   6   1   2.8869   2.6779   5.5070   2.4712   3.4494   3.7147   0.00    0.0
2091  15450.000   4120881.7914   2652180.0119   4069361.3980   5   4   3.7501   4.7006   5.0406   3.8762   4.5393   4.0276   0.00    0.0
2091  15510.000   4121677.9835   2651743.9531   4070005.7425   6   1   2.8844   2.6752   5.5008   2.4682   3.4448   3.7104   0.00    0.0
2091  15570.000   4121575.3500   2652188.0252   4069153.1622   5   4   3.7135   4.7067   4.8839   3.8536   4.4630   3.9530   0.00    0.0
2091  15600.000   4121948.9252   2652186.1042   4069029.9986   5   4   3.7099   4.7174   4.8546   3.8545   4.4524   3.9407   0.00    0.0
2091  15630.000   4121514.8700   2652140.9676   4069106.3722   5   4   3.7082   4.7325   4.8284   3.8582   4.4450   3.9305   0.00    0.0
2091  15660.000   4121183.8410   2652107.9570   4069174.2160   5   4   3.7087   4.7515   4.8060   3.8646   4.4410   3.9227   0.00    0.0
2091  15690.000   4120952.6028   2652086.2739   4069226.0321   5   4   3.7114   4.7744   4.7872   3.8736   4.4403   3.9175   0.00    0.0
2091  15720.000   4120819.0611   2652075.1817   4069260.4506   5   4   3.7162   4.8011   4.7721   3.8852   4.4429   3.9147   0.00    0.0
2091  15750.000   4120780.8992   2652073.8752   4069276.0997   5   4   3.7231   4.8316   4.7603   3.8994   4.4487   3.9142   0.00    0.0
2091  15810.000   4120982.4142   2652097.3984   4069245.9402   5   4   3.6867   4.8164   4.6657   3.8678   4.3905   3.8569   0.00    0.0
2091  15870.000   4121540.2146   2652150.0903   4069124.8860   5   4   3.6594   4.8165   4.5869   3.8470   4.3462   3.8104   0.00    0.0
2091  15900.000   4121948.9221   2652186.0864   4069029.8303   5   4   3.6492   4.8223   4.5532   3.8406   4.3291   3.7910   0.00    0.0
2091  15930.000   4121483.4079   2652102.7749   4069080.7817   5   4   3.6407   4.8325   4.5224   3.8368   4.3149   3.7735   0.00    0.0
2091  16020.000   4120738.9980   2651975.2785   4069198.1439   5   4   3.6279   4.8864   4.4508   3.8411   4.2918   3.7355   0.00    0.0
2091  16080.000   4120758.1234   2651982.5155   4069212.7881   5   4   3.6030   4.8976   4.3826   3.8237   4.2542   3.6923   0.00    0.0
2091  16110.000   4120915.1429   2652011.1768   4069195.8446   5   4   3.5804   4.8866   4.3352   3.8023   4.2213   3.6597   0.00    0.0
2091  16140.000   4121167.4114   2652055.3346   4069160.5389   5   4   3.5601   4.8794   4.2915   3.7837   4.1918   3.6297   0.00    0.0
2091  16170.000   4121512.3753   2652113.7871   4069105.0024   5   4   3.5421   4.8762   4.2514   3.7676   4.1655   3.6024   0.00    0.0
2091  16200.000   4121949.9545   2652188.5002   4069031.5287   5   5   2.9579   2.7235   2.9719   2.5155   2.2513   2.6573   0.00    0.0
2091  16440.000   4121128.8860   2651988.0277   4069133.8439   5   5   2.9420   2.7757   2.9529   2.5346   2.2777   2.6442   0.00    0.0
2091  16470.000   4121491.6052   2652078.4670   4069091.7400   5   5   2.9354   2.7770   2.9449   2.5322   2.2764   2.6378   0.00    0.0
2091  16500.000   4121949.4960   2652188.4341   4069030.8851   5   5   2.9304   2.7801   2.9387   2.5314   2.2764   2.6327   0.00    0.0
2091  16530.000   4121442.1418   2652025.2887   4069050.3290   5   5   2.9264   2.7855   2.9340   2.5319   2.2774   2.6283   0.00    0.0
2091  16650.000   4120601.1265   2651776.5887   4069150.8951   5   5   2.9250   2.8253   2.9336   2.5481   2.2946   2.6245   0.00    0.0
2091  16680.000   4120668.0012   2651802.3026   4069158.3452   5   5   2.9108   2.8181   2.9162   2.5380   2.2855   2.6097   0.00    0.0
2091  16710.000   4120839.6918   2651858.9632   4069152.9867   5   5   2.8981   2.8126   2.9007   2.5293   2.2777   2.5964   0.00    0.0
2091  16740.000   4121112.3973   2651943.7535   4069131.4136   5   5   2.8869   2.8090   2.8871   2.5221   2.2711   2.5844   0.00    0.0
2091  16770.000   4121482.9388   2652054.2735   4069090.9154   5   5   2.8772   2.8071   2.8754   2.5163   2.2660   2.5739   0.00    0.0
2091  16800.000   4121949.2234   2652188.4344   4069030.5428   5   5   2.8690   2.8071   2.8656   2.5120   2.2622   2.5648   0.00    0.0
2091  16830.000   4121439.1576   2652001.1766   4069053.2191   5   5   2.8619   2.8094   2.8574   2.5089   2.2594   2.5565   0.00    0.0
2091  16860.000   4121053.8749   2651864.0461   4069085.2323   5   5   2.8562   2.8135   2.8511   2.5073   2.2580   2.5496   0.00    0.0
2091  17100.000   4121949.4416   2652188.9611   4069030.4666   5   6   2.7793   2.6747   2.7597   2.4704   2.1879   2.4642   0.00    0.0
2091  17400.000   4121949.2983   2652188.9433   4069030.0800   5   6   2.6700   2.6537   2.6431   2.4030   2.1349   2.3379   0.00    0.0
2091  17700.000   4121948.4477   2652188.4384   4069029.3110   5   6   2.5525   2.6109   2.5169   2.3152   2.0617   2.1978   0.00    0.0
2091  18300.000   4121948.9644   2652188.4201   4069028.8036   5   7   2.0638   1.7548   1.8576   1.5981   1.1282   1.4995   0.00    0.0
2091  18600.000   4121947.5311   2652187.7294   4069027.8497   5   7   2.0359   1.7286   1.8107   1.5711   1.1253   1.4410   0.00    0.0
2091  18900.000   4121677.9596   2651743.9305   4070005.6946   6   1   2.8808   2.6717   5.4933   2.4643   3.4392   3.7048   0.00    0.0
2091  19200.000   4121677.9966   2651743.9656   4070005.7684   6   1   2.8774   2.6685   5.4862   2.4605   3.4338   3.6996   0.00    0.0
2091  19500.000   4121948.3533   2652187.6754   4069028.2828   5   7   1.9906   1.6607   1.6981   1.4925   1.1214   1.2793   0.00    0.0
2091  19800.000   4121947.9521   2652187.3990   4069027.6923   5   7   1.9907   1.6458   1.6711   1.4702   1.1258   1.2321   0.00    0.0
2091  20100.000   4121947.5695   2652187.0216   4069027.1385   5   7   1.9993   1.6364   1.6491   1.4509   1.1343   1.1890   0.00    0.0
2091  20400.000   4121948.0126   2652187.6111   4069030.6095   5   6   2.0170   1.6854   2.9047   1.4411   1.5216   1.1930   0.00    0.0
2091  21000.000   4121949.5807   2652187.3693   4069027.4914   5   6  16.8244   7.4015   3.6768  11.0666   5.0257   7.5074   0.00    0.0
2091  21300.000   4121942.4853   2652185.2230   4069029.3936   5   5  14.0578   6.1454   3.7822   9.1393   4.3131   6.1515   0.00    0.0
2091  21600.000   4121942.3152   2652185.1042   4069029.1330   5   5  11.8651   5.3425   3.7011   7.7630   4.0326   5.5959   0.00    0.0
2091  21900.000   4121678.0197   2651743.9871   4070005.8141   6   1   2.8738   2.6651   5.4787   2.4565   3.4282   3.6940   0.00    0.0
2091  22200.000   4121942.5812   2652185.0695   4069028.7540   5   5   9.3362   4.6005   3.6175   6.2738   3.7931   4.9590   0.00    0.0
2091  22500.000   4121942.9306   2652185.1549   4069028.7714   5   5   8.5666   4.4629   3.5970   5.8686   3.7608   4.7694   0.00    0.0
2091  22800.000   4121940.0339   2652183.7142   4069027.2933   5   5   8.0744   4.4597   3.6535   5.6599   3.8199   4.7191   0.00    0.0
2091  23100.000   4121943.6889   2652184.9557   4069028.1876   5   5   7.7028   4.5225   3.7035   5.5402   3.8970   4.6873   0.00    0.0
2091  23400.000   4121943.2635   2652183.9226   4069026.9316   5   6   7.4663   4.5692   3.4372   5.6715   3.8090   4.8854   0.00    0.0
2091  23700.000   4121941.8053   2652183.2077   4069026.5449   5   6   7.3317   4.7999   3.5679   5.7659   3.9853   4.9495   0.00    0.0
2091  24000.000   4121942.4438   2652183.6849   4069027.0302   5   6   7.2767   5.0995   3.7130   5.9295   4.1979   5.0433   0.00    0.0
2091  24300.000   4121940.8286   2652182.7155   4069026.0778   5   6   7.2648   5.4561   3.8637   6.1373   4.4365   5.1487   0.00    0.0
2091  24600.000   4121945.3676   2652185.1850   4069028.3673   5   5  17.8951  12.6801  10.6520  14.9821  11.5293  13.7463   0.00    0.0
2091  24900.000   4121953.8267   2652192.5589   4069033.9695   5   6   5.2601   2.8816   3.2455   3.6930   2.7650   3.9232   0.00    0.0
2091  25200.000   4121953.8848   2652193.1546   4069034.1992   5   6   4.8955   2.8376   3.1037   3.5221   2.6385   3.6691   0.00    0.0
2091  25500.000   4121951.2052   2652191.2698   4069032.6335   5   6   4.5786   2.8258   2.9703   3.3842   2.5223   3.4330   0.00    0.0
2091  25800.000   4121950.7437   2652191.7217   4069032.5684   5   6   4.2767   2.7979   2.8278   3.2371   2.3787   3.1873   0.00    0.0
2091  26100.000   4121949.9635   2652191.0624   4069031.9631   5   6   4.0137   2.7796   2.6936   3.1082   2.2273   2.9514   0.00    0.0
2091  26400.000   4121948.6859   2652190.5671   4069031.2481   5   6   3.7959   2.7795   2.5738   3.0066   2.0717   2.7287   0.00    0.0
2091  26700.000   4121947.7444   2652189.9517   4069030.4424   5   6   3.6265   2.8041   2.4716   2.9389   1.9118   2.5187   0.00    0.0
2091  27000.000   4121947.7838   2652190.2489   4069029.9544   5   6   3.5082   2.8594   2.3887   2.9111   1.7435   2.3172   0.00    0.0
2091  27300.000   4121678.0427   2651744.0058   4070005.8569   6   1   2.8707   2.6629   5.4732   2.4537   3.4244   3.6896   0.00    0.0
2091  27600.000   4121678.0115   2651743.9803   4070005.7984   6   1   2.8675   2.6606   5.4673   2.4506   3.4203   3.6849   0.00    0.0
2091  27900.000   4121946.4462   2652188.9930   4069029.1913   5   6   3.5035   3.2712   2.2638   3.1328   1.0486   1.6684   0.00    0.0
2091  28500.000   4121944.8800   2652186.3199   4069031.1716   5   5   4.4201   5.2205   4.2467   4.5432  -3.6488  -2.5934   0.00    0.0
2091  28800.000   4121943.7748   2652184.9753   4069031.0714   5   5   5.2903   6.1949   4.5532   5.5219  -4.4129  -3.5821   0.00    0.0
2091  29400.000   4121942.6979   2652184.2054   4069030.0648   5   6   7.4043   8.4323   4.5537   7.7782  -5.5065  -4.8436   0.00    0.0
2091  29520.000   4121785.1724   2651851.2922   4069967.5089   5   4  16.8310  19.0104   5.5661  17.8006  -8.7091  -7.8693   0.00    0.0
2091  29610.000   4121677.7824   2651743.4252   4070004.9414   6   2   2.8019   2.2326   4.9859   2.2645   2.9073   3.4950   0.00    0.0
2091  29700.000   4121677.7704   2651743.4153   4070004.9192   6   1   2.8003   2.2312   4.9827   2.2628   2.9049   3.4926   0.00    0.0
2091  29730.000   4121677.7304   2651743.3873   4070004.8469   6   1   2.7965   2.2288   4.9758   2.2595   2.9003   3.4871   0.00    0.0
2091  30600.000   4121956.0012   2652198.0239   4069027.3570   5   5  30.1873  29.9738   7.4108  30.0504 -13.8666 -13.9163   0.00    0.0
2091  30900.000   4121947.9422   2652190.3532   4069028.3302   5   5  23.2298  22.2327   5.6426  22.6839  -9.6763  -9.9333   0.00    0.0
2091  31200.000   4121943.4262   2652185.9793   4069029.0156   5   4  30.8353  27.5206   4.6753  29.0892  -7.7276  -8.1888   0.00    0.0
2091  31230.000   4121291.7316   2651560.0606   4069461.2262   5   4  29.8163  26.5349   4.5864  28.0844  -7.2272  -7.6778   0.00    0.0
2091  31260.000   4120850.1733   2651140.7633   4069788.2260   5   4  28.8871  25.6365   4.5115  27.1682  -6.7567  -7.1980   0.00    0.0
2091  31320.000   4120463.6983   2650785.1390   4070141.3578   5   4  27.2590  24.0636   4.3975  25.5629  -5.8884  -6.3147   0.00    0.0
2091  31350.000   4120474.4014   2650802.9727   4070175.1066   5   4  26.5442  23.3736   4.3559  24.8581  -5.4828  -5.9037   0.00    0.0
2091  31440.000   4121121.5226   2651427.3839   4069740.2064   5   4  24.4899  21.4063   4.2258  22.8407  -4.2300  -4.6368   0.00    0.0
2091  31470.000   4121500.0363   2651779.9216   4069424.9168   5   4  23.9058  20.8483   4.1977  22.2676  -3.8236  -4.2310   0.00    0.0
2091  31500.000   4121939.3019   2652182.7797   4069028.4254   5   4  23.3648  20.3320   4.1760  21.7367  -3.4138  -3.8260   0.00    0.0
2091  31560.000   4120982.7809   2651291.6405   4069743.0700   5   4  22.3920  19.4062   4.1505  20.7830  -2.5761  -3.0210   0.00    0.0
2091  31650.000   4120601.6336   2650959.5406   4070118.6450   5   4  21.1764  18.2533   4.1469  19.5920  -0.7400  -1.5682   0.00    0.0
2091  31680.000   4120699.4679   2651056.7893   4070067.2181   5   4  20.7652  17.8678   4.1378  19.1917   1.1551  -0.6097   0.00    0.0
2091  31710.000   4120888.1300   2651235.3995   4069930.0303   5   4  20.3810  17.5085   4.1325  18.8181   1.7530   1.2473   0.00    0.0
2091  31770.000   4121518.5157   2651809.4527   4069408.9440   5   4  19.6869  16.8616   4.1324  18.1436   2.4862   2.2338   0.00    0.0
2091  31800.000   4121942.7083   2652185.5167   4069028.9745   5   4  19.3735  16.5707   4.1373  17.8395   2.7529   2.5548   0.00    0.0
2091  31950.000   4120675.0175   2651056.9822   4070066.4645   5   4  18.0800  15.3817   4.2009  16.5877   3.6307   3.5475   0.00    0.0
2091  31980.000   4120757.1829   2651137.9692   4070018.5995   5   4  17.8217  15.1486   4.2066  16.3402   3.7670   3.7006   0.00    0.0
2091  32010.000   4120932.5832   2651299.7362   4069889.5857   5   4  17.5790  14.9305   4.2147  16.1080   3.8916   3.8391   0.00    0.0
2091  32040.000   4121193.3841   2651533.5659   4069680.6115   5   4  17.3513  14.7268   4.2251  15.8905   4.0064   3.9655   0.00    0.0
2091  32070.000   4121532.4821   2651831.4692   4069392.9885   5   4  17.1377  14.5367   4.2377  15.6868   4.1130   4.0815   0.00    0.0
2091  32100.000   4121677.7025   2651743.3651   4070004.7958   6   1   2.7941   2.2270   4.9713   2.2572   2.8970   3.4836   0.00    0.0
2091  32130.000   4121456.9114   2651750.7025   4069388.8437   5   4  16.7486  14.1936   4.2683  15.3169   4.3013   4.2826   0.00    0.0
2091  32160.000   4121101.6233   2651437.7268   4069667.1190   5   4  16.5717  14.0391   4.2861  15.1493   4.3852   4.3704   0.00    0.0
2091  32190.000   4120864.8587   2651233.5531   4069862.7664   5   4  16.4061  13.8955   4.3057  14.9926   4.4650   4.4528   0.00    0.0
2091  32250.000   4120716.5743   2651117.4926   4070011.4775   5   4  16.1063  13.6386   4.3501  14.7100   4.6144   4.6039   0.00    0.0
2091  32280.000   4120794.8432   2651192.6043   4069968.4374   5   4  15.9312  13.4898   4.3620  14.5465   4.6847   4.6786   0.00    0.0
2091  32310.000   4120958.5014   2651340.6496   4069846.3887   5   4  15.7670  13.3515   4.3758  14.3935   4.7520   4.7492   0.00    0.0
2091  32340.000   4121206.1858   2651558.3191   4069647.7561   5   4  15.6128  13.2227   4.3913  14.2503   4.8166   4.8161   0.00    0.0
2091  32370.000   4121536.5051   2651842.3890   4069374.5538   5   4  15.4681  13.1031   4.4085  14.1164   4.8789   4.8796   0.00    0.0
2091  32400.000   4121677.7194   2651743.3786   4070004.8265   6   1   2.7919   2.2252   4.9673   2.2550   2.8939   3.4804   0.00    0.0
2091  32430.000   4121476.1882   2651774.2993   4069366.2298   5   4  15.2044  12.8889   4.4468  13.8738   4.9946   4.9945   0.00    0.0
2091  32550.000   4120748.7756   2651160.1965   4069954.8497   5   4  14.7712  12.5517   4.5393  13.4802   5.2053   5.1924   0.00    0.0
2091  32580.000   4120814.6494   2651223.6860   4069913.0988   5   4  14.6475  12.4563   4.5543  13.3691   5.2531   5.2398   0.00    0.0
2091  32610.000   4120969.2468   2651361.6469   4069797.6751   5   4  14.5315  12.3682   4.5708  13.2655   5.3001   5.2856   0.00    0.0
2091  33270.000   4121543.8328   2651851.3466   4069310.2749   5   4  12.9353  11.4209   5.0446  11.9517   6.1762   6.0279   0.00    0.0
2091  33300.000   4121939.6691   2652182.9662   4069027.3461   5   4  12.8866  11.4050   5.0672  11.9174   6.2128   6.0559   0.00    0.0
2091  33330.000   4121510.0319   2651801.9649   4069292.4569   5   4  12.8420  11.3936   5.0897  11.8873   6.2483   6.0819   0.00    0.0
2091  33360.000   4121184.0810   2651515.9956   4069498.5818   5   4  12.8012  11.3859   5.1133  11.8608   6.2845   6.1080   0.00    0.0
2091  33390.000   4120959.8186   2651321.9606   4069644.7710   5   4  12.7642  11.3819   5.1380  11.8378   6.3214   6.1340   0.00    0.0
2091  33420.000   4120830.9622   2651213.1608   4069730.1921   5   4  12.7307  11.3814   5.1638  11.8181   6.3590   6.1601   0.00    0.0
2091  33510.000   4121003.2024   2651375.3207   4069637.1199   5   4  12.6076  11.3638   5.2288  11.7418   6.4645   6.2366   0.00    0.0
2091  34200.000   4121944.9574   2652187.4801   4069029.3011   5   4   6.0905   3.5744   4.6343   4.1556   2.6508   2.3416   0.00    0.0
2091  34230.000   4121488.0122   2651740.8502   4069183.4559   5   4   6.1360   3.6047   4.6173   4.1974   2.6521   2.3512   0.00    0.0
2091  34260.000   4121121.6306   2651383.8042   4069295.3674   5   4   6.1842   3.6367   4.6018   4.2413   2.6547   2.3622   0.00    0.0
2091  34290.000   4120849.4036   2651119.2931   4069365.5625   5   4   6.2351   3.6706   4.5877   4.2874   2.6585   2.3748   0.00    0.0
2091  34320.000   4120678.5253   2650952.8512   4069401.0539   5   4   6.2889   3.7064   4.5750   4.3357   2.6637   2.3891   0.00    0.0
2091  34350.000   4120607.9699   2650884.9738   4069400.1142   5   4   6.3454   3.7441   4.5636   4.3863   2.6702   2.4049   0.00    0.0
2091  34380.000   4120644.5549   2650921.2195   4069369.5296   5   4   6.3811   3.7725   4.5409   4.4242   2.6697   2.4179   0.00    0.0
2091  34410.000   4120790.0189   2651063.9626   4069310.4489   5   4   6.4194   3.8026   4.5198   4.4641   2.6707   2.4322   0.00    0.0
2091  34440.000   4121053.6384   2651320.5457   4069232.5953   5   4   6.4603   3.8346   4.5002   4.5060   2.6729   2.4479   0.00    0.0
2091  34470.000   4121437.0658   2651693.4117   4069136.8554   5   4   6.5039   3.8684   4.4821   4.5500   2.6766   2.4650   0.00    0.0
2091  34500.000   4121945.3229   2652187.8347   4069029.2857   5   4   6.5502   3.9042   4.4654   4.5961   2.6817   2.4836   0.00    0.0
2091  34530.000   4121502.8687   2651731.1748   4069157.0853   5   4   6.5972   3.9399   4.4494   4.6423   2.6860   2.5009   0.00    0.0
2091  34560.000   4121149.4151   2651366.9214   4069249.7453   5   4   6.6470   3.9775   4.4349   4.6906   2.6917   2.5197   0.00    0.0
2091  34590.000   4120888.2848   2651097.9678   4069307.4562   5   4   6.6996   4.0172   4.4217   4.7413   2.6989   2.5400   0.00    0.0
2091  34620.000   4120725.3481   2650929.3983   4069336.8009   5   4   6.7552   4.0590   4.4098   4.7943   2.7076   2.5621   0.00    0.0
2091  34650.000   4120659.4496   2650861.7621   4069335.0357   5   4   6.8136   4.1029   4.3993   4.8496   2.7178   2.5859   0.00    0.0
2091  34680.000   4120696.6390   2650900.0717   4069309.1508   5   4   6.8495   4.1362   4.3787   4.8905   2.7208   2.6046   0.00    0.0
2091  34710.000   4120838.0956   2651046.5668   4069259.5840   5   4   6.8879   4.1713   4.3596   4.9334   2.7252   2.6245   0.00    0.0
2091  34740.000   4121092.0635   2651308.0390   4069195.1204   5   4   6.9291   4.2083   4.3419   4.9784   2.7310   2.6458   0.00    0.0
2091  34770.000   4121459.6570   2651686.8134   4069116.6236   5   4   6.9730   4.2474   4.3257   5.0256   2.7384   2.6685   0.00    0.0
2091  34800.000   4121945.3033   2652187.8134   4069029.0530   5   4   7.0198   4.2886   4.3109   5.0751   2.7474   2.6928   0.00    0.0
2091  34830.000   4121530.8163   2651731.2050   4069138.8427   5   4   7.0671   4.3296   4.2967   5.1245   2.7554   2.7154   0.00    0.0
2091  34860.000   4121201.0423   2651368.1861   4069219.0667   5   4   7.1173   4.3727   4.2839   5.1763   2.7649   2.7395   0.00    0.0
2091  34890.000   4120958.1819   2651100.9731   4069269.4073   5   4   7.1704   4.4181   4.2724   5.2304   2.7761   2.7653   0.00    0.0
2091  34920.000   4120807.7466   2650934.2373   4069295.7150   5   4   7.2265   4.4656   4.2623   5.2869   2.7889   2.7927   0.00    0.0
2091  34950.000   4120747.9283   2650868.1983   4069294.9851   5   4   7.2856   4.5154   4.2535   5.3460   2.8034   2.8219   0.00    0.0
2091  34980.000   4120784.2067   2650907.8598   4069272.7711   5   4   7.3205   4.5530   4.2354   5.3886   2.8098   2.8434   0.00    0.0
2091  35010.000   4120916.9687   2651054.8054   4069229.6549   5   4   7.3580   4.5926   4.2188   5.4333   2.8176   2.8662   0.00    0.0
2091  35040.000   4121153.8182   2651315.3597   4069174.0114   5   4   7.3984   4.6343   4.2035   5.4804   2.8271   2.8904   0.00    0.0
2091  35070.000   4121495.2390   2651691.4636   4069105.5557   5   4   7.4417   4.6782   4.1897   5.5297   2.8382   2.9161   0.00    0.0
2091  35100.000   4121945.1788   2652187.7509   4069029.0327   5   4   7.4878   4.7243   4.1773   5.5815   2.8510   2.9433   0.00    0.0
2091  35130.000   4121571.2455   2651742.8401   4069129.4757   5   4   7.5345   4.7701   4.1653   5.6330   2.8625   2.9685   0.00    0.0
2091  35160.000   4121274.9602   2651390.2929   4069204.3339   5   4   7.5841   4.8181   4.1547   5.6869   2.8757   2.9953   0.00    0.0
2091  35190.000   4121057.4988   2651131.5523   4069252.1453   5   4   7.6367   4.8684   4.1455   5.7433   2.8906   3.0237   0.00    0.0
2091  35220.000   4120921.0616   2650969.3098   4069275.3495   5   4   7.6923   4.9211   4.1375   5.8023   2.9072   3.0539   0.00    0.0
2091  35250.000   4120868.5307   2650906.6675   4069276.3182   5   4   7.7510   4.9762   4.1309   5.8639   2.9256   3.0858   0.00    0.0
2091  35280.000   4120902.0276   2650946.3836   4069257.2012   5   4   7.7841   5.0175   4.1155   5.9072   2.9348   3.1076   0.00    0.0
2091  35310.000   4121024.1844   2651091.4482   4069220.3008   5   4   7.8201   5.0610   4.1015   5.9529   2.9455   3.1308   0.00    0.0
2091  35340.000   4121237.0973   2651344.5276   4069168.2250   5   4   7.8590   5.1066   4.0889   6.0009   2.9578   3.1555   0.00    0.0
2091  35370.000   4121542.8585   2651708.4687   4069103.1959   5   4   7.9009   5.1546   4.0776   6.0514   2.9718   3.1816   0.00    0.0
2091  35400.000   4121945.1094   2652187.7461   4069028.7197   5   4   7.9458   5.2048   4.0676   6.1044   2.9875   3.2093   0.00    0.0
2091  35430.000   4121623.0317   2651766.7496   4069128.0156   5   4   7.9911   5.2546   4.0580   6.1571   3.0018   3.2349   0.00    0.0
2091  35460.000   4121368.5303   2651434.0768   4069204.3380   5   4   8.0394   5.3068   4.0497   6.2122   3.0177   3.2620   0.00    0.0
2091  35490.000   4121182.1795   2651190.5074   4069254.1967   5   4   8.0908   5.3614   4.0428   6.2700   3.0354   3.2908   0.00    0.0
2091  35520.000   4121065.8964   2651038.6599   4069279.9860   5   4   8.1453   5.4184   4.0371   6.3304   3.0549   3.3213   0.00    0.0
2091  35550.000   4121021.4953   2650980.8983   4069283.4359   5   4   8.2029   5.4779   4.0327   6.3934   3.0762   3.3536   0.00    0.0
2091  35580.000   4121050.9594   2651019.5473   4069266.2829   5   4   8.2339   5.5220   4.0197   6.4367   3.0868   3.3737   0.00    0.0
2091  35610.000   4121156.3017   2651157.2014   4069230.3409   5   4   8.2680   5.5686   4.0081   6.4826   3.0992   3.3954   0.00    0.0
2091  35640.000   4121338.9292   2651395.8436   4069177.2762   5   4   8.3052   5.6175   3.9978   6.5310   3.1132   3.4187   0.00    0.0
2091  35670.000   4121600.7283   2651738.0592   4069108.5997   5   4   8.3454   5.6687   3.9888   6.5819   3.1290   3.4435   0.00    0.0
2091  35700.000   4121944.8715   2652187.7168   4069028.4320   5   4   8.3888   5.7224   3.9811   6.6354   3.1465   3.4700   0.00    0.0
2091  35730.000   4121683.9221   2651802.5452   4069135.0244   5   4   8.4324   5.7755   3.9736   6.6885   3.1621   3.4940   0.00    0.0
2091  35760.000   4121478.3983   2651499.3552   4069217.5174   5   4   8.4791   5.8310   3.9674   6.7442   3.1795   3.5197   0.00    0.0
2091  35790.000   4121327.8711   2651277.9414   4069273.4495   5   4   8.5290   5.8890   3.9624   6.8025   3.1987   3.5471   0.00    0.0
2091  35820.000   4121234.1369   2651140.5660   4069303.9963   5   4   8.5820   5.9495   3.9587   6.8636   3.2197   3.5762   0.00    0.0
2091  35850.000   4121198.8784   2651089.2506   4069310.4554   5   4   8.6382   6.0127   3.9562   6.9274   3.2426   3.6072   0.00    0.0
2091  35880.000   4121223.1011   2651125.6118   4069294.0649   5   4   8.6677   6.0594   3.9454   6.9707   3.2537   3.6247   0.00    0.0
2091  35910.000   4121308.3325   2651251.5934   4069256.1950   5   4   8.7000   6.1084   3.9357   7.0163   3.2663   3.6436   0.00    0.0
2091  35970.000   4121667.3887   2651780.1456   4069121.0323   5   4   8.7740   6.2137   3.9200   7.1154   3.2968   3.6863   0.00    0.0
2091  36000.000   4121945.3232   2652188.1456   4069028.2763   5   4   8.8157   6.2702   3.9141   7.1691   3.3147   3.7102   0.00    0.0
2091  36030.000   4121752.7758   2651850.3610   4069147.6425   5   4   8.8579   6.3259   3.9082   7.2223   3.3305   3.7316   0.00    0.0
2091  36090.000   4121490.6191   2651392.6518   4069305.8178   5   4   8.9518   6.4452   3.9002   7.3369   3.3675   3.7796   0.00    0.0
2091  36120.000   4121421.2852   2651273.2543   4069342.7776   5   4   9.0035   6.5088   3.8980   7.3984   3.3887   3.8063   0.00    0.0
2091  36150.000   4121394.6737   2651228.8877   4069352.5157   5   4   9.0585   6.5750   3.8970   7.4628   3.4118   3.8348   0.00    0.0
2091  36180.000   4121411.9568   2651261.0129   4069336.0716   5   4   9.0862   6.6236   3.8875   7.5054   3.4219   3.8484   0.00    0.0
2091  36210.000   4121474.4026   2651371.2507   4069294.5335   5   4   9.1171   6.6747   3.8792   7.5508   3.4337   3.8638   0.00    0.0
2091  36240.000   4121583.1177   2651561.2136   4069228.5357   5   4   9.1513   6.7283   3.8720   7.5989   3.4472   3.8809   0.00    0.0
2091  36270.000   4121739.2936   2651832.4741   4069138.7938   5   4   9.1887   6.7846   3.8661   7.6499   3.4626   3.8998   0.00    0.0
2091  36300.000   4121945.2910   2652188.0319   4069027.8527   5   4   9.2293   6.8434   3.8614   7.7036   3.4797   3.9204   0.00    0.0
2091  36330.000   4121826.2708   2651907.9567   4069164.3507   5   4   9.2704   6.9016   3.8566   7.7569   3.4945   3.9384   0.00    0.0
2091  36360.000   4121677.7298   2651743.3889   4070004.8424   6   1   2.7915   2.2247   4.9667   2.2545   2.8933   3.4799   0.00    0.0
2091  36390.000   4121663.3064   2651529.4113   4069348.3994   5   4   9.3623   7.0260   3.8506   7.8721   3.5295   3.9798   0.00    0.0
2091  36420.000   4121619.3970   2651431.0205   4069392.5890   5   4   9.4132   7.0922   3.8494   7.9340   3.5498   4.0032   0.00    0.0
2091  36450.000   4121601.9308   2651394.8394   4069405.6703   5   4   9.4673   7.1612   3.8494   7.9989   3.5719   4.0285   0.00    0.0
2091  36480.000   4121612.1095   2651422.2730   4069388.1959   5   4   9.4942   7.2117   3.8407   8.0415   3.5801   4.0383   0.00    0.0
2091  36600.000   4121945.4049   2652187.9622   4069028.2712   5   5   4.9472   4.1495   3.8047   4.1043   3.3538   3.7657   0.00    0.0
2091  36660.000   4121677.7116   2651743.3755   4070004.8132   6   1   2.7898   2.2235   4.9642   2.2529   2.8913   3.4776   0.00    0.0
2091  36720.000   4121634.0480   2651378.4444   4069632.8173   5   4   6.5670   4.3763   5.8082   4.7789   4.1707   5.7605   0.00    0.0
2091  36750.000   4121614.1186   2651337.3360   4069655.7892   5   4   6.5426   4.3683   5.8206   4.7600   4.1590   5.7530   0.00    0.0
2091  36780.000   4121620.5936   2651364.1500   4069628.2054   5   4   6.4997   4.3492   5.8148   4.7277   4.1347   5.7281   0.00    0.0
2091  36810.000   4121655.1358   2651460.6394   4069550.7314   5   4   6.4589   4.3312   5.8109   4.6967   4.1112   5.7048   0.00    0.0
2091  36840.000   4121719.6887   2651628.7722   4069424.1715   5   4   6.4201   4.3144   5.8088   4.6669   4.0886   5.6832   0.00    0.0
2091  36870.000   4121815.4724   2651870.1471   4069248.9523   5   4   6.3832   4.2987   5.8086   4.6384   4.0668   5.6633   0.00    0.0
2091  36900.000   4121945.2236   2652187.7222   4069028.0719   5   4   6.3482   4.2842   5.8101   4.6110   4.0458   5.6450   0.00    0.0
2091  36930.000   4121875.2917   2651920.1692   4069291.5508   5   4   6.3140   4.2694   5.8118   4.5834   4.0235   5.6265   0.00    0.0
2091  36960.000   4121816.6020   2651707.9614   4069499.5910   5   4   6.2817   4.2559   5.8152   4.5571   4.0021   5.6097   0.00    0.0
2091  37080.000   4121677.7250   2651743.3838   4070004.8369   6   1   2.7879   2.2226   4.9609   2.2515   2.8893   3.4750   0.00    0.0
2091  37140.000   4121677.7165   2651743.3776   4070004.8230   6   1   2.7859   2.2212   4.9577   2.2496   2.8869   3.4723   0.00    0.0
2091  37200.000   4121945.0975   2652187.4933   4069028.3218   5   4   5.9969   4.1338   5.8128   4.3224   3.7942   5.4433   0.00    0.0
2091  37230.000   4121907.6350   2651945.1523   4069326.3390   5   4   5.9620   4.1188   5.8121   4.2926   3.7650   5.4215   0.00    0.0
2091  37260.000   4121677.7072   2651743.3718   4070004.8065   6   1   2.7841   2.2203   4.9546   2.2482   2.8850   3.4697   0.00    0.0
2091  37290.000   4121677.7394   2651743.3955   4070004.8599   6   1   2.7819   2.2189   4.9513   2.2462   2.8825   3.4669   0.00    0.0
2091  37350.000   4121807.2621   2651481.4869   4069859.3152   5   4   5.8397   4.0721   5.8283   4.1848   3.6533   5.3496   0.00    0.0
2091  37380.000   4121804.3840   2651501.3400   4069824.3708   5   4   5.7969   4.0531   5.8181   4.1489   3.6160   5.3190   0.00    0.0
2091  37500.000   4121944.3736   2652187.1954   4069027.8145   5   5   4.2532   3.8771   3.5931   3.5537   2.7822   3.2082   0.00    0.0
2091  37650.000   4121873.5110   2651535.0389   4069946.8214   5   4   5.4891   3.9423   5.8072   3.8782   3.2913   5.1062   0.00    0.0
2091  37770.000   4121904.6787   2651937.7537   4069355.5526   5   4   5.3363   3.8903   5.7773   3.7460   3.1142   4.9877   0.00    0.0
2091  37800.000   4121944.4621   2652186.6929   4069028.3911   5   4   5.3024   3.8813   5.7748   3.7161   3.0700   4.9616   0.00    0.0
2091  37890.000   4121942.9364   2651690.9651   4069865.0674   5   4   5.2089   3.8621   5.7754   3.6322   2.9324   4.8878   0.00    0.0
2091  37920.000   4121677.7804   2651743.4249   4070004.9376   6   1   2.7779   2.2162   4.9431   2.2426   2.8772   3.4607   0.00    0.0
2091  37950.000   4121921.5192   2651575.6560   4070022.9070   5   4   5.1542   3.8577   5.7855   3.5824   2.8382   4.8447   0.00    0.0
2091  37980.000   4121677.7925   2651743.4336   4070004.9603   6   1   2.7738   2.2136   4.9350   2.2391   2.8719   3.4546   0.00    0.0
2091  38010.000   4121907.4885   2651655.7202   4069861.5371   5   4   5.0796   3.8408   5.7683   3.5188   2.7286   4.7805   0.00    0.0
2091  38040.000   4121909.4188   2651775.1812   4069661.8509   5   4   5.0447   3.8350   5.7626   3.4890   2.6729   4.7503   0.00    0.0
2091  38070.000   4121677.7760   2651743.4234   4070004.9320   6   1   2.7723   2.2129   4.9325   2.2379   2.8703   3.4525   0.00    0.0
2091  38100.000   4121944.2373   2652186.2994   4069028.2394   5   4   4.9798   3.8287   5.7572   3.4333   2.5588   4.6936   0.00    0.0
2091  38130.000   4121677.7973   2651743.4365   4070004.9686   6   1   2.7708   2.2122   4.9300   2.2368   2.8688   3.4504   0.00    0.0
2091  38160.000   4121972.0819   2651836.0854   4069705.8961   5   4   4.9205   3.8289   5.7578   3.3823   2.4376   4.6395   0.00    0.0
2091  38190.000   4121677.8236   2651743.4555   4070005.0185   6   1   2.7669   2.2096   4.9220   2.2332   2.8636   3.4444   0.00    0.0
2091  38220.000   4121964.0393   2651639.0674   4070045.5200   5   4   4.8670   3.8367   5.7663   3.3368   2.3095   4.5896   0.00    0.0
2091  38250.000   4121953.4917   2651604.7754   4070087.1760   5   4   4.8425   3.8436   5.7735   3.3161   2.2421   4.5661   0.00    0.0
2091  38280.000   4121942.2619   2651617.0129   4070043.9693   5   4   4.8075   3.8424   5.7654   3.2878   2.1684   4.5321   0.00    0.0
2091  38310.000   4121677.7989   2651743.4377   4070004.9716   6   1   2.7630   2.2071   4.9141   2.2297   2.8584   3.4385   0.00    0.0
2091  38340.000   4121928.4351   2651791.8257   4069703.6779   5   4   4.7425   3.8464   5.7557   3.2360   2.0135   4.4675   0.00    0.0
2091  38370.000   4121677.8201   2651743.4507   4070005.0076   6   1   2.7616   2.2064   4.9119   2.2287   2.8570   3.4366   0.00    0.0
2091  38400.000   4121943.7553   2652185.9061   4069027.9252   5   4   4.6836   3.8587   5.7540   3.1902   1.8447   4.4069   0.00    0.0
2091  38430.000   4121972.1899   2652001.7107   4069425.8679   5   4   4.6562   3.8675   5.7553   3.1694   1.7521   4.3771   0.00    0.0
2091  38460.000   4121985.6763   2651849.8800   4069739.3226   5   4   4.6302   3.8784   5.7585   3.1502   1.6534   4.3481   0.00    0.0
2091  38490.000   4121988.3830   2651734.3097   4069962.7542   5   4   4.6057   3.8916   5.7638   3.1325   1.5472   4.3198   0.00    0.0
2091  38520.000   4121983.0768   2651657.8145   4070096.5247   5   4   4.5826   3.9070   5.7710   3.1165   1.4315   4.2922   0.00    0.0
2091  38550.000   4121972.7750   2651623.5271   4070140.7673   5   4   4.5608   3.9247   5.7802   3.1020   1.3035   4.2652   0.00    0.0
2091  38580.000   4121959.9096   2651633.8971   4070095.7649   5   4   4.5299   3.9345   5.7749   3.0809   1.1617   4.2292   0.00    0.0
2091  38610.000   4121677.8545   2651743.4757   4070005.0729   6   1   2.7577   2.2039   4.9041   2.2252   2.8518   3.4307   0.00    0.0
2091  38640.000   4121938.9886   2651801.6704   4069738.5142   5   4   4.4726   3.9608   5.7705   3.0439   0.8006   4.1597   0.00    0.0
2091  38670.000   4121936.6725   2651965.1635   4069426.4293   5   4   4.4462   3.9774   5.7714   3.0280   0.5296   4.1260   0.00    0.0
2091  38700.000   4121943.7479   2652185.8449   4069027.6854   5   4   4.4213   3.9965   5.7742   3.0139  -0.2926   4.0928   0.00    0.0
2091  38730.000   4121976.4260   2652007.0422   4069440.5479   5   4   4.3977   4.0175   5.7784   3.0017  -0.6784   4.0594   0.00    0.0
2091  38760.000   4121992.4647   2651858.2531   4069765.8871   5   4   4.3757   4.0409   5.7845   2.9915  -0.9175   4.0263   0.00    0.0
2091  38790.000   4121996.4483   2651744.2499   4069998.0461   5   4   4.3551   4.0670   5.7927   2.9832  -1.1096   3.9936   0.00    0.0
2091  38820.000   4121991.3167   2651667.9605   4070137.2885   5   4   4.3359   4.0956   5.8029   2.9770  -1.2766   3.9611   0.00    0.0
2091  38850.000   4121677.8273   2651743.4538   4070005.0200   6   1   2.7560   2.2024   4.9003   2.2234   2.8492   3.4279   0.00    0.0
2091  38880.000   4121965.3998   2651641.5661   4070136.5520   5   4   4.2922   4.1498   5.8134   2.9624  -1.5580   3.8890   0.00    0.0
2091  38910.000   4121951.6887   2651697.8395   4069997.7692   5   4   4.2677   4.1752   5.8137   2.9539  -1.6804   3.8495   0.00    0.0
2091  38940.000   4121941.3063   2651804.9187   4069766.4147   5   4   4.2447   4.2032   5.8161   2.9476  -1.7968   3.8102   0.00    0.0
2091  38970.000   4121937.4090   2651966.2331   4069442.3664   5   4   4.2233   4.2339   5.8205   2.9436  -1.9085   3.7711   0.00    0.0
2091  39000.000   4121677.8066   2651743.4412   4070004.9858   6   1   2.7548   2.2019   4.8985   2.2226   2.8480   3.4264   0.00    0.0
2091  39030.000   4121976.9058   2652009.3638   4069451.6373   5   4   4.1853   4.3032   5.8350   2.9427  -2.1219   3.6921   0.00    0.0
2091  39300.000   4121663.6429   2651730.8033   4069977.7267   6   2   2.0279   1.4438   3.3358   1.3565   1.4655   2.2476   0.00    0.0
2091  39600.000   4121662.0841   2651729.4160   4069974.7301   6   1   1.9335   1.3374   3.1221   1.2280   1.2283   2.0817   0.00    0.0
2091  39900.000   4121942.9543   2652184.5482   4069027.4722   5   5   3.8299   2.9362   4.2027   2.6819   1.8189   2.9990   0.00    0.0
2091  40200.000   4121942.2569   2652184.2352   4069026.8924   5   5   3.8523   3.1033   3.9721   2.8259   1.6471   2.7120   0.00    0.0
2091  40500.000   4121942.5945   2652183.9031   4069027.1052   5   5   3.9576   3.3287   3.7783   3.0440   1.4573   2.4283   0.00    0.0
2091  40770.000   4121662.0842   2651729.4161   4069974.7304   6   1   1.9334   1.3373   3.1218   1.2278   1.2280   2.0815   0.00    0.0
2091  40800.000   4121941.7774   2652182.9743   4069026.0459   5   5   4.1622   3.6331   3.6214   3.3542   1.2137   2.1256   0.00    0.0
2091  40860.000   4121942.4803   2651930.0608   4069716.5858   5   4   6.5891   3.8460   4.9068   4.1163   2.1761   4.5978   0.00    0.0
