% program   : RTKLIB ver.2.4.2
% inp file  : /home/fkarlitepe/Documents/Projects/Estimation-Orbit/precise orbit/ankr0330.20o
% inp file  : /home/fkarlitepe/Documents/Projects/Estimation-Orbit/precise orbit/precise/GFZ0MGXRAP_20200330000_01D_05M_ORB.sp3
% inp file  : /home/fkarlitepe/Documents/Projects/Estimation-Orbit/precise orbit/igs20910.clk
% inp file  : /home/fkarlitepe/Documents/Projects/Estimation-Orbit/precise orbit/ankr0330.20n
% obs start : 2020/02/02 00:00:00.0 GPST (week2091      0.0s)
% obs end   : 2020/02/02 23:59:30.0 GPST (week2091  86370.0s)
%
% (x/y/z-ecef=WGS84,Q=1:fix,2:float,3:sbas,4:dgps,5:single,6:ppp,ns=# of satellites)
%  GPST              x-ecef(m)      y-ecef(m)      z-ecef(m)   Q  ns   sdx(m)   sdy(m)   sdz(m)  sdxy(m)  sdyz(m)  sdzx(m) age(s)  ratio
2091     60.000   4121944.4939   2652190.9584   4069025.7566   6   3  40.0005   9.3518  61.2411  18.9293  23.4001  49.3343   0.00    0.0
2091     90.000   4121952.2324   2652192.6859   4069037.1917   6   4   3.4697   2.3310   7.7882   2.3274   3.1850   4.6306   0.00    0.0
2091    120.000   4121952.0181   2652192.6798   4069036.6474   6   3   3.2745   1.9389   6.7373   2.0500   2.7520   4.2608   0.00    0.0
2091    150.000   4121951.6754   2652192.5615   4069035.9464   6   3   3.1475   1.7070   6.1097   1.8862   2.4949   4.0293   0.00    0.0
2091    210.000   4121950.2235   2652191.9368   4069032.9073   6   3   2.8227   1.4895   5.1668   1.6299   2.1162   3.5201   0.00    0.0
2091    240.000   4121949.2112   2652191.5206   4069030.5747   6   3   2.4341   1.3008   4.2541   1.3553   1.7386   2.9593   0.00    0.0
2091    300.000   4121947.9585   2652191.0795   4069026.7245   6   3   1.6358   1.0597   2.6885   0.8168   1.0823   1.8865   0.00    0.0
2091    330.000   4121947.4890   2652190.8870   4069026.1619   6   3   1.5728   0.9967   2.5616   0.7788   1.0265   1.8117   0.00    0.0
2091    360.000   4121947.3047   2652190.8048   4069026.0192   6   3   1.5344   0.9477   2.4813   0.7589   0.9927   1.7679   0.00    0.0
2091    390.000   4121947.1192   2652190.7283   4069025.8747   6   3   1.5035   0.9069   2.4162   0.7445   0.9668   1.7330   0.00    0.0
2091    420.000   4121947.0723   2652190.6921   4069025.9428   6   3   1.4763   0.8721   2.3594   0.7328   0.9453   1.7026   0.00    0.0
2091    450.000   4121947.1228   2652190.6794   4069026.1301   6   3   1.4516   0.8420   2.3082   0.7228   0.9268   1.6749   0.00    0.0
2091    480.000   4121947.1891   2652190.6751   4069026.2592   6   3   1.4048   0.8110   2.2226   0.6983   0.8932   1.6190   0.00    0.0
2091    510.000   4121947.1773   2652190.6539   4069026.1343   6   3   1.3163   0.7751   2.0719   0.6466   0.8304   1.5108   0.00    0.0
2091    540.000   4121947.2912   2652190.6772   4069025.9424   6   3   1.1526   0.7289   1.8033   0.5436   0.7149   1.3095   0.00    0.0
2091    600.000   4121947.3634   2652190.7167   4069024.3218   6   3   0.6001   0.6365   0.8869  -0.1051   0.3225   0.6363   0.00    0.0
2091    660.000   4121947.4380   2652190.7057   4069024.4116   6   3   0.5836   0.6186   0.8622  -0.0983   0.3139   0.6190   0.00    0.0
2091    720.000   4121947.6568   2652190.5609   4069024.6425   6   4   0.5617   0.5975   0.8440   0.0702   0.3265   0.6000   0.00    0.0
2091    840.000   4121947.7573   2652190.5762   4069024.7147   6   3   0.5278   0.5802   0.7882  -0.0538   0.3017   0.5609   0.00    0.0
2091    870.000   4121948.0514   2652190.6472   4069024.8989   6   4   0.4488   0.5544   0.6630  -0.1311   0.2549   0.4699   0.00    0.0
2091    930.000   4121948.0409   2652190.6288   4069024.7548   6   3   0.4004   0.5374   0.5776  -0.1713   0.2127   0.4121   0.00    0.0
2091    960.000   4121948.0255   2652190.6098   4069024.7270   6   3   0.3870   0.5255   0.5554  -0.1719   0.2029   0.3972   0.00    0.0
2091   1140.000   4121947.9608   2652190.5757   4069024.5908   6   3   0.3667   0.5136   0.5212  -0.1781   0.1858   0.3742   0.00    0.0
2091   1170.000   4121947.8725   2652190.5264   4069024.3322   6   3   0.3259   0.5001   0.4477  -0.1985   0.1443   0.3255   0.00    0.0
2091   1230.000   4121947.8102   2652190.4804   4069024.1532   6   3   0.2984   0.4886   0.3971  -0.2073   0.1133   0.2927   0.00    0.0
2091   1260.000   4121947.8045   2652190.4576   4069024.1326   6   3   0.2903   0.4797   0.3840  -0.2045   0.1072   0.2840   0.00    0.0
2091   1410.000   4121947.7967   2652190.4290   4069024.1094   6   3   0.2845   0.4714   0.3755  -0.2005   0.1042   0.2784   0.00    0.0
2091   1470.000   4121947.7848   2652190.3930   4069023.9907   6   3   0.2612   0.4618   0.3316  -0.2063   0.0664   0.2506   0.00    0.0
2091   1560.000   4121947.7683   2652190.3688   4069023.9521   6   3   0.2537   0.4541   0.3190  -0.2038   0.0564   0.2425   0.00    0.0
2091   1680.000   4121947.7597   2652190.3531   4069023.9381   6   3   0.2503   0.4471   0.3148  -0.1996   0.0570   0.2396   0.00    0.0
2091   1710.000   4121947.7475   2652190.3344   4069023.9092   6   3   0.2457   0.4403   0.3080  -0.1962   0.0532   0.2351   0.00    0.0
2091   1740.000   4121947.7143   2652190.3048   4069023.8334   6   3   0.2383   0.4335   0.2950  -0.1945   0.0378   0.2270   0.00    0.0
2091   1770.000   4121947.7401   2652190.2920   4069023.8014   6   3   0.2234   0.4261   0.2658  -0.1964  -0.0488   0.2094   0.00    0.0
2091   3270.000   4121947.7535   2652190.2598   4069023.8140   6   2   0.2227   0.4221   0.2654  -0.1938  -0.0440   0.2089   0.00    0.0
2091   3360.000   4121947.7532   2652190.2588   4069023.8222   6   3   0.2213   0.4166   0.2650  -0.1895  -0.0365   0.2083   0.00    0.0
2091   4260.000   4121947.7598   2652190.2665   4069023.8398   6   4   0.2187   0.4067   0.2626  -0.1840  -0.0382   0.2063   0.00    0.0
2091   4290.000   4121947.7577   2652190.2771   4069023.8467   6   4   0.2165   0.3984   0.2614  -0.1781  -0.0312   0.2050   0.00    0.0
2091   4320.000   4121947.7512   2652190.2999   4069023.8540   6   4   0.2146   0.3909   0.2605  -0.1724  -0.0197   0.2039   0.00    0.0
2091   4350.000   4121947.7445   2652190.3155   4069023.8589   6   4   0.2128   0.3840   0.2598  -0.1670   0.0140   0.2030   0.00    0.0
2091   4380.000   4121947.7375   2652190.3234   4069023.8616   6   4   0.2111   0.3774   0.2589  -0.1619   0.0261   0.2021   0.00    0.0
2091   4410.000   4121947.7292   2652190.3238   4069023.8613   6   4   0.2095   0.3710   0.2577  -0.1571   0.0323   0.2010   0.00    0.0
2091   4440.000   4121947.7171   2652190.3316   4069023.8603   6   4   0.2077   0.3646   0.2560  -0.1528   0.0348   0.1996   0.00    0.0
2091   4470.000   4121947.7033   2652190.3223   4069023.8535   6   4   0.2057   0.3579   0.2529  -0.1493   0.0323   0.1974   0.00    0.0
2091   4500.000   4121947.6981   2652190.3463   4069023.8587   6   4   0.2034   0.3508   0.2488  -0.1462   0.0260   0.1945   0.00    0.0
2091   4530.000   4121947.6973   2652190.3584   4069023.8699   6   4   0.2021   0.3458   0.2478  -0.1422   0.0326   0.1936   0.00    0.0
2091   4560.000   4121947.6979   2652190.3599   4069023.8802   6   4   0.2009   0.3413   0.2472  -0.1382   0.0382   0.1930   0.00    0.0
2091   4590.000   4121947.6997   2652190.3575   4069023.8905   6   4   0.1999   0.3370   0.2466  -0.1343   0.0429   0.1924   0.00    0.0
2091   4620.000   4121947.7085   2652190.3403   4069023.9007   6   3   0.1991   0.3337   0.2461  -0.1315   0.0464   0.1919   0.00    0.0
2091   4650.000   4121947.7166   2652190.3249   4069023.9112   6   3   0.1985   0.3305   0.2456  -0.1288   0.0495   0.1915   0.00    0.0
2091   4710.000   4121947.7243   2652190.3088   4069023.9241   6   3   0.1977   0.3273   0.2446  -0.1259   0.0534   0.1907   0.00    0.0
2091   4740.000   4121947.7234   2652190.3091   4069023.9398   6   4   0.1963   0.3231   0.2425  -0.1218   0.0591   0.1892   0.00    0.0
2091   4770.000   4121947.7339   2652190.2974   4069023.9730   6   4   0.1941   0.3181   0.2366  -0.1161   0.0699   0.1856   0.00    0.0
2091   4800.000   4121947.7644   2652190.2444   4069024.0364   6   3   0.1900   0.3108   0.2221  -0.1075   0.0896   0.1771   0.00    0.0
2091   4830.000   4121947.7832   2652190.1992   4069024.0656   6   4   0.1887   0.3049   0.2194  -0.1020   0.0943   0.1754   0.00    0.0
2091   4860.000   4121947.7896   2652190.1819   4069024.0775   6   5   0.1875   0.2994   0.2183  -0.0964   0.0970   0.1745   0.00    0.0
2091   4890.000   4121947.7969   2652190.1636   4069024.0876   6   5   0.1866   0.2943   0.2175  -0.0912   0.0991   0.1739   0.00    0.0
2091   4920.000   4121947.8045   2652190.1444   4069024.0967   6   4   0.1859   0.2901   0.2169  -0.0870   0.1009   0.1734   0.00    0.0
2091   4950.000   4121947.8129   2652190.1238   4069024.1061   6   5   0.1851   0.2857   0.2164  -0.0821   0.1024   0.1730   0.00    0.0
2091   4980.000   4121947.8210   2652190.1031   4069024.1153   6   5   0.1843   0.2815   0.2157  -0.0772   0.1039   0.1725   0.00    0.0
2091   5010.000   4121947.8285   2652190.0829   4069024.1235   6   5   0.1834   0.2773   0.2146  -0.0722   0.1055   0.1718   0.00    0.0
2091   5040.000   4121947.8350   2652190.0658   4069024.1305   6   5   0.1824   0.2729   0.2124  -0.0667   0.1075   0.1706   0.00    0.0
2091   5070.000   4121947.8364   2652190.0473   4069024.1236   6   4   0.1810   0.2679   0.2067  -0.0604   0.1113   0.1676   0.00    0.0
2091   5100.000   4121947.8442   2652189.9689   4069024.1386   6   5   0.1781   0.2599   0.1924  -0.0478   0.1199   0.1608   0.00    0.0
2091   5130.000   4121947.8493   2652189.9545   4069024.1427   6   4   0.1774   0.2566   0.1902  -0.0425   0.1210   0.1598   0.00    0.0
2091   5160.000   4121947.8542   2652189.9372   4069024.1469   6   4   0.1770   0.2539   0.1894  -0.0378   0.1214   0.1594   0.00    0.0
2091   5190.000   4121947.8589   2652189.9226   4069024.1509   6   4   0.1767   0.2515   0.1890  -0.0330   0.1217   0.1592   0.00    0.0
2091   5220.000   4121947.8636   2652189.9096   4069024.1560   6   4   0.1764   0.2493   0.1886  -0.0277   0.1218   0.1590   0.00    0.0
2091   5250.000   4121947.8676   2652189.8979   4069024.1600   6   4   0.1761   0.2471   0.1884  -0.0216   0.1220   0.1589   0.00    0.0
2091   5280.000   4121947.8716   2652189.8855   4069024.1642   6   4   0.1758   0.2450   0.1880  -0.0132   0.1221   0.1587   0.00    0.0
2091   5310.000   4121947.8761   2652189.8785   4069024.1699   6   4   0.1755   0.2427   0.1873   0.0105   0.1222   0.1585   0.00    0.0
2091   5340.000   4121947.8803   2652189.8724   4069024.1746   6   4   0.1751   0.2399   0.1860   0.0198   0.1224   0.1579   0.00    0.0
2091   5370.000   4121947.8807   2652189.8492   4069024.1684   6   4   0.1745   0.2355   0.1835   0.0276   0.1237   0.1569   0.00    0.0
2091   5400.000   4121947.8838   2652189.7370   4069024.1715   6   5   0.1732   0.2259   0.1758   0.0359   0.1261   0.1537   0.00    0.0
2091   5430.000   4121947.8897   2652189.6921   4069024.1773   6   5   0.1727   0.2228   0.1744   0.0396   0.1262   0.1531   0.00    0.0
2091   5460.000   4121947.8942   2652189.6723   4069024.1835   6   5   0.1723   0.2208   0.1739   0.0426   0.1261   0.1530   0.00    0.0
2091   5490.000   4121947.8983   2652189.6612   4069024.1884   6   5   0.1720   0.2190   0.1737   0.0453   0.1259   0.1529   0.00    0.0
2091   5520.000   4121947.8996   2652189.6539   4069024.1895   6   4   0.1718   0.2176   0.1735   0.0471   0.1258   0.1528   0.00    0.0
2091   5550.000   4121947.9011   2652189.6510   4069024.1915   6   3   0.1717   0.2163   0.1734   0.0488   0.1258   0.1528   0.00    0.0
2091   5580.000   4121947.9033   2652189.6490   4069024.1965   6   4   0.1715   0.2149   0.1731   0.0504   0.1256   0.1528   0.00    0.0
2091   5610.000   4121947.9061   2652189.6427   4069024.2044   6   4   0.1713   0.2133   0.1728   0.0517   0.1254   0.1526   0.00    0.0
2091   5640.000   4121947.9081   2652189.6299   4069024.2105   6   3   0.1710   0.2112   0.1720   0.0527   0.1251   0.1523   0.00    0.0
2091   5670.000   4121947.9095   2652189.6032   4069024.2172   6   4   0.1705   0.2067   0.1697   0.0524   0.1239   0.1514   0.00    0.0
2091   5700.000   4121947.8776   2652189.4440   4069024.1527   6   4   0.1693   0.1950   0.1622   0.0474   0.1194   0.1483   0.00    0.0
2091   5730.000   4121947.8703   2652189.4059   4069024.1405   6   4   0.1690   0.1923   0.1609   0.0474   0.1185   0.1478   0.00    0.0
2091   5760.000   4121947.8679   2652189.3965   4069024.1380   6   4   0.1688   0.1909   0.1605   0.0482   0.1181   0.1476   0.00    0.0
2091   5790.000   4121947.8650   2652189.3993   4069024.1380   6   5   0.1685   0.1896   0.1602   0.0497   0.1179   0.1475   0.00    0.0
2091   5820.000   4121947.8639   2652189.4003   4069024.1377   6   3   0.1683   0.1887   0.1601   0.0507   0.1178   0.1474   0.00    0.0
2091   5850.000   4121947.8630   2652189.4019   4069024.1382   6   3   0.1682   0.1878   0.1600   0.0516   0.1177   0.1474   0.00    0.0
2091   5880.000   4121947.8661   2652189.3953   4069024.1388   6   5   0.1679   0.1867   0.1598   0.0529   0.1175   0.1473   0.00    0.0
2091   5910.000   4121947.8632   2652189.3903   4069024.1375   6   4   0.1677   0.1856   0.1595   0.0535   0.1172   0.1472   0.00    0.0
2091   5940.000   4121947.8591   2652189.3788   4069024.1353   6   4   0.1675   0.1838   0.1588   0.0535   0.1165   0.1469   0.00    0.0
2091   5970.000   4121947.8367   2652189.3103   4069024.0993   6   4   0.1669   0.1798   0.1568   0.0516   0.1144   0.1460   0.00    0.0
2091   6000.000   4121947.7952   2652189.1916   4069024.0257   6   4   0.1656   0.1685   0.1502   0.0423   0.1074   0.1430   0.00    0.0
2091   6030.000   4121947.7865   2652189.1559   4069024.0082   6   5   0.1651   0.1661   0.1490   0.0419   0.1062   0.1425   0.00    0.0
2091   6060.000   4121947.7815   2652189.1496   4069024.0045   6   3   0.1649   0.1650   0.1487   0.0423   0.1059   0.1423   0.00    0.0
2091   6090.000   4121947.7799   2652189.1448   4069024.0021   6   5   0.1647   0.1641   0.1485   0.0433   0.1057   0.1422   0.00    0.0
2091   6120.000   4121947.7771   2652189.1456   4069024.0021   6   4   0.1645   0.1635   0.1483   0.0441   0.1056   0.1421   0.00    0.0
2091   6150.000   4121947.7748   2652189.1476   4069024.0026   6   4   0.1643   0.1629   0.1483   0.0448   0.1055   0.1421   0.00    0.0
2091   6180.000   4121947.7726   2652189.1496   4069024.0035   6   4   0.1642   0.1623   0.1481   0.0455   0.1054   0.1420   0.00    0.0
2091   6210.000   4121947.7692   2652189.1479   4069024.0025   6   4   0.1640   0.1615   0.1479   0.0459   0.1051   0.1419   0.00    0.0
2091   6240.000   4121947.7645   2652189.1398   4069023.9998   6   3   0.1637   0.1602   0.1473   0.0457   0.1045   0.1416   0.00    0.0
2091   6270.000   4121947.7559   2652189.1132   4069023.9959   6   3   0.1632   0.1572   0.1458   0.0434   0.1026   0.1408   0.00    0.0
2091   6300.000   4121947.7044   2652188.9919   4069023.9120   6   4   0.1619   0.1484   0.1407   0.0328   0.0962   0.1384   0.00    0.0
2091   6330.000   4121947.6814   2652188.9514   4069023.8708   6   3   0.1615   0.1467   0.1398   0.0317   0.0952   0.1379   0.00    0.0
2091   6360.000   4121947.6711   2652188.9360   4069023.8570   6   4   0.1613   0.1459   0.1395   0.0320   0.0949   0.1378   0.00    0.0
2091   6390.000   4121947.6658   2652188.9314   4069023.8510   6   3   0.1611   0.1454   0.1394   0.0327   0.0948   0.1377   0.00    0.0
2091   6420.000   4121947.6620   2652188.9307   4069023.8483   6   4   0.1610   0.1450   0.1393   0.0334   0.0948   0.1376   0.00    0.0
2091   6450.000   4121947.6598   2652188.9329   4069023.8480   6   4   0.1608   0.1446   0.1392   0.0342   0.0948   0.1375   0.00    0.0
2091   6480.000   4121947.6586   2652188.9345   4069023.8480   6   3   0.1606   0.1443   0.1392   0.0351   0.0948   0.1375   0.00    0.0
2091   6510.000   4121947.6571   2652188.9350   4069023.8487   6   4   0.1605   0.1441   0.1391   0.0360   0.0949   0.1374   0.00    0.0
2091   6540.000   4121947.6565   2652188.9359   4069023.8491   6   3   0.1603   0.1438   0.1389   0.0369   0.0950   0.1373   0.00    0.0
2091   6570.000   4121947.6548   2652188.9372   4069023.8465   6   3   0.1601   0.1435   0.1385   0.0377   0.0951   0.1372   0.00    0.0
2091   6600.000   4121947.6535   2652188.9393   4069023.8438   6   3   0.1599   0.1432   0.1370   0.0386   0.0954   0.1369   0.00    0.0
2091   6630.000   4121947.6531   2652188.9412   4069023.8442   6   3   0.1598   0.1429   0.1367   0.0394   0.0955   0.1368   0.00    0.0
2091   6660.000   4121947.6521   2652188.9418   4069023.8443   6   4   0.1596   0.1427   0.1366   0.0401   0.0956   0.1367   0.00    0.0
2091   6690.000   4121947.6522   2652188.9428   4069023.8460   6   3   0.1595   0.1424   0.1366   0.0408   0.0956   0.1367   0.00    0.0
2091   6720.000   4121947.6515   2652188.9434   4069023.8472   6   4   0.1593   0.1422   0.1365   0.0415   0.0957   0.1366   0.00    0.0
2091   6750.000   4121947.6501   2652188.9440   4069023.8474   6   4   0.1592   0.1419   0.1365   0.0421   0.0958   0.1366   0.00    0.0
2091   6780.000   4121947.6491   2652188.9453   4069023.8477   6   3   0.1591   0.1417   0.1365   0.0428   0.0958   0.1366   0.00    0.0
2091   6810.000   4121947.6477   2652188.9465   4069023.8479   6   3   0.1589   0.1414   0.1364   0.0434   0.0958   0.1365   0.00    0.0
2091   6840.000   4121947.6457   2652188.9469   4069023.8489   6   4   0.1588   0.1411   0.1363   0.0439   0.0959   0.1365   0.00    0.0
2091   6870.000   4121947.6406   2652188.9438   4069023.8425   6   4   0.1586   0.1408   0.1360   0.0443   0.0959   0.1364   0.00    0.0
2091   6900.000   4121947.6391   2652188.9452   4069023.8413   6   3   0.1583   0.1401   0.1350   0.0442   0.0957   0.1361   0.00    0.0
2091   6930.000   4121947.6388   2652188.9478   4069023.8425   6   3   0.1582   0.1398   0.1349   0.0447   0.0958   0.1361   0.00    0.0
2091   6960.000   4121947.6380   2652188.9485   4069023.8418   6   3   0.1581   0.1395   0.1348   0.0452   0.0958   0.1360   0.00    0.0
2091   6990.000   4121947.6378   2652188.9491   4069023.8415   6   3   0.1579   0.1393   0.1348   0.0457   0.0958   0.1360   0.00    0.0
2091   7020.000   4121947.6378   2652188.9495   4069023.8419   6   3   0.1578   0.1391   0.1347   0.0462   0.0959   0.1359   0.00    0.0
2091   7050.000   4121947.6378   2652188.9494   4069023.8419   6   3   0.1577   0.1389   0.1347   0.0467   0.0959   0.1359   0.00    0.0
2091   7080.000   4121947.6379   2652188.9490   4069023.8420   6   3   0.1575   0.1386   0.1347   0.0472   0.0959   0.1359   0.00    0.0
2091   7110.000   4121947.6379   2652188.9482   4069023.8410   6   3   0.1574   0.1384   0.1347   0.0476   0.0960   0.1358   0.00    0.0
2091   7140.000   4121947.6384   2652188.9482   4069023.8399   6   3   0.1572   0.1381   0.1346   0.0480   0.0959   0.1358   0.00    0.0
2091   7170.000   4121947.6414   2652188.9526   4069023.8432   6   3   0.1570   0.1376   0.1343   0.0480   0.0958   0.1356   0.00    0.0
2091   7200.000   4121947.6405   2652188.9504   4069023.8425   6   3   0.1566   0.1364   0.1336   0.0469   0.0951   0.1353   0.00    0.0
2091   7230.000   4121947.6389   2652188.9471   4069023.8408   6   3   0.1565   0.1360   0.1335   0.0471   0.0950   0.1352   0.00    0.0
2091   7290.000   4121947.6378   2652188.9451   4069023.8384   6   3   0.1563   0.1358   0.1334   0.0475   0.0950   0.1352   0.00    0.0
2091   7320.000   4121947.6371   2652188.9442   4069023.8370   6   3   0.1562   0.1356   0.1334   0.0479   0.0951   0.1352   0.00    0.0
2091   7350.000   4121947.6365   2652188.9438   4069023.8363   6   3   0.1561   0.1354   0.1334   0.0483   0.0951   0.1351   0.00    0.0
2091   7470.000   4121947.6301   2652188.9395   4069023.8289   6   4   0.1558   0.1346   0.1332   0.0484   0.0949   0.1350   0.00    0.0
2091   7500.000   4121947.6210   2652188.9318   4069023.8192   6   4   0.1551   0.1329   0.1326   0.0468   0.0939   0.1346   0.00    0.0
2091   7530.000   4121947.6188   2652188.9376   4069023.8149   6   4   0.1549   0.1323   0.1325   0.0470   0.0937   0.1345   0.00    0.0
2091   7560.000   4121947.6169   2652188.9479   4069023.8158   6   4   0.1547   0.1319   0.1324   0.0476   0.0938   0.1344   0.00    0.0
2091   7590.000   4121947.6130   2652188.9537   4069023.8151   6   4   0.1545   0.1316   0.1324   0.0483   0.0938   0.1343   0.00    0.0
2091   7620.000   4121947.6098   2652188.9588   4069023.8148   6   4   0.1543   0.1313   0.1324   0.0489   0.0939   0.1343   0.00    0.0
2091   7650.000   4121947.6068   2652188.9636   4069023.8147   6   4   0.1541   0.1310   0.1324   0.0495   0.0940   0.1342   0.00    0.0
2091   7680.000   4121947.6035   2652188.9683   4069023.8144   6   4   0.1539   0.1308   0.1323   0.0501   0.0941   0.1342   0.00    0.0
2091   7710.000   4121947.5998   2652188.9733   4069023.8140   6   4   0.1538   0.1305   0.1323   0.0507   0.0941   0.1341   0.00    0.0
2091   7740.000   4121947.5931   2652188.9830   4069023.8126   6   4   0.1536   0.1302   0.1323   0.0513   0.0942   0.1341   0.00    0.0
2091   7770.000   4121947.5873   2652188.9940   4069023.8109   6   4   0.1533   0.1299   0.1323   0.0517   0.0943   0.1341   0.00    0.0
2091   7800.000   4121947.5818   2652189.0057   4069023.8096   6   4   0.1529   0.1295   0.1323   0.0518   0.0943   0.1340   0.00    0.0
2091   7830.000   4121947.5720   2652189.0154   4069023.8081   6   4   0.1527   0.1292   0.1323   0.0522   0.0944   0.1340   0.00    0.0
2091   7860.000   4121947.5644   2652189.0258   4069023.8067   6   4   0.1525   0.1290   0.1323   0.0527   0.0945   0.1339   0.00    0.0
2091   7890.000   4121947.5581   2652189.0363   4069023.8056   6   4   0.1524   0.1287   0.1322   0.0532   0.0945   0.1339   0.00    0.0
2091   7920.000   4121947.5512   2652189.0461   4069023.8045   6   4   0.1522   0.1285   0.1322   0.0537   0.0946   0.1338   0.00    0.0
2091   7950.000   4121947.5447   2652189.0554   4069023.8034   6   4   0.1520   0.1283   0.1322   0.0542   0.0946   0.1338   0.00    0.0
2091   7980.000   4121947.5388   2652189.0645   4069023.8025   6   4   0.1519   0.1280   0.1322   0.0546   0.0947   0.1337   0.00    0.0
2091   8010.000   4121947.5331   2652189.0734   4069023.8016   6   4   0.1517   0.1278   0.1322   0.0551   0.0947   0.1337   0.00    0.0
2091   8040.000   4121947.5303   2652189.0815   4069023.8017   6   5   0.1515   0.1275   0.1322   0.0555   0.0948   0.1336   0.00    0.0
2091   8070.000   4121947.5303   2652189.0886   4069023.8032   6   5   0.1512   0.1271   0.1321   0.0559   0.0948   0.1335   0.00    0.0
2091   8100.000   4121947.5353   2652189.0909   4069023.8070   6   5   0.1505   0.1266   0.1320   0.0557   0.0948   0.1332   0.00    0.0
2091   8130.000   4121947.5378   2652189.0900   4069023.8082   6   5   0.1503   0.1263   0.1320   0.0562   0.0948   0.1331   0.00    0.0
2091   8160.000   4121947.5397   2652189.0872   4069023.8088   6   5   0.1501   0.1261   0.1320   0.0567   0.0949   0.1331   0.00    0.0
2091   8190.000   4121947.5418   2652189.0844   4069023.8095   6   5   0.1499   0.1258   0.1319   0.0571   0.0949   0.1330   0.00    0.0
2091   8220.000   4121947.5433   2652189.0826   4069023.8101   6   5   0.1498   0.1256   0.1319   0.0576   0.0950   0.1330   0.00    0.0
2091   8250.000   4121947.5444   2652189.0815   4069023.8107   6   5   0.1496   0.1253   0.1319   0.0580   0.0951   0.1329   0.00    0.0
2091   8280.000   4121947.5451   2652189.0806   4069023.8110   6   5   0.1495   0.1251   0.1319   0.0584   0.0951   0.1329   0.00    0.0
2091   8310.000   4121947.5455   2652189.0798   4069023.8112   6   5   0.1493   0.1248   0.1319   0.0589   0.0952   0.1328   0.00    0.0
2091   8340.000   4121947.5440   2652189.0787   4069023.8100   6   5   0.1491   0.1246   0.1319   0.0593   0.0952   0.1328   0.00    0.0
2091   8370.000   4121947.5436   2652189.0779   4069023.8098   6   5   0.1489   0.1243   0.1318   0.0597   0.0953   0.1327   0.00    0.0
2091   8400.000   4121947.5539   2652189.0768   4069023.8170   6   5   0.1485   0.1241   0.1317   0.0601   0.0953   0.1325   0.00    0.0
2091   8430.000   4121947.5591   2652189.0757   4069023.8203   6   5   0.1483   0.1238   0.1316   0.0605   0.0954   0.1324   0.00    0.0
2091   8460.000   4121947.5606   2652189.0749   4069023.8213   6   5   0.1482   0.1236   0.1316   0.0608   0.0954   0.1323   0.00    0.0
2091   8490.000   4121947.5631   2652189.0736   4069023.8226   6   5   0.1480   0.1234   0.1316   0.0612   0.0955   0.1323   0.00    0.0
2091   8520.000   4121947.5649   2652189.0723   4069023.8234   6   5   0.1479   0.1232   0.1316   0.0615   0.0955   0.1323   0.00    0.0
2091   8550.000   4121947.5668   2652189.0711   4069023.8242   6   5   0.1478   0.1230   0.1316   0.0619   0.0956   0.1322   0.00    0.0
2091   8580.000   4121947.5684   2652189.0701   4069023.8250   6   5   0.1477   0.1228   0.1316   0.0622   0.0956   0.1322   0.00    0.0
2091   8610.000   4121947.5699   2652189.0694   4069023.8257   6   5   0.1475   0.1226   0.1315   0.0625   0.0957   0.1321   0.00    0.0
2091   8640.000   4121947.5709   2652189.0691   4069023.8262   6   5   0.1474   0.1224   0.1315   0.0629   0.0957   0.1321   0.00    0.0
2091   8670.000   4121947.5714   2652189.0697   4069023.8271   6   5   0.1473   0.1221   0.1315   0.0632   0.0957   0.1321   0.00    0.0
2091   8700.000   4121947.5726   2652189.0679   4069023.8271   6   5   0.1471   0.1218   0.1315   0.0635   0.0957   0.1320   0.00    0.0
2091   8730.000   4121947.5732   2652189.0683   4069023.8277   6   5   0.1470   0.1216   0.1315   0.0638   0.0957   0.1320   0.00    0.0
2091   8760.000   4121947.5730   2652189.0691   4069023.8279   6   5   0.1469   0.1214   0.1314   0.0641   0.0958   0.1320   0.00    0.0
2091   8790.000   4121947.5732   2652189.0693   4069023.8280   6   5   0.1468   0.1212   0.1314   0.0644   0.0958   0.1319   0.00    0.0
2091   8820.000   4121947.5731   2652189.0698   4069023.8282   6   4   0.1467   0.1210   0.1314   0.0646   0.0958   0.1319   0.00    0.0
2091   8850.000   4121947.5737   2652189.0695   4069023.8285   6   5   0.1466   0.1208   0.1314   0.0649   0.0959   0.1319   0.00    0.0
2091   8880.000   4121947.5739   2652189.0699   4069023.8287   6   4   0.1465   0.1207   0.1314   0.0651   0.0959   0.1318   0.00    0.0
2091   8910.000   4121947.5748   2652189.0693   4069023.8290   6   5   0.1464   0.1205   0.1314   0.0654   0.0959   0.1318   0.00    0.0
2091   8940.000   4121947.5744   2652189.0706   4069023.8293   6   3   0.1463   0.1203   0.1314   0.0656   0.0960   0.1318   0.00    0.0
2091   8970.000   4121947.5762   2652189.0690   4069023.8298   6   5   0.1461   0.1201   0.1314   0.0658   0.0960   0.1317   0.00    0.0
2091   9000.000   4121947.5783   2652189.0677   4069023.8308   6   5   0.1460   0.1197   0.1313   0.0660   0.0959   0.1316   0.00    0.0
2091   9030.000   4121947.5802   2652189.0668   4069023.8321   6   5   0.1458   0.1195   0.1313   0.0662   0.0960   0.1316   0.00    0.0
2091   9060.000   4121947.5808   2652189.0671   4069023.8328   6   4   0.1457   0.1194   0.1313   0.0665   0.0960   0.1316   0.00    0.0
2091   9090.000   4121947.5812   2652189.0674   4069023.8332   6   5   0.1456   0.1192   0.1313   0.0667   0.0960   0.1315   0.00    0.0
2091   9120.000   4121947.5816   2652189.0680   4069023.8337   6   4   0.1455   0.1190   0.1312   0.0669   0.0961   0.1315   0.00    0.0
2091   9150.000   4121947.5820   2652189.0685   4069023.8342   6   5   0.1454   0.1189   0.1312   0.0671   0.0961   0.1315   0.00    0.0
2091   9180.000   4121947.5818   2652189.0700   4069023.8346   6   3   0.1454   0.1188   0.1312   0.0673   0.0961   0.1315   0.00    0.0
2091   9210.000   4121947.5814   2652189.0718   4069023.8351   6   4   0.1453   0.1187   0.1312   0.0674   0.0961   0.1314   0.00    0.0
2091   9240.000   4121947.5774   2652189.0772   4069023.8347   6   4   0.1452   0.1185   0.1312   0.0676   0.0961   0.1314   0.00    0.0
2091   9270.000   4121947.5756   2652189.0818   4069023.8350   6   5   0.1450   0.1183   0.1311   0.0677   0.0961   0.1313   0.00    0.0
2091   9300.000   4121947.5732   2652189.0790   4069023.8314   6   5   0.1447   0.1178   0.1309   0.0677   0.0959   0.1311   0.00    0.0
2091   9330.000   4121947.5702   2652189.0805   4069023.8299   6   5   0.1446   0.1177   0.1309   0.0678   0.0958   0.1310   0.00    0.0
2091   9360.000   4121947.5682   2652189.0822   4069023.8294   6   4   0.1445   0.1175   0.1308   0.0680   0.0958   0.1310   0.00    0.0
2091   9390.000   4121947.5674   2652189.0837   4069023.8293   6   5   0.1444   0.1174   0.1308   0.0682   0.0959   0.1309   0.00    0.0
2091   9420.000   4121947.5672   2652189.0851   4069023.8297   6   5   0.1443   0.1172   0.1308   0.0684   0.0959   0.1309   0.00    0.0
2091   9450.000   4121947.5674   2652189.0858   4069023.8300   6   4   0.1442   0.1171   0.1308   0.0685   0.0959   0.1309   0.00    0.0
2091   9480.000   4121947.5699   2652189.0853   4069023.8312   6   4   0.1441   0.1170   0.1308   0.0687   0.0959   0.1309   0.00    0.0
2091   9510.000   4121947.5724   2652189.0851   4069023.8326   6   5   0.1440   0.1168   0.1308   0.0689   0.0960   0.1308   0.00    0.0
2091   9540.000   4121947.5765   2652189.0856   4069023.8350   6   5   0.1439   0.1167   0.1308   0.0691   0.0960   0.1308   0.00    0.0
2091   9570.000   4121947.5823   2652189.0869   4069023.8386   6   5   0.1437   0.1166   0.1307   0.0692   0.0960   0.1307   0.00    0.0
2091   9600.000   4121947.5907   2652189.0891   4069023.8434   6   5   0.1433   0.1164   0.1306   0.0693   0.0960   0.1304   0.00    0.0
2091   9630.000   4121947.5930   2652189.0901   4069023.8450   6   4   0.1431   0.1163   0.1305   0.0694   0.0960   0.1303   0.00    0.0
2091   9660.000   4121947.5938   2652189.0911   4069023.8456   6   5   0.1430   0.1162   0.1305   0.0696   0.0960   0.1303   0.00    0.0
2091   9690.000   4121947.5947   2652189.0917   4069023.8464   6   4   0.1429   0.1160   0.1305   0.0698   0.0960   0.1303   0.00    0.0
2091   9720.000   4121947.5956   2652189.0923   4069023.8470   6   4   0.1428   0.1159   0.1305   0.0699   0.0961   0.1303   0.00    0.0
2091   9750.000   4121947.5958   2652189.0933   4069023.8474   6   4   0.1428   0.1158   0.1305   0.0701   0.0961   0.1302   0.00    0.0
2091   9780.000   4121947.5948   2652189.0959   4069023.8478   6   4   0.1427   0.1157   0.1305   0.0702   0.0961   0.1302   0.00    0.0
2091   9810.000   4121947.5952   2652189.0984   4069023.8491   6   5   0.1426   0.1155   0.1305   0.0704   0.0961   0.1302   0.00    0.0
2091   9840.000   4121947.5974   2652189.1013   4069023.8512   6   4   0.1425   0.1154   0.1304   0.0705   0.0961   0.1302   0.00    0.0
2091   9870.000   4121947.6069   2652189.1037   4069023.8572   6   4   0.1423   0.1153   0.1304   0.0706   0.0961   0.1301   0.00    0.0
2091   9900.000   4121947.6186   2652189.1056   4069023.8642   6   4   0.1417   0.1152   0.1302   0.0707   0.0961   0.1297   0.00    0.0
2091   9930.000   4121947.6241   2652189.1071   4069023.8677   6   4   0.1415   0.1151   0.1302   0.0709   0.0961   0.1296   0.00    0.0
2091   9960.000   4121947.6269   2652189.1083   4069023.8696   6   3   0.1415   0.1150   0.1301   0.0709   0.0962   0.1296   0.00    0.0
2091   9990.000   4121947.6264   2652189.1100   4069023.8700   6   4   0.1414   0.1149   0.1301   0.0711   0.0962   0.1296   0.00    0.0
2091  10020.000   4121947.6259   2652189.1119   4069023.8703   6   4   0.1413   0.1148   0.1301   0.0712   0.0962   0.1296   0.00    0.0
2091  10050.000   4121947.6256   2652189.1135   4069023.8708   6   5   0.1412   0.1147   0.1301   0.0713   0.0962   0.1295   0.00    0.0
2091  10080.000   4121947.6252   2652189.1147   4069023.8708   6   5   0.1412   0.1145   0.1301   0.0715   0.0962   0.1295   0.00    0.0
2091  10110.000   4121947.6255   2652189.1151   4069023.8708   6   3   0.1411   0.1145   0.1301   0.0715   0.0962   0.1295   0.00    0.0
2091  10140.000   4121947.6275   2652189.1154   4069023.8715   6   4   0.1410   0.1143   0.1300   0.0716   0.0962   0.1294   0.00    0.0
2091  10170.000   4121947.6386   2652189.1107   4069023.8744   6   3   0.1408   0.1141   0.1299   0.0716   0.0961   0.1293   0.00    0.0
2091  10200.000   4121947.6475   2652189.1090   4069023.8780   6   3   0.1399   0.1137   0.1295   0.0715   0.0958   0.1287   0.00    0.0
2091  10230.000   4121947.6505   2652189.1051   4069023.8772   6   4   0.1397   0.1135   0.1294   0.0715   0.0957   0.1286   0.00    0.0
2091  10260.000   4121947.6526   2652189.1040   4069023.8773   6   4   0.1396   0.1134   0.1293   0.0716   0.0957   0.1285   0.00    0.0
2091  10290.000   4121947.6530   2652189.1042   4069023.8775   6   5   0.1395   0.1133   0.1293   0.0717   0.0957   0.1285   0.00    0.0
2091  10320.000   4121947.6518   2652189.1056   4069023.8771   6   3   0.1395   0.1132   0.1293   0.0718   0.0957   0.1285   0.00    0.0
2091  10350.000   4121947.6509   2652189.1072   4069023.8770   6   3   0.1394   0.1132   0.1293   0.0719   0.0957   0.1285   0.00    0.0
2091  10380.000   4121947.6506   2652189.1083   4069023.8771   6   4   0.1394   0.1130   0.1293   0.0719   0.0957   0.1284   0.00    0.0
2091  10410.000   4121947.6495   2652189.1096   4069023.8768   6   4   0.1393   0.1129   0.1292   0.0720   0.0957   0.1284   0.00    0.0
2091  10440.000   4121947.6484   2652189.1109   4069023.8765   6   3   0.1392   0.1128   0.1292   0.0720   0.0956   0.1283   0.00    0.0
2091  10470.000   4121947.6483   2652189.1129   4069023.8771   6   3   0.1390   0.1126   0.1289   0.0717   0.0953   0.1281   0.00    0.0
2091  10500.000   4121947.6393   2652189.1086   4069023.8691   6   4   0.1381   0.1118   0.1280   0.0704   0.0943   0.1271   0.00    0.0
2091  10530.000   4121947.6382   2652189.1098   4069023.8687   6   3   0.1379   0.1116   0.1278   0.0702   0.0941   0.1269   0.00    0.0
2091  10560.000   4121947.6375   2652189.1112   4069023.8687   6   3   0.1378   0.1115   0.1277   0.0702   0.0941   0.1269   0.00    0.0
2091  10590.000   4121947.6372   2652189.1128   4069023.8691   6   3   0.1378   0.1114   0.1277   0.0702   0.0940   0.1268   0.00    0.0
2091  10620.000   4121947.6364   2652189.1138   4069023.8688   6   3   0.1377   0.1113   0.1277   0.0703   0.0940   0.1268   0.00    0.0
2091  10680.000   4121947.6349   2652189.1139   4069023.8677   6   3   0.1377   0.1112   0.1276   0.0703   0.0940   0.1268   0.00    0.0
2091  10710.000   4121947.6308   2652189.1111   4069023.8635   6   3   0.1376   0.1111   0.1276   0.0703   0.0939   0.1267   0.00    0.0
2091  10740.000   4121947.6222   2652189.1036   4069023.8541   6   3   0.1375   0.1109   0.1275   0.0702   0.0938   0.1266   0.00    0.0
2091  10770.000   4121947.6092   2652189.0912   4069023.8396   6   3   0.1372   0.1105   0.1271   0.0697   0.0933   0.1263   0.00    0.0
2091  10800.000   4121947.5951   2652189.0702   4069023.8198   6   3   0.1359   0.1090   0.1255   0.0675   0.0915   0.1248   0.00    0.0
2091  10890.000   4121947.5952   2652189.0715   4069023.8203   6   3   0.1359   0.1089   0.1255   0.0675   0.0914   0.1248   0.00    0.0
2091  10950.000   4121947.5952   2652189.0731   4069023.8208   6   3   0.1358   0.1088   0.1254   0.0675   0.0914   0.1247   0.00    0.0
2091  10980.000   4121947.5951   2652189.0753   4069023.8217   6   3   0.1358   0.1087   0.1254   0.0675   0.0914   0.1247   0.00    0.0
2091  11010.000   4121947.5951   2652189.0779   4069023.8228   6   3   0.1357   0.1086   0.1253   0.0675   0.0913   0.1246   0.00    0.0
2091  11040.000   4121947.5946   2652189.0792   4069023.8229   6   3   0.1355   0.1083   0.1251   0.0673   0.0910   0.1245   0.00    0.0
2091  11070.000   4121947.5937   2652189.0757   4069023.8203   6   3   0.1351   0.1077   0.1245   0.0665   0.0903   0.1240   0.00    0.0
2091  11130.000   4121947.5871   2652189.0678   4069023.8119   6   3   0.1346   0.1069   0.1239   0.0657   0.0895   0.1234   0.00    0.0
2091  11400.000   4121947.5902   2652188.9996   4069023.7796   6   4   0.1320   0.1025   0.1203   0.0608   0.0846   0.1204   0.00    0.0
2091  11430.000   4121947.5907   2652188.9845   4069023.7728   6   4   0.1315   0.1017   0.1196   0.0601   0.0838   0.1198   0.00    0.0
2091  11460.000   4121947.5925   2652188.9808   4069023.7719   6   4   0.1313   0.1013   0.1194   0.0599   0.0836   0.1196   0.00    0.0
2091  11490.000   4121947.5939   2652188.9779   4069023.7713   6   4   0.1312   0.1011   0.1193   0.0599   0.0835   0.1195   0.00    0.0
2091  11520.000   4121947.5956   2652188.9749   4069023.7709   6   4   0.1311   0.1010   0.1193   0.0599   0.0834   0.1195   0.00    0.0
2091  11550.000   4121947.5971   2652188.9719   4069023.7704   6   4   0.1310   0.1009   0.1192   0.0600   0.0834   0.1194   0.00    0.0
2091  11580.000   4121947.5996   2652188.9647   4069023.7690   6   5   0.1309   0.1006   0.1192   0.0601   0.0833   0.1194   0.00    0.0
2091  11610.000   4121947.6018   2652188.9575   4069023.7673   6   5   0.1307   0.1004   0.1190   0.0601   0.0832   0.1192   0.00    0.0
2091  11640.000   4121947.6027   2652188.9468   4069023.7632   6   5   0.1305   0.0999   0.1188   0.0599   0.0828   0.1190   0.00    0.0
2091  11670.000   4121947.5993   2652188.9174   4069023.7471   6   5   0.1299   0.0987   0.1180   0.0590   0.0818   0.1183   0.00    0.0
2091  11700.000   4121947.5900   2652188.8545   4069023.7097   6   4   0.1278   0.0951   0.1153   0.0555   0.0780   0.1161   0.00    0.0
2091  11730.000   4121947.5891   2652188.8499   4069023.7076   6   4   0.1274   0.0944   0.1148   0.0549   0.0773   0.1156   0.00    0.0
2091  11760.000   4121947.5911   2652188.8462   4069023.7078   6   5   0.1272   0.0941   0.1146   0.0549   0.0772   0.1155   0.00    0.0
2091  11790.000   4121947.5944   2652188.8414   4069023.7082   6   5   0.1271   0.0939   0.1145   0.0550   0.0771   0.1154   0.00    0.0
2091  11820.000   4121947.5972   2652188.8364   4069023.7083   6   5   0.1270   0.0937   0.1145   0.0551   0.0771   0.1153   0.00    0.0
2091  11850.000   4121947.5999   2652188.8316   4069023.7082   6   5   0.1269   0.0935   0.1145   0.0552   0.0771   0.1153   0.00    0.0
2091  11880.000   4121947.6023   2652188.8255   4069023.7073   6   5   0.1268   0.0934   0.1144   0.0553   0.0770   0.1152   0.00    0.0
2091  11910.000   4121947.6047   2652188.8186   4069023.7060   6   5   0.1267   0.0931   0.1143   0.0553   0.0770   0.1151   0.00    0.0
2091  11940.000   4121947.6069   2652188.8089   4069023.7030   6   5   0.1264   0.0928   0.1141   0.0553   0.0767   0.1150   0.00    0.0
2091  11970.000   4121947.6081   2652188.7768   4069023.6881   6   5   0.1260   0.0918   0.1136   0.0547   0.0760   0.1145   0.00    0.0
2091  12000.000   4121947.6001   2652188.7151   4069023.6526   6   5   0.1243   0.0888   0.1116   0.0525   0.0732   0.1128   0.00    0.0
2091  12030.000   4121947.6055   2652188.7056   4069023.6515   6   5   0.1239   0.0882   0.1113   0.0522   0.0727   0.1125   0.00    0.0
2091  12060.000   4121947.6092   2652188.6988   4069023.6508   6   5   0.1237   0.0879   0.1112   0.0523   0.0726   0.1124   0.00    0.0
2091  12090.000   4121947.6117   2652188.6938   4069023.6501   6   5   0.1236   0.0878   0.1111   0.0523   0.0726   0.1123   0.00    0.0
2091  12120.000   4121947.6141   2652188.6913   4069023.6507   6   5   0.1236   0.0877   0.1111   0.0525   0.0726   0.1123   0.00    0.0
2091  12150.000   4121947.6160   2652188.6890   4069023.6510   6   5   0.1235   0.0876   0.1110   0.0526   0.0726   0.1122   0.00    0.0
2091  12180.000   4121947.6183   2652188.6859   4069023.6511   6   5   0.1234   0.0874   0.1110   0.0528   0.0726   0.1122   0.00    0.0
2091  12210.000   4121947.6208   2652188.6822   4069023.6511   6   5   0.1233   0.0873   0.1110   0.0529   0.0727   0.1122   0.00    0.0
2091  12240.000   4121947.6225   2652188.6801   4069023.6515   6   5   0.1232   0.0871   0.1109   0.0530   0.0726   0.1121   0.00    0.0
2091  12270.000   4121947.6266   2652188.6751   4069023.6520   6   5   0.1229   0.0866   0.1108   0.0532   0.0724   0.1119   0.00    0.0
2091  12300.000   4121947.6556   2652188.6416   4069023.6532   6   5   0.1219   0.0852   0.1103   0.0536   0.0719   0.1114   0.00    0.0
2091  12330.000   4121947.6625   2652188.6312   4069023.6527   6   5   0.1217   0.0848   0.1102   0.0538   0.0718   0.1113   0.00    0.0
2091  12360.000   4121947.6663   2652188.6261   4069023.6528   6   5   0.1216   0.0847   0.1101   0.0539   0.0718   0.1112   0.00    0.0
2091  12390.000   4121947.6679   2652188.6246   4069023.6533   6   4   0.1216   0.0846   0.1101   0.0540   0.0718   0.1112   0.00    0.0
2091  12420.000   4121947.6710   2652188.6216   4069023.6541   6   5   0.1215   0.0845   0.1101   0.0541   0.0718   0.1111   0.00    0.0
2091  12450.000   4121947.6734   2652188.6195   4069023.6549   6   5   0.1214   0.0844   0.1101   0.0542   0.0719   0.1111   0.00    0.0
2091  12480.000   4121947.6758   2652188.6174   4069023.6556   6   5   0.1214   0.0843   0.1101   0.0543   0.0719   0.1111   0.00    0.0
2091  12510.000   4121947.6787   2652188.6146   4069023.6562   6   5   0.1213   0.0842   0.1100   0.0545   0.0719   0.1110   0.00    0.0
2091  12540.000   4121947.6833   2652188.6089   4069023.6564   6   5   0.1211   0.0841   0.1100   0.0546   0.0719   0.1110   0.00    0.0
2091  12570.000   4121947.6899   2652188.6028   4069023.6575   6   5   0.1209   0.0838   0.1099   0.0548   0.0719   0.1109   0.00    0.0
2091  12600.000   4121947.7171   2652188.5772   4069023.6608   6   5   0.1201   0.0830   0.1096   0.0555   0.0717   0.1105   0.00    0.0
2091  12630.000   4121947.7231   2652188.5735   4069023.6628   6   5   0.1199   0.0828   0.1095   0.0557   0.0717   0.1104   0.00    0.0
2091  12660.000   4121947.7267   2652188.5698   4069023.6634   6   5   0.1198   0.0827   0.1095   0.0558   0.0717   0.1103   0.00    0.0
2091  12690.000   4121947.7292   2652188.5674   4069023.6638   6   5   0.1197   0.0826   0.1095   0.0559   0.0717   0.1103   0.00    0.0
2091  12720.000   4121947.7314   2652188.5651   4069023.6643   6   5   0.1196   0.0825   0.1095   0.0560   0.0717   0.1103   0.00    0.0
2091  12750.000   4121947.7335   2652188.5631   4069023.6649   6   5   0.1196   0.0825   0.1094   0.0561   0.0718   0.1102   0.00    0.0
2091  12780.000   4121947.7359   2652188.5609   4069023.6655   6   5   0.1195   0.0824   0.1094   0.0562   0.0718   0.1102   0.00    0.0
2091  12810.000   4121947.7389   2652188.5576   4069023.6659   6   5   0.1195   0.0823   0.1094   0.0563   0.0718   0.1102   0.00    0.0
2091  12840.000   4121947.7438   2652188.5506   4069023.6658   6   5   0.1194   0.0821   0.1094   0.0564   0.0718   0.1101   0.00    0.0
2091  12870.000   4121947.7537   2652188.5374   4069023.6659   6   5   0.1191   0.0818   0.1093   0.0567   0.0718   0.1101   0.00    0.0
2091  12900.000   4121947.7828   2652188.4994   4069023.6664   6   5   0.1184   0.0806   0.1091   0.0576   0.0716   0.1098   0.00    0.0
2091  12930.000   4121947.7868   2652188.4964   4069023.6677   6   5   0.1183   0.0804   0.1090   0.0578   0.0716   0.1097   0.00    0.0
2091  12960.000   4121947.7899   2652188.4930   4069023.6684   6   5   0.1182   0.0803   0.1090   0.0579   0.0716   0.1097   0.00    0.0
2091  12990.000   4121947.7927   2652188.4903   4069023.6691   6   5   0.1181   0.0802   0.1090   0.0580   0.0716   0.1097   0.00    0.0
2091  13020.000   4121947.7953   2652188.4876   4069023.6698   6   5   0.1181   0.0801   0.1090   0.0581   0.0716   0.1096   0.00    0.0
2091  13050.000   4121947.7978   2652188.4849   4069023.6704   6   5   0.1180   0.0800   0.1090   0.0582   0.0717   0.1096   0.00    0.0
2091  13080.000   4121947.8011   2652188.4812   4069023.6712   6   5   0.1180   0.0800   0.1090   0.0583   0.0717   0.1096   0.00    0.0
2091  13110.000   4121947.8053   2652188.4762   4069023.6721   6   5   0.1179   0.0799   0.1089   0.0584   0.0717   0.1096   0.00    0.0
2091  13140.000   4121947.8107   2652188.4694   4069023.6733   6   5   0.1178   0.0797   0.1089   0.0585   0.0717   0.1095   0.00    0.0
2091  13170.000   4121947.8169   2652188.4624   4069023.6747   6   4   0.1176   0.0793   0.1089   0.0589   0.0717   0.1095   0.00    0.0
2091  13200.000   4121947.8426   2652188.4226   4069023.6742   6   5   0.1171   0.0778   0.1087   0.0599   0.0716   0.1094   0.00    0.0
2091  13230.000   4121947.8521   2652188.4085   4069023.6745   6   5   0.1169   0.0774   0.1087   0.0602   0.0716   0.1093   0.00    0.0
2091  13260.000   4121947.8569   2652188.4013   4069023.6747   6   5   0.1168   0.0773   0.1087   0.0603   0.0716   0.1093   0.00    0.0
2091  13290.000   4121947.8595   2652188.3980   4069023.6750   6   5   0.1168   0.0772   0.1087   0.0604   0.0716   0.1093   0.00    0.0
2091  13320.000   4121947.8614   2652188.3959   4069023.6754   6   5   0.1168   0.0772   0.1086   0.0605   0.0716   0.1092   0.00    0.0
2091  13350.000   4121947.8619   2652188.3950   4069023.6752   6   4   0.1167   0.0771   0.1086   0.0605   0.0716   0.1092   0.00    0.0
2091  13380.000   4121947.8627   2652188.3937   4069023.6751   6   5   0.1167   0.0771   0.1086   0.0606   0.0716   0.1092   0.00    0.0
2091  13410.000   4121947.8635   2652188.3929   4069023.6751   6   5   0.1167   0.0770   0.1086   0.0606   0.0717   0.1092   0.00    0.0
2091  13440.000   4121947.8647   2652188.3920   4069023.6752   6   5   0.1166   0.0769   0.1086   0.0607   0.0717   0.1092   0.00    0.0
2091  13470.000   4121947.8688   2652188.3869   4069023.6751   6   5   0.1165   0.0766   0.1086   0.0609   0.0716   0.1092   0.00    0.0
2091  13500.000   4121947.8844   2652188.3594   4069023.6696   6   5   0.1162   0.0755   0.1085   0.0616   0.0713   0.1092   0.00    0.0
2091  13530.000   4121947.8887   2652188.3525   4069023.6688   6   5   0.1161   0.0753   0.1085   0.0617   0.0713   0.1092   0.00    0.0
2091  13560.000   4121947.8912   2652188.3487   4069023.6685   6   4   0.1161   0.0752   0.1084   0.0618   0.0713   0.1092   0.00    0.0
2091  13590.000   4121947.8930   2652188.3467   4069023.6688   6   5   0.1161   0.0751   0.1084   0.0618   0.0713   0.1091   0.00    0.0
2091  13620.000   4121947.8946   2652188.3448   4069023.6690   6   5   0.1160   0.0751   0.1084   0.0619   0.0713   0.1091   0.00    0.0
2091  13650.000   4121947.8959   2652188.3437   4069023.6693   6   4   0.1160   0.0750   0.1084   0.0619   0.0713   0.1091   0.00    0.0
2091  13680.000   4121947.8964   2652188.3422   4069023.6689   6   5   0.1160   0.0750   0.1084   0.0620   0.0713   0.1091   0.00    0.0
2091  13710.000   4121947.8966   2652188.3418   4069023.6689   6   5   0.1159   0.0749   0.1084   0.0620   0.0713   0.1091   0.00    0.0
2091  13740.000   4121947.8972   2652188.3410   4069023.6688   6   5   0.1159   0.0748   0.1084   0.0621   0.0713   0.1091   0.00    0.0
2091  13770.000   4121947.9002   2652188.3348   4069023.6674   6   5   0.1158   0.0745   0.1083   0.0623   0.0713   0.1091   0.00    0.0
2091  13800.000   4121947.9118   2652188.3049   4069023.6589   6   4   0.1157   0.0733   0.1083   0.0628   0.0709   0.1091   0.00    0.0
2091  13830.000   4121947.9151   2652188.2973   4069023.6570   6   4   0.1156   0.0731   0.1082   0.0629   0.0709   0.1091   0.00    0.0
2091  13860.000   4121947.9162   2652188.2964   4069023.6573   6   5   0.1156   0.0730   0.1082   0.0630   0.0708   0.1091   0.00    0.0
2091  13890.000   4121947.9174   2652188.2955   4069023.6576   6   5   0.1156   0.0730   0.1082   0.0630   0.0708   0.1091   0.00    0.0
2091  13920.000   4121947.9186   2652188.2945   4069023.6580   6   5   0.1156   0.0729   0.1082   0.0631   0.0709   0.1091   0.00    0.0
2091  13950.000   4121947.9198   2652188.2934   4069023.6583   6   4   0.1155   0.0729   0.1082   0.0631   0.0709   0.1091   0.00    0.0
2091  13980.000   4121947.9211   2652188.2918   4069023.6584   6   4   0.1155   0.0728   0.1082   0.0631   0.0709   0.1091   0.00    0.0
2091  14010.000   4121947.9226   2652188.2894   4069023.6583   6   5   0.1155   0.0728   0.1082   0.0632   0.0709   0.1090   0.00    0.0
2091  14040.000   4121947.9247   2652188.2852   4069023.6577   6   5   0.1154   0.0727   0.1081   0.0633   0.0709   0.1090   0.00    0.0
2091  14070.000   4121947.9310   2652188.2712   4069023.6555   6   5   0.1154   0.0723   0.1081   0.0634   0.0708   0.1090   0.00    0.0
2091  14100.000   4121947.9429   2652188.2399   4069023.6483   6   5   0.1152   0.0710   0.1079   0.0639   0.0704   0.1090   0.00    0.0
2091  14130.000   4121947.9454   2652188.2319   4069023.6457   6   5   0.1152   0.0708   0.1078   0.0640   0.0703   0.1090   0.00    0.0
2091  14160.000   4121947.9470   2652188.2282   4069023.6449   6   5   0.1151   0.0707   0.1078   0.0640   0.0703   0.1090   0.00    0.0
2091  14190.000   4121947.9483   2652188.2263   4069023.6449   6   5   0.1151   0.0706   0.1078   0.0640   0.0703   0.1089   0.00    0.0
2091  14220.000   4121947.9494   2652188.2247   4069023.6449   6   5   0.1151   0.0706   0.1078   0.0641   0.0703   0.1089   0.00    0.0
2091  14250.000   4121947.9503   2652188.2236   4069023.6449   6   4   0.1150   0.0705   0.1078   0.0641   0.0703   0.1089   0.00    0.0
2091  14280.000   4121947.9512   2652188.2222   4069023.6448   6   5   0.1150   0.0705   0.1077   0.0641   0.0703   0.1089   0.00    0.0
2091  14310.000   4121947.9524   2652188.2197   4069023.6444   6   4   0.1150   0.0704   0.1077   0.0642   0.0703   0.1089   0.00    0.0
2091  14340.000   4121947.9550   2652188.2144   4069023.6437   6   4   0.1149   0.0703   0.1077   0.0642   0.0703   0.1088   0.00    0.0
2091  14370.000   4121947.9588   2652188.2061   4069023.6427   6   4   0.1148   0.0699   0.1076   0.0644   0.0702   0.1087   0.00    0.0
2091  14400.000   4121947.9713   2652188.1754   4069023.6381   6   5   0.1145   0.0685   0.1071   0.0647   0.0698   0.1085   0.00    0.0
2091  14430.000   4121947.9753   2652188.1684   4069023.6381   6   4   0.1144   0.0683   0.1070   0.0648   0.0697   0.1084   0.00    0.0
2091  14460.000   4121947.9766   2652188.1658   4069023.6377   6   5   0.1143   0.0682   0.1070   0.0648   0.0697   0.1084   0.00    0.0
2091  14490.000   4121947.9773   2652188.1643   4069023.6373   6   4   0.1143   0.0681   0.1069   0.0649   0.0697   0.1083   0.00    0.0
2091  14520.000   4121947.9776   2652188.1638   4069023.6371   6   5   0.1142   0.0681   0.1069   0.0649   0.0697   0.1083   0.00    0.0
2091  14550.000   4121947.9780   2652188.1635   4069023.6370   6   5   0.1142   0.0680   0.1069   0.0649   0.0697   0.1083   0.00    0.0
2091  14580.000   4121947.9782   2652188.1628   4069023.6366   6   5   0.1142   0.0680   0.1069   0.0649   0.0697   0.1083   0.00    0.0
2091  14610.000   4121947.9794   2652188.1612   4069023.6365   6   4   0.1141   0.0679   0.1068   0.0650   0.0697   0.1082   0.00    0.0
2091  14640.000   4121947.9799   2652188.1603   4069023.6363   6   4   0.1141   0.0678   0.1068   0.0650   0.0697   0.1082   0.00    0.0
2091  14670.000   4121947.9864   2652188.1527   4069023.6388   6   4   0.1139   0.0674   0.1065   0.0651   0.0696   0.1080   0.00    0.0
2091  14700.000   4121948.0062   2652188.1241   4069023.6442   6   4   0.1131   0.0660   0.1057   0.0654   0.0691   0.1073   0.00    0.0
2091  14730.000   4121948.0090   2652188.1201   4069023.6449   6   5   0.1130   0.0657   0.1055   0.0654   0.0691   0.1071   0.00    0.0
2091  14760.000   4121948.0107   2652188.1186   4069023.6455   6   4   0.1129   0.0656   0.1054   0.0654   0.0690   0.1071   0.00    0.0
2091  14790.000   4121948.0121   2652188.1178   4069023.6464   6   4   0.1128   0.0656   0.1054   0.0655   0.0690   0.1070   0.00    0.0
2091  14820.000   4121948.0133   2652188.1171   4069023.6470   6   4   0.1128   0.0656   0.1054   0.0655   0.0690   0.1070   0.00    0.0
2091  14850.000   4121948.0141   2652188.1164   4069023.6472   6   5   0.1128   0.0655   0.1054   0.0655   0.0690   0.1070   0.00    0.0
2091  14880.000   4121948.0145   2652188.1159   4069023.6472   6   4   0.1127   0.0655   0.1053   0.0655   0.0690   0.1070   0.00    0.0
2091  14910.000   4121948.0158   2652188.1148   4069023.6477   6   4   0.1127   0.0654   0.1053   0.0655   0.0690   0.1069   0.00    0.0
2091  14940.000   4121948.0180   2652188.1133   4069023.6490   6   4   0.1126   0.0653   0.1052   0.0656   0.0690   0.1068   0.00    0.0
2091  14970.000   4121948.0256   2652188.1098   4069023.6548   6   4   0.1122   0.0650   0.1048   0.0656   0.0689   0.1065   0.00    0.0
2091  15000.000   4121948.0556   2652188.0878   4069023.6745   6   4   0.1111   0.0636   0.1035   0.0657   0.0684   0.1053   0.00    0.0
2091  15030.000   4121948.0632   2652188.0830   4069023.6796   6   4   0.1108   0.0633   0.1032   0.0657   0.0683   0.1050   0.00    0.0
2091  15060.000   4121948.0670   2652188.0807   4069023.6820   6   5   0.1107   0.0632   0.1031   0.0657   0.0683   0.1049   0.00    0.0
2091  15090.000   4121948.0700   2652188.0792   4069023.6839   6   4   0.1106   0.0632   0.1030   0.0657   0.0683   0.1049   0.00    0.0
2091  15120.000   4121948.0717   2652188.0781   4069023.6848   6   4   0.1106   0.0631   0.1030   0.0657   0.0683   0.1048   0.00    0.0
2091  15150.000   4121948.0731   2652188.0771   4069023.6854   6   4   0.1105   0.0631   0.1030   0.0657   0.0683   0.1048   0.00    0.0
2091  15180.000   4121948.0743   2652188.0762   4069023.6859   6   4   0.1105   0.0631   0.1029   0.0657   0.0683   0.1048   0.00    0.0
2091  15210.000   4121948.0755   2652188.0751   4069023.6862   6   4   0.1104   0.0630   0.1029   0.0657   0.0682   0.1047   0.00    0.0
2091  15240.000   4121948.0781   2652188.0733   4069023.6878   6   4   0.1103   0.0629   0.1027   0.0657   0.0682   0.1045   0.00    0.0
2091  15270.000   4121948.0857   2652188.0676   4069023.6926   6   4   0.1098   0.0626   0.1022   0.0657   0.0681   0.1041   0.00    0.0
2091  15300.000   4121948.1142   2652188.0536   4069023.7144   6   4   0.1082   0.0613   0.1004   0.0656   0.0675   0.1024   0.00    0.0
2091  15330.000   4121948.1276   2652188.0487   4069023.7253   6   4   0.1078   0.0611   0.1000   0.0655   0.0673   0.1020   0.00    0.0
2091  15360.000   4121948.1339   2652188.0460   4069023.7298   6   4   0.1077   0.0610   0.0999   0.0655   0.0673   0.1019   0.00    0.0
2091  15390.000   4121948.1387   2652188.0440   4069023.7333   6   4   0.1076   0.0610   0.0998   0.0655   0.0673   0.1018   0.00    0.0
2091  15420.000   4121948.1413   2652188.0429   4069023.7351   6   4   0.1076   0.0609   0.0998   0.0655   0.0673   0.1018   0.00    0.0
2091  15450.000   4121948.1429   2652188.0421   4069023.7360   6   4   0.1075   0.0609   0.0998   0.0655   0.0673   0.1017   0.00    0.0
2091  15480.000   4121948.1449   2652188.0414   4069023.7374   6   4   0.1075   0.0609   0.0997   0.0655   0.0673   0.1017   0.00    0.0
2091  15510.000   4121948.1479   2652188.0408   4069023.7398   6   4   0.1074   0.0608   0.0996   0.0655   0.0673   0.1016   0.00    0.0
2091  15540.000   4121948.1546   2652188.0396   4069023.7456   6   4   0.1072   0.0608   0.0994   0.0655   0.0672   0.1014   0.00    0.0
2091  15570.000   4121948.1682   2652188.0372   4069023.7576   6   4   0.1066   0.0605   0.0988   0.0654   0.0670   0.1008   0.00    0.0
2091  15600.000   4121948.1990   2652188.0250   4069023.7824   6   4   0.1046   0.0593   0.0966   0.0650   0.0662   0.0988   0.00    0.0
2091  15630.000   4121948.2006   2652188.0236   4069023.7832   6   4   0.1042   0.0591   0.0962   0.0649   0.0661   0.0983   0.00    0.0
2091  15660.000   4121948.2045   2652188.0226   4069023.7864   6   4   0.1040   0.0590   0.0960   0.0649   0.0661   0.0981   0.00    0.0
2091  15690.000   4121948.2073   2652188.0220   4069023.7885   6   4   0.1040   0.0590   0.0959   0.0648   0.0660   0.0981   0.00    0.0
2091  15720.000   4121948.2080   2652188.0216   4069023.7889   6   4   0.1039   0.0590   0.0959   0.0648   0.0660   0.0980   0.00    0.0
2091  15750.000   4121948.2085   2652188.0213   4069023.7890   6   4   0.1039   0.0590   0.0958   0.0648   0.0660   0.0980   0.00    0.0
2091  15780.000   4121948.2097   2652188.0209   4069023.7898   6   4   0.1038   0.0589   0.0958   0.0648   0.0660   0.0979   0.00    0.0
2091  15810.000   4121948.2103   2652188.0210   4069023.7903   6   4   0.1037   0.0589   0.0957   0.0648   0.0660   0.0978   0.00    0.0
2091  15840.000   4121948.2115   2652188.0212   4069023.7916   6   4   0.1035   0.0588   0.0954   0.0648   0.0659   0.0976   0.00    0.0
2091  15870.000   4121948.2155   2652188.0203   4069023.7954   6   4   0.1028   0.0586   0.0947   0.0646   0.0657   0.0969   0.00    0.0
2091  15900.000   4121948.2494   2652188.0123   4069023.8252   6   4   0.1006   0.0575   0.0923   0.0639   0.0648   0.0946   0.00    0.0
2091  15930.000   4121948.2571   2652188.0121   4069023.8323   6   4   0.1001   0.0574   0.0917   0.0638   0.0646   0.0940   0.00    0.0
2091  15960.000   4121948.2578   2652188.0123   4069023.8329   6   4   0.0999   0.0573   0.0916   0.0637   0.0645   0.0939   0.00    0.0
2091  15990.000   4121948.2586   2652188.0122   4069023.8334   6   4   0.0998   0.0573   0.0915   0.0637   0.0645   0.0938   0.00    0.0
2091  16020.000   4121948.2590   2652188.0121   4069023.8336   6   4   0.0998   0.0572   0.0914   0.0637   0.0645   0.0937   0.00    0.0
2091  16050.000   4121948.2598   2652188.0121   4069023.8341   6   4   0.0997   0.0572   0.0914   0.0637   0.0645   0.0937   0.00    0.0
2091  16080.000   4121948.2601   2652188.0120   4069023.8341   6   4   0.0997   0.0572   0.0913   0.0637   0.0644   0.0936   0.00    0.0
2091  16110.000   4121948.2610   2652188.0119   4069023.8347   6   4   0.0996   0.0572   0.0912   0.0636   0.0644   0.0935   0.00    0.0
2091  16140.000   4121948.2614   2652188.0119   4069023.8350   6   4   0.0993   0.0571   0.0910   0.0636   0.0643   0.0933   0.00    0.0
2091  16170.000   4121948.2611   2652188.0117   4069023.8346   6   4   0.0986   0.0569   0.0902   0.0634   0.0640   0.0925   0.00    0.0
2091  16200.000   4121948.2568   2652188.0098   4069023.8306   6   5   0.0980   0.0560   0.0894   0.0627   0.0632   0.0918   0.00    0.0
2091  16230.000   4121948.2567   2652188.0090   4069023.8300   6   5   0.0978   0.0558   0.0893   0.0626   0.0631   0.0917   0.00    0.0
2091  16260.000   4121948.2567   2652188.0085   4069023.8295   6   5   0.0978   0.0558   0.0892   0.0625   0.0630   0.0916   0.00    0.0
2091  16290.000   4121948.2565   2652188.0082   4069023.8290   6   5   0.0978   0.0557   0.0892   0.0625   0.0630   0.0916   0.00    0.0
2091  16320.000   4121948.2568   2652188.0079   4069023.8288   6   5   0.0978   0.0557   0.0892   0.0625   0.0630   0.0916   0.00    0.0
2091  16350.000   4121948.2570   2652188.0078   4069023.8287   6   5   0.0977   0.0557   0.0891   0.0625   0.0630   0.0916   0.00    0.0
2091  16380.000   4121948.2572   2652188.0076   4069023.8286   6   5   0.0977   0.0557   0.0891   0.0625   0.0630   0.0916   0.00    0.0
2091  16410.000   4121948.2579   2652188.0072   4069023.8288   6   5   0.0977   0.0557   0.0891   0.0625   0.0629   0.0915   0.00    0.0
2091  16440.000   4121948.2601   2652188.0068   4069023.8303   6   5   0.0976   0.0556   0.0890   0.0624   0.0629   0.0915   0.00    0.0
2091  16470.000   4121948.2636   2652188.0047   4069023.8316   6   5   0.0975   0.0554   0.0889   0.0623   0.0627   0.0913   0.00    0.0
2091  16500.000   4121948.2591   2652187.9990   4069023.8260   6   5   0.0968   0.0547   0.0882   0.0618   0.0620   0.0907   0.00    0.0
2091  16530.000   4121948.2602   2652187.9976   4069023.8262   6   5   0.0967   0.0546   0.0880   0.0617   0.0619   0.0905   0.00    0.0
2091  16560.000   4121948.2604   2652187.9972   4069023.8260   6   5   0.0966   0.0545   0.0880   0.0616   0.0619   0.0905   0.00    0.0
2091  16590.000   4121948.2606   2652187.9970   4069023.8258   6   5   0.0966   0.0545   0.0880   0.0616   0.0619   0.0905   0.00    0.0
2091  16620.000   4121948.2610   2652187.9967   4069023.8259   6   5   0.0966   0.0545   0.0880   0.0616   0.0619   0.0905   0.00    0.0
2091  16650.000   4121948.2615   2652187.9965   4069023.8260   6   5   0.0966   0.0545   0.0880   0.0616   0.0619   0.0904   0.00    0.0
2091  16680.000   4121948.2621   2652187.9963   4069023.8264   6   5   0.0966   0.0544   0.0879   0.0616   0.0619   0.0904   0.00    0.0
