% program   : RTKLIB ver.2.4.2
% inp file  : /home/fkarlitepe/Documents/Projects/Estimation-Orbit/precise orbit/ankr0330.20o
% inp file  : /home/fkarlitepe/Documents/Projects/Estimation-Orbit/precise orbit/precise/EKF Sonuçları/GFZ0/deneme2.sp3
% inp file  : /home/fkarlitepe/Documents/Projects/Estimation-Orbit/precise orbit/igs20910.clk
% inp file  : /home/fkarlitepe/Documents/Projects/Estimation-Orbit/precise orbit/ankr0330.20n
% obs start : 2020/02/02 00:00:00.0 GPST (week2091      0.0s)
% obs end   : 2020/02/02 23:59:30.0 GPST (week2091  86370.0s)
%
% (x/y/z-ecef=WGS84,Q=1:fix,2:float,3:sbas,4:dgps,5:single,6:ppp,ns=# of satellites)
%  GPST              x-ecef(m)      y-ecef(m)      z-ecef(m)   Q  ns   sdx(m)   sdy(m)   sdz(m)  sdxy(m)  sdyz(m)  sdzx(m) age(s)  ratio
2091     90.000   4121644.9989   2651746.9328   4069787.9490   6   4   3.9451   3.2477  10.1062   3.0082   4.1924   5.4837   0.00    0.0
2091    120.000   4121667.1011   2651755.3678   4069926.5624   6   2   3.5262   2.8298   7.7888   2.4990   3.0831   4.6314   0.00    0.0
2091    150.000   4121573.6306   2651633.7820   4069856.4680   5   4   2.9932   2.4711   7.3761   2.2785   3.1175   4.0991   0.00    0.0
2091    210.000   4121626.2228   2651701.9106   4069672.3360   5   4   2.9586   2.4761   7.1187   2.2717   3.0721   4.0044   0.00    0.0
2091    240.000   4121700.4364   2651809.9167   4069500.0057   5   4   2.9452   2.4819   7.0061   2.2716   3.0553   3.9642   0.00    0.0
2091    300.000   4121947.7701   2652188.4997   4069025.3779   5   4   2.9259   2.5001   6.8108   2.2778   3.0329   3.8975   0.00    0.0
2091    330.000   4121830.0026   2651993.6276   4069388.7953   5   4   2.9203   2.5125   6.7284   2.2843   3.0271   3.8711   0.00    0.0
2091    360.000   4121735.5389   2651833.8471   4069648.7631   5   4   2.9170   2.5272   6.6547   2.2930   3.0247   3.8487   0.00    0.0
2091    390.000   4121666.4185   2651713.0001   4069819.3446   5   4   2.9160   2.5442   6.5893   2.3037   3.0257   3.8301   0.00    0.0
2091    420.000   4121667.0706   2651755.3554   4069926.4846   6   1   3.5191   2.8283   7.7680   2.4950   3.0747   4.6177   0.00    0.0
2091    450.000   4121667.0534   2651755.3484   4069926.4406   6   1   3.5121   2.8269   7.7473   2.4910   3.0664   4.6040   0.00    0.0
2091    480.000   4121615.8920   2651610.8424   4069857.5583   5   4   2.9077   2.5889   6.3871   2.3304   3.0230   3.7702   0.00    0.0
2091    540.000   4121721.5179   2651788.1513   4069550.7642   5   4   2.8887   2.6028   6.2225   2.3349   3.0043   3.7143   0.00    0.0
2091    600.000   4121945.2055   2652188.2253   4069031.0452   5   4   2.8783   2.6257   6.0884   2.3473   2.9982   3.6726   0.00    0.0
2091    660.000   4121755.7288   2651813.1698   4069669.1575   5   4   2.8772   2.6578   5.9844   2.3681   3.0040   3.6449   0.00    0.0
2091    720.000   4121652.7527   2651603.0243   4069943.3450   5   4   2.8840   2.6994   5.9059   2.3968   3.0212   3.6295   0.00    0.0
2091    840.000   4121741.1428   2651768.0155   4069582.2163   5   4   2.8692   2.7474   5.6871   2.4252   3.0197   3.5650   0.00    0.0
2091    870.000   4121829.0585   2651947.2496   4069332.6943   5   4   2.8662   2.7599   5.6368   2.4327   3.0205   3.5507   0.00    0.0
2091    930.000   4121667.0212   2651755.3307   4069926.3704   6   1   3.5053   2.8243   7.7327   2.4857   3.0571   4.5928   0.00    0.0
2091    960.000   4121666.9968   2651755.3172   4069926.3171   6   1   3.4987   2.8218   7.7183   2.4805   3.0479   4.5817   0.00    0.0
2091   1140.000   4121759.5188   2651750.6357   4069605.7497   5   4   2.8763   2.9148   5.3136   2.5367   3.0790   3.4808   0.00    0.0
2091   1170.000   4121839.2929   2651937.5512   4069346.4129   5   4   2.8757   2.9295   5.2771   2.5462   3.0837   3.4720   0.00    0.0
2091   1230.000   4121667.0416   2651755.3423   4069926.4135   6   1   3.4924   2.8194   7.7051   2.4756   3.0392   4.5713   0.00    0.0
2091   1260.000   4121667.0661   2651755.3560   4069926.4661   6   1   3.4861   2.8169   7.6921   2.4706   3.0306   4.5611   0.00    0.0
2091   1410.000   4121667.0347   2651755.3426   4069926.3882   6   1   3.4791   2.8154   7.6723   2.4664   3.0219   4.5476   0.00    0.0
2091   1470.000   4121667.0379   2651755.3444   4069926.3949   6   1   3.4731   2.8130   7.6602   2.4616   3.0137   4.5380   0.00    0.0
2091   1560.000   4121802.4358   2651765.3733   4069690.9398   5   4   2.9207   3.1890   4.9702   2.7238   3.2146   3.4358   0.00    0.0
2091   1680.000   4121721.0361   2651513.2199   4069966.9020   5   4   2.9489   3.2908   4.9194   2.7942   3.2744   3.4454   0.00    0.0
2091   1710.000   4121681.4817   2651744.4196   4070007.2115   6   2   3.3448   2.7254   5.6958   2.5819   3.5420   3.9804   0.00    0.0
2091   1740.000   4121793.0941   2651724.5765   4069636.8705   5   4   2.9505   3.3215   4.8692   2.8148   3.2876   3.4359   0.00    0.0
2091   1770.000   4121681.5746   2651744.3539   4070007.7192   6   1   3.3394   2.7218   5.6735   2.5783   3.5399   3.9702   0.00    0.0
2091   3270.000   4121893.4620   2651918.4656   4069374.0101   5   4   3.4391   4.8758   4.6223   3.8619   4.1768   3.7333   0.00    0.0
2091   3360.000   4121681.5231   2651744.3184   4070007.6309   6   1   3.3346   2.7190   5.6652   2.5741   3.5346   3.9633   0.00    0.0
2091   4260.000   4122724.0085   2652794.7365   4070491.8071   5   4   4.1023   3.5900   4.7274   3.5411   3.4964   4.1598   0.00    0.0
2091   4290.000   4122944.9706   2652960.8091   4070922.3911   5   4   4.0575   3.5705   4.6646   3.5038   3.4397   4.1016   0.00    0.0
2091   4320.000   4123062.9082   2653044.6897   4071162.8003   5   4   4.0174   3.5558   4.6074   3.4708   3.3872   4.0484   0.00    0.0
2091   4350.000   4123084.5529   2653053.4080   4071220.8231   5   4   3.9816   3.5456   4.5554   3.4421   3.3388   3.9999   0.00    0.0
2091   4380.000   4123015.7859   2652993.4130   4071104.2153   5   4   3.9237   3.5136   4.4766   3.3939   3.2708   3.9281   0.00    0.0
2091   4410.000   4122862.0503   2652870.7256   4070819.8798   5   4   3.8704   3.4859   4.4034   3.3499   3.2070   3.8612   0.00    0.0
2091   4440.000   4122628.3793   2652691.0153   4070374.1952   5   4   3.8217   3.4628   4.3358   3.3103   3.1474   3.7993   0.00    0.0
2091   4470.000   4122320.1738   2652460.4231   4069773.6787   5   4   3.7775   3.4440   4.2734   3.2749   3.0919   3.7420   0.00    0.0
2091   4500.000   4121940.6123   2652183.3156   4069023.4952   5   4   3.7376   3.4297   4.2161   3.2434   3.0402   3.6893   0.00    0.0
2091   4530.000   4122355.0009   2652529.3703   4069794.0743   5   4   3.7033   3.4204   4.1651   3.2172   2.9934   3.6423   0.00    0.0
2091   4560.000   4122660.9275   2652781.5583   4070376.6754   5   4   3.6729   3.4153   4.1187   3.1948   2.9501   3.5993   0.00    0.0
2091   4590.000   4122868.1636   2652948.8709   4070778.5458   5   4   3.6462   3.4142   4.0766   3.1758   2.9101   3.5601   0.00    0.0
2091   4620.000   4122982.0274   2653036.9715   4071006.1932   5   4   3.6230   3.4171   4.0385   3.1604   2.8731   3.5246   0.00    0.0
2091   4650.000   4123006.1951   2653050.7449   4071065.1809   5   4   3.6032   3.4239   4.0044   3.1482   2.8390   3.4925   0.00    0.0
2091   4710.000   4122804.6413   2652876.3156   4070700.0761   5   4   3.5273   3.3978   3.8933   3.0915   2.7397   3.3912   0.00    0.0
2091   4740.000   4122588.0582   2652698.3821   4070287.0483   5   4   3.4950   3.3908   3.8443   3.0685   2.6950   3.3462   0.00    0.0
2091   4770.000   4122299.7372   2652466.4476   4069727.1234   5   4   3.4661   3.3876   3.7993   3.0489   2.6534   3.3049   0.00    0.0
2091   4800.000   4121941.6618   2652184.1053   4069024.1336   5   4   3.4406   3.3883   3.7582   3.0325   2.6146   3.2669   0.00    0.0
2091   5100.000   4121940.4619   2652181.1228   4069024.5723   5   5   3.1803   2.6094   3.3576   2.6548   2.6069   3.0411   0.00    0.0
2091   5400.000   4121681.4949   2651744.2994   4070007.5852   6   1   3.3309   2.7169   5.6594   2.5708   3.5307   3.9582   0.00    0.0
2091   5520.000   4120741.1249   2651433.1717   4069763.9847   5   4   7.5862   4.6132   5.1889   5.7338   4.6715   6.0975   0.00    0.0
2091   5700.000   4121681.5407   2651744.3300   4070007.6584   6   1   3.3273   2.7150   5.6541   2.5677   3.5271   3.9534   0.00    0.0
2091   5970.000   4121392.4360   2651777.2727   4069246.5832   5   4   8.5080   5.7500   5.3131   6.8432   5.3164   6.5696   0.00    0.0
2091   6000.000   4121940.5502   2652179.9613   4069025.2686   5   5   3.0829   3.0453   2.6733   2.8483   2.4184   2.6029   0.00    0.0
2091   6300.000   4121941.6991   2652180.2368   4069025.8673   5   5   3.1663   3.3450   2.5461   3.0483   2.4569   2.5581   0.00    0.0
2091   6360.000   4120668.4639   2651207.3338   4069283.4743   5   4   9.7699   7.3596   5.6321   8.3535   6.2379   7.2806   0.00    0.0
2091   6390.000   4120257.9498   2650870.4591   4069361.4251   5   4   9.9075   7.5307   5.6745   8.5134   6.3374   7.3618   0.00    0.0
2091   6480.000   4119949.5016   2650552.2508   4069379.8856   5   4  10.3182   8.0601   5.7970   9.0006   6.6384   7.6012   0.00    0.0
2091   6510.000   4120177.0354   2650715.1347   4069326.6203   5   4  10.4321   8.2235   5.8252   9.1455   6.7256   7.6642   0.00    0.0
2091   6600.000   4121925.4380   2652167.1081   4069017.6009   5   4  10.8390   8.7865   5.9387   9.6484   7.0318   7.8959   0.00    0.0
2091   6630.000   4121097.3476   2651483.6927   4069113.1479   5   4  11.0062   9.0071   5.9906   9.8480   7.1549   7.9939   0.00    0.0
2091   6660.000   4120426.7632   2650908.0308   4069180.5586   5   4  11.1863   9.2428   6.0477  10.0614   7.2868   8.1002   0.00    0.0
2091   6690.000   4119923.7199   2650458.4740   4069217.4920   5   4  11.3797   9.4943   6.1104  10.2893   7.4278   8.2149   0.00    0.0
2091   6720.000   4119603.6263   2650153.8284   4069233.6392   5   4   6.4733   5.5261   3.3654   5.9175   4.2062   4.5991   0.00    0.0
2091   6750.000   4119469.2252   2650004.5017   4069227.8694   5   4   6.6314   5.7182   3.4229   6.0949   4.3176   4.6961   0.00    0.0
2091   6780.000   4119527.4289   2650023.9404   4069203.1664   5   4   6.6777   5.8132   3.4263   6.1693   4.3581   4.7164   0.00    0.0
2091   6810.000   4122809.5110   2652629.6572   4071168.1296   5   4   3.4951   4.1427   3.2134   3.6001   2.6005   2.7471   0.00    0.0
2091   6840.000   4120276.2822   2650648.5913   4069122.3806   5   4  12.3446  10.8175   6.4088  11.4606   8.1443   8.7774   0.00    0.0
2091   6870.000   4120978.4198   2651282.5277   4069067.5014   5   4  12.5535  11.1111   6.4730  11.7171   8.3003   8.8986   0.00    0.0
2091   6900.000   4121941.3729   2652179.0013   4069026.1178   5   5   3.5429   4.3153   2.3976   3.7303   2.6999   2.6050   0.00    0.0
2091   6930.000   4120915.1045   2651244.2213   4069039.1237   5   4  13.0328  11.7712   6.6263  12.2966   8.6542   9.1798   0.00    0.0
2091   6960.000   4122646.1744   2652614.5827   4070657.8974   5   4   3.6137   4.4664   3.1033   3.8206   2.6325   2.7209   0.00    0.0
2091   6990.000   4119456.7079   2649842.9713   4069029.9467   5   4   7.5019   7.0033   3.6734   7.1959   4.9736   5.1884   0.00    0.0
2091   7020.000   4119047.9123   2649418.3315   4069012.0112   5   4   7.7057   7.2690   3.7450   7.4325   5.1192   5.3112   0.00    0.0
2091   7050.000   4118863.5085   2649200.0943   4068988.0245   5   4   7.9330   7.5628   3.8260   7.6947   5.2811   5.4489   0.00    0.0
2091   7080.000   4118924.8886   2649217.7013   4068967.8510   5   4   8.0319   7.7341   3.8490   7.8323   5.3598   5.5011   0.00    0.0
2091   7110.000   4119241.3069   2649491.1392   4068953.1190   5   4   8.1534   7.9310   3.8814   7.9938   5.4537   5.5677   0.00    0.0
2091   7140.000   4119833.9937   2650051.9558   4068952.4705   5   4   8.2976   8.1546   3.9231   8.1796   5.5630   5.6488   0.00    0.0
2091   7170.000   4120718.7353   2650928.4862   4068970.0729   5   4  15.5103  15.2274   7.4334  15.2943  10.4755  10.6359   0.00    0.0
2091   7200.000   4121941.8118   2652177.7427   4069028.8660   5   4   3.8783   5.1304   2.9626   4.2782   2.7344   2.7188   0.00    0.0
2091   7230.000   4120637.2100   2650858.6436   4068934.6505   5   4  16.3203  16.3697   7.7007  16.2750  11.0680  11.1121   0.00    0.0
2091   7320.000   4118159.8694   2648185.6885   4068678.3678   5   4   9.7915  10.2558   4.4224   9.9813   6.6477   6.5286   0.00    0.0
2091   7350.000   4117885.1478   2647837.1584   4068623.2777   5   4  10.1652  10.7647   4.5530  10.4218   6.9146   6.7519   0.00    0.0
2091   7470.000   4122575.0798   2652686.7670   4070006.7250   5   4   4.4203   3.1776   3.6757   3.4584   2.6378   3.6235   0.00    0.0
2091   7500.000   4121953.6367   2652189.4996   4069034.7843   5   4   4.3867   3.1776   3.6496   3.4434   2.6246   3.5943   0.00    0.0
2091   7530.000   4122488.4728   2652648.7203   4069946.0680   5   4   4.3574   3.1804   3.6270   3.4317   2.6141   3.5686   0.00    0.0
2091   7560.000   4122920.9691   2653022.7581   4070659.9921   5   4   4.3313   3.1849   3.6074   3.4220   2.6055   3.5459   0.00    0.0
2091   7590.000   4123240.5730   2653303.9336   4071168.2805   5   4   4.3083   3.1913   3.5908   3.4145   2.5989   3.5261   0.00    0.0
2091   7620.000   4123442.2222   2653486.3645   4071471.1070   5   4   4.2884   3.1995   3.5770   3.4091   2.5942   3.5091   0.00    0.0
2091   7680.000   4123474.4365   2653532.0802   4071463.9168   5   4   4.2248   3.1999   3.5298   3.3799   2.5698   3.4548   0.00    0.0
2091   7800.000   4121954.0970   2652190.7991   4069034.3918   5   4   4.0715   3.1800   3.4165   3.2985   2.5038   3.3254   0.00    0.0
2091   7830.000   4122455.7559   2652675.7449   4069881.9382   5   4   4.0424   3.1809   3.3962   3.2850   2.4932   3.3011   0.00    0.0
2091   7860.000   4122858.4254   2653068.2675   4070543.9006   5   4   4.0166   3.1838   3.3787   3.2737   2.4847   3.2798   0.00    0.0
2091   7890.000   4123153.5956   2653361.3169   4071013.5245   5   4   3.9940   3.1887   3.3640   3.2648   2.4783   3.2613   0.00    0.0
2091   7920.000   4123337.4809   2653549.2544   4071292.1467   5   4   3.9745   3.1956   3.3520   3.2581   2.4739   3.2457   0.00    0.0
2091   7950.000   4123407.1939   2653627.0519   4071380.9200   5   4   3.9582   3.2047   3.3426   3.2538   2.4716   3.2328   0.00    0.0
2091   7980.000   4123359.8837   2653589.7469   4071281.2465   5   4   3.9137   3.1935   3.3105   3.2271   2.4508   3.1960   0.00    0.0
2091   8100.000   4121952.6482   2652189.3469   4069033.9657   5   5   3.5647   2.6915   3.2070   2.7994   2.4388   3.1065   0.00    0.0
2091   8130.000   4121681.5466   2651744.3342   4070007.6694   6   1   3.3228   2.7123   5.6450   2.5636   3.5216   3.9464   0.00    0.0
2091   8400.000   4121951.2706   2652188.7261   4069032.4154   5   5   3.3804   2.7954   3.0146   2.7699   2.3963   2.9120   0.00    0.0
2091   8430.000   4122360.9086   2652692.7457   4069751.5887   5   5   3.3640   2.8072   2.9978   2.7681   2.3933   2.8946   0.00    0.0
2091   8700.000   4121951.5063   2652189.1351   4069031.9735   5   5   3.1993   2.8956   2.8408   2.7298   2.3509   2.7276   0.00    0.0
2091   8730.000   4121681.5296   2651744.3231   4070007.6398   6   1   3.3190   2.7103   5.6382   2.5604   3.5175   3.9408   0.00    0.0
2091   8760.000   4122600.0184   2653097.0060   4070203.2395   5   5   3.1699   2.9212   2.8128   2.7266   2.3465   2.6971   0.00    0.0
2091   8790.000   4122806.5296   2653392.3907   4070565.6428   5   5   3.1590   2.9374   2.8017   2.7283   2.3470   2.6850   0.00    0.0
2091   8820.000   4122932.5445   2653577.6678   4070780.0978   5   5   3.1507   2.9559   2.7925   2.7321   2.3492   2.6750   0.00    0.0
2091   8850.000   4122977.1347   2653649.2834   4070847.6421   5   5   3.1447   2.9768   2.7851   2.7380   2.3531   2.6669   0.00    0.0
2091   8940.000   4122692.5527   2653219.5890   4070234.0536   5   4  17.7272  15.6424  11.9019  16.5950  13.5391  14.4581   0.00    0.0
2091   9000.000   4121950.4972   2652188.9306   4069030.2691   5   5   3.0255   2.9944   2.6862   2.6823   2.3061   2.5558   0.00    0.0
2091   9270.000   4122273.8566   2652727.3187   4069619.3134   5   5   2.8795   3.0860   2.5638   2.6375   2.2694   2.4144   0.00    0.0
2091   9300.000   4121949.9715   2652189.6705   4069030.7476   5   5   2.8620   3.0942   2.5499   2.6305   2.2641   2.3980   0.00    0.0
2091   9600.000   4121950.0775   2652189.4511   4069029.7213   5   5   2.7106   3.1979   2.4306   2.5764   2.2268   2.2543   0.00    0.0
2091   9630.000   4122117.6497   2652600.6268   4069409.9313   5   4   5.1234   5.4625   9.0660   5.0861   6.6001   6.5636   0.00    0.0
2091   9690.000   4122349.3465   2653167.8643   4069922.3221   5   4   5.1229   5.5888   9.0188   5.1468   6.6718   6.5496   0.00    0.0
2091   9840.000   4122271.4239   2652976.8914   4069724.5139   5   4   5.0471   5.8299   8.7734   5.2199   6.7478   6.4174   0.00    0.0
2091   9900.000   4121951.4772   2652191.7779   4069033.6338   5   4   5.0034   5.9126   8.6551   5.2337   6.7580   6.3474   0.00    0.0
2091   9930.000   4122057.7601   2652547.0379   4069331.1498   5   4   4.9885   5.9631   8.6081   5.2482   6.7725   6.3212   0.00    0.0
2091   9960.000   4122145.0448   2652831.4252   4069568.5746   5   4   4.9763   6.0174   8.5666   5.2656   6.7906   6.2986   0.00    0.0
2091   9990.000   4122210.5315   2653041.1715   4069741.0692   5   4   4.9668   6.0755   8.5308   5.2859   6.8125   6.2796   0.00    0.0
2091  10020.000   4121681.5630   2651744.3462   4070007.6996   6   1   3.3144   2.7075   5.6295   2.5562   3.5121   3.9339   0.00    0.0
2091  10200.000   4121681.5715   2651744.3522   4070007.7137   6   1   3.3100   2.7048   5.6223   2.5521   3.5071   3.9277   0.00    0.0
2091  10440.000   4122076.4853   2652769.2460   4069478.4958   5   4   4.5707   6.6318   7.5968   5.2785   6.7433   5.6739   0.00    0.0
2091  10470.000   4122023.1533   2652520.9982   4069284.7987   5   4   4.5342   6.6532   7.5207   5.2633   6.7206   5.6211   0.00    0.0
2091  10500.000   4121949.5458   2652190.6249   4069030.6590   5   4   4.5008   6.6790   7.4508   5.2515   6.7023   5.5726   0.00    0.0
2091  10530.000   4121962.7222   2652423.1631   4069212.6426   5   4   4.4737   6.7145   7.3910   5.2474   6.6934   5.5319   0.00    0.0
2091  10560.000   4121977.1159   2652610.4495   4069360.1376   5   4   4.4496   6.7547   7.3372   5.2468   6.6892   5.4953   0.00    0.0
2091  10620.000   4122003.6250   2652841.7237   4069540.8294   5   4   4.4103   6.8498   7.2471   5.2561   6.6946   5.4341   0.00    0.0
2091  10710.000   4122870.9537   2652812.0918   4070017.1187   5   4  11.0307   6.5947   2.9548  -7.3048  -2.5928   5.0714   0.00    0.0
2091  10740.000   4122001.1081   2652654.3176   4069388.8893   5   4   4.2610   6.9207   6.9476   5.1800   6.5861   5.2211   0.00    0.0
2091  10800.000   4121948.2214   2652189.4772   4069028.8632   5   4   4.1877   6.9553   6.8034   5.1407   6.5315   5.1172   0.00    0.0
2091  10890.000   4121911.5065   2652596.5254   4069377.3738   5   4   4.1104   7.0623   6.6433   5.1227   6.5008   5.0030   0.00    0.0
2091  10950.000   4121918.8167   2652696.4345   4069461.5952   5   4   4.0736   7.1609   6.5646   5.1292   6.5049   4.9465   0.00    0.0
2091  11010.000   4121934.5797   2652634.6418   4069406.0226   5   4   3.9825   7.1557   6.3921   5.0597   6.4128   4.8200   0.00    0.0
2091  11040.000   4121942.0427   2652536.5041   4069321.2705   5   4   3.9417   7.1606   6.3149   5.0305   6.3742   4.7631   0.00    0.0
2091  11070.000   4121947.3494   2652389.6669   4069196.2353   5   4   3.9041   7.1711   6.2437   5.0051   6.3407   4.7104   0.00    0.0
2091  11130.000   4121900.9427   2652289.3156   4069141.0544   5   4   3.8412   7.2145   6.1224   4.9705   6.2939   4.6208   0.00    0.0
2091  11400.000   4121950.7361   2652187.0851   4069028.4352   5   4   5.4535   7.1414   6.2110   5.9897   6.5057   5.4431   0.00    0.0
2091  11430.000   4122009.9189   2652201.8375   4069177.4766   5   4   5.4777   7.1422   6.1803   6.0071   6.4887   5.4464   0.00    0.0
2091  11490.000   4122098.0387   2652231.1021   4069388.8045   5   4   5.5356   7.1584   6.1318   6.0530   6.4680   5.4624   0.00    0.0
2091  11550.000   4121681.6143   2651744.3841   4070007.7908   6   1   3.3041   2.7008   5.6111   2.5465   3.4997   3.9188   0.00    0.0
2091  11700.000   4121949.5573   2652187.6928   4069028.1630   5   5   2.7425   2.3147   2.7789   2.0472   2.2125   1.9753   0.00    0.0
2091  12000.000   4121949.3627   2652187.3316   4069027.8419   5   5   2.7736   2.3586   2.7531   2.1218   2.2321   2.0793   0.00    0.0
2091  12300.000   4121949.4749   2652187.0135   4069027.5285   5   5   2.8048   2.3999   2.7181   2.1861   2.2418   2.1581   0.00    0.0
2091  12390.000   4119860.7726   2652730.5552   4068599.5477   5   4  19.5386   2.7546   8.9829  -4.5275  -2.4847  13.0504   0.00    0.0
2091  12600.000   4121949.1723   2652186.5839   4069027.2823   5   5   2.8314   2.4393   2.6754   2.2394   2.2430   2.2139   0.00    0.0
2091  12900.000   4121949.0397   2652186.1521   4069026.9392   5   5   2.8503   2.4782   2.6267   2.2819   2.2370   2.2494   0.00    0.0
2091  13200.000   4121948.8419   2652185.7698   4069026.7694   5   5   2.8600   2.5184   2.5736   2.3145   2.2258   2.2675   0.00    0.0
2091  13500.000   4121681.6075   2651744.3776   4070007.7774   6   1   3.3019   2.6983   5.6059   2.5437   3.4957   3.9150   0.00    0.0
2091  13800.000   4121947.6886   2652184.7308   4069025.9142   5   5   2.8518   2.6110   2.4608   2.3574   2.1948   2.2638   0.00    0.0
2091  14100.000   4121947.2765   2652184.0433   4069025.5715   5   5   2.8358   2.6680   2.4035   2.3713   2.1780   2.2472   0.00    0.0
2091  14400.000   4121681.6192   2651744.3864   4070007.7974   6   1   3.2971   2.6950   5.5977   2.5390   3.4899   3.9081   0.00    0.0
2091  14490.000   4121333.5599   2652416.6532   4069595.0011   5   4   3.3832   4.0048   5.4991   3.3415   4.3695   3.7785   0.00    0.0
2091  14670.000   4121681.6169   2651744.3846   4070007.7934   6   1   3.2925   2.6918   5.5899   2.5345   3.4843   3.9015   0.00    0.0
2091  14700.000   4121948.8843   2652186.4612   4069030.4348   5   4   3.4898   4.1538   5.4214   3.4846   4.4299   3.8914   0.00    0.0
2091  14760.000   4121400.0592   2652304.8337   4069379.3267   5   4   3.5260   4.2076   5.4097   3.5319   4.4558   3.9258   0.00    0.0
2091  14790.000   4121235.5516   2652344.9429   4069491.4471   5   4   3.5477   4.2399   5.4103   3.5595   4.4742   3.9467   0.00    0.0
2091  14880.000   4121156.4489   2652377.9343   4069561.8573   5   4   3.5988   4.3203   5.3891   3.6269   4.5097   3.9911   0.00    0.0
2091  14970.000   4121678.0077   2651743.9639   4070005.8088   6   2   2.8921   2.6834   5.5194   2.4772   3.4586   3.7233   0.00    0.0
2091  15000.000   4121949.1137   2652186.6117   4069030.6246   5   4   3.6242   4.3742   5.2932   3.6688   4.4985   3.9964   0.00    0.0
2091  15030.000   4121594.2641   2652217.4033   4069179.9187   5   4   3.6360   4.3970   5.2791   3.6859   4.5042   4.0034   0.00    0.0
2091  15150.000   4120995.8639   2652284.4543   4069465.7387   5   4   3.7064   4.5253   5.2632   3.7813   4.5620   4.0565   0.00    0.0
2091  15180.000   4121041.3121   2652283.6495   4069450.6887   5   4   3.7010   4.5265   5.2233   3.7792   4.5445   4.0427   0.00    0.0
2091  15210.000   4121160.9331   2652274.0767   4069399.7439   5   4   3.6976   4.5308   5.1872   3.7793   4.5303   4.0312   0.00    0.0
2091  15270.000   4121615.8448   2652225.9432   4069188.6351   5   4   3.6976   4.5503   5.1276   3.7874   4.5121   4.0158   0.00    0.0
2091  15300.000   4121948.8652   2652186.2981   4069030.2566   5   4   3.7010   4.5655   5.1040   3.7955   4.5083   4.0120   0.00    0.0
2091  15330.000   4121552.3514   2652179.6906   4069139.8241   5   4   3.7064   4.5849   5.0836   3.8063   4.5077   4.0100   0.00    0.0
2091  15360.000   4121250.0284   2652176.4253   4069232.4332   5   4   3.7140   4.6081   5.0671   3.8198   4.5105   4.0106   0.00    0.0
2091  15390.000   4121677.9899   2651743.9462   4070005.7708   6   1   2.8895   2.6807   5.5132   2.4742   3.4540   3.7190   0.00    0.0
2091  15420.000   4121678.0224   2651743.9785   4070005.8403   6   1   2.8869   2.6779   5.5070   2.4712   3.4494   3.7147   0.00    0.0
2091  15450.000   4120881.8215   2652180.0054   4069361.4434   5   4   3.7501   4.7006   5.0406   3.8762   4.5393   4.0276   0.00    0.0
2091  15510.000   4121678.0146   2651743.9707   4070005.8236   6   1   2.8844   2.6752   5.5008   2.4682   3.4448   3.7104   0.00    0.0
2091  15570.000   4121575.3791   2652188.0193   4069153.2059   5   4   3.7135   4.7067   4.8839   3.8536   4.4630   3.9530   0.00    0.0
2091  15600.000   4121948.9545   2652186.0986   4069030.0424   5   4   3.7099   4.7174   4.8546   3.8545   4.4524   3.9407   0.00    0.0
2091  15630.000   4121514.8960   2652140.9570   4069106.4106   5   4   3.7082   4.7325   4.8284   3.8582   4.4450   3.9305   0.00    0.0
2091  15660.000   4121183.8720   2652107.9533   4069174.2602   5   4   3.7087   4.7515   4.8060   3.8646   4.4410   3.9227   0.00    0.0
2091  15690.000   4120952.6301   2652086.2642   4069226.0715   5   4   3.7114   4.7744   4.7872   3.8736   4.4403   3.9175   0.00    0.0
2091  15720.000   4120819.0922   2652075.1782   4069260.4975   5   4   3.7162   4.8011   4.7721   3.8852   4.4429   3.9147   0.00    0.0
2091  15750.000   4120780.9314   2652073.8717   4069276.1465   5   4   3.7231   4.8316   4.7603   3.8994   4.4487   3.9142   0.00    0.0
2091  15810.000   4120982.4442   2652097.3932   4069245.9821   5   4   3.6867   4.8164   4.6657   3.8678   4.3905   3.8569   0.00    0.0
2091  15870.000   4121540.2461   2652150.0848   4069124.9297   5   4   3.6594   4.8165   4.5869   3.8470   4.3462   3.8104   0.00    0.0
2091  15900.000   4121948.9551   2652186.0844   4069029.8753   5   4   3.6492   4.8223   4.5532   3.8406   4.3291   3.7910   0.00    0.0
2091  15930.000   4121483.4410   2652102.7731   4069080.8267   5   4   3.6407   4.8325   4.5224   3.8368   4.3149   3.7735   0.00    0.0
2091  16020.000   4120739.0320   2651975.2803   4069198.1898   5   4   3.6279   4.8864   4.4508   3.8411   4.2918   3.7355   0.00    0.0
2091  16080.000   4120758.1557   2651982.5132   4069212.8319   5   4   3.6030   4.8976   4.3826   3.8237   4.2542   3.6923   0.00    0.0
2091  16110.000   4120915.1760   2652011.1773   4069195.8892   5   4   3.5804   4.8866   4.3352   3.8023   4.2213   3.6597   0.00    0.0
2091  16140.000   4121167.4445   2652055.3350   4069160.5833   5   4   3.5601   4.8794   4.2915   3.7837   4.1918   3.6297   0.00    0.0
2091  16170.000   4121512.4082   2652113.7880   4069105.0468   5   4   3.5421   4.8762   4.2514   3.7676   4.1655   3.6024   0.00    0.0
2091  16200.000   4121949.9864   2652188.4992   4069031.5714   5   5   2.9579   2.7235   2.9719   2.5155   2.2513   2.6573   0.00    0.0
2091  16440.000   4121128.9195   2651988.0336   4069133.8882   5   5   2.9420   2.7757   2.9529   2.5346   2.2777   2.6442   0.00    0.0
2091  16470.000   4121491.6383   2652078.4731   4069091.7839   5   5   2.9354   2.7770   2.9449   2.5322   2.2764   2.6378   0.00    0.0
2091  16500.000   4121949.5293   2652188.4408   4069030.9291   5   5   2.9304   2.7801   2.9387   2.5314   2.2764   2.6327   0.00    0.0
2091  16530.000   4121442.1750   2652025.2955   4069050.3728   5   5   2.9264   2.7855   2.9340   2.5319   2.2774   2.6283   0.00    0.0
2091  16650.000   4120601.1588   2651776.5958   4069150.9380   5   5   2.9250   2.8253   2.9336   2.5481   2.2946   2.6245   0.00    0.0
2091  16680.000   4120668.0325   2651802.3107   4069158.3863   5   5   2.9108   2.8181   2.9162   2.5380   2.2855   2.6097   0.00    0.0
2091  16710.000   4120839.7244   2651858.9713   4069153.0291   5   5   2.8981   2.8126   2.9007   2.5293   2.2777   2.5964   0.00    0.0
2091  16740.000   4121112.4301   2651943.7627   4069131.4561   5   5   2.8869   2.8090   2.8871   2.5221   2.2711   2.5844   0.00    0.0
2091  16770.000   4121482.9710   2652054.2820   4069090.9568   5   5   2.8772   2.8071   2.8754   2.5163   2.2660   2.5739   0.00    0.0
2091  16800.000   4121949.2556   2652188.4432   4069030.5843   5   5   2.8690   2.8071   2.8656   2.5120   2.2622   2.5648   0.00    0.0
2091  16830.000   4121439.1897   2652001.1858   4069053.2603   5   5   2.8619   2.8094   2.8574   2.5089   2.2594   2.5565   0.00    0.0
2091  16860.000   4121053.9071   2651864.0569   4069085.2740   5   5   2.8562   2.8135   2.8511   2.5073   2.2580   2.5496   0.00    0.0
2091  17100.000   4121949.4715   2652188.9868   4069030.5063   5   6   2.7793   2.6747   2.7597   2.4704   2.1879   2.4642   0.00    0.0
2091  17400.000   4121949.3221   2652188.9663   4069030.1140   5   6   2.6700   2.6537   2.6431   2.4030   2.1349   2.3379   0.00    0.0
2091  17700.000   4121948.4693   2652188.4623   4069029.3406   5   6   2.5525   2.6109   2.5169   2.3152   2.0617   2.1978   0.00    0.0
2091  18300.000   4121948.9681   2652188.4230   4069028.8104   5   7   2.0638   1.7548   1.8576   1.5981   1.1282   1.4995   0.00    0.0
2091  18600.000   4121947.5327   2652187.7300   4069027.8550   5   7   2.0359   1.7286   1.8107   1.5711   1.1253   1.4410   0.00    0.0
2091  18900.000   4121677.9905   2651743.9481   4070005.7754   6   1   2.8808   2.6717   5.4933   2.4643   3.4392   3.7048   0.00    0.0
2091  19200.000   4121678.0274   2651743.9830   4070005.8491   6   1   2.8774   2.6685   5.4862   2.4605   3.4338   3.6996   0.00    0.0
2091  19500.000   4121948.3514   2652187.6691   4069028.2832   5   7   1.9906   1.6607   1.6981   1.4925   1.1214   1.2793   0.00    0.0
2091  19800.000   4121947.9490   2652187.3903   4069027.6912   5   7   1.9907   1.6458   1.6711   1.4702   1.1258   1.2321   0.00    0.0
2091  20100.000   4121947.5661   2652187.0109   4069027.1381   5   7   1.9993   1.6364   1.6491   1.4509   1.1343   1.1890   0.00    0.0
2091  20400.000   4121948.0087   2652187.5999   4069030.6170   5   6   2.0170   1.6854   2.9047   1.4411   1.5216   1.1930   0.00    0.0
2091  21000.000   4121949.6090   2652187.3666   4069027.4976   5   6  16.8244   7.4015   3.6768  11.0666   5.0257   7.5074   0.00    0.0
2091  21300.000   4121942.4811   2652185.2079   4069029.4091   5   5  14.0578   6.1454   3.7822   9.1393   4.3131   6.1515   0.00    0.0
2091  21600.000   4121942.3124   2652185.0902   4069029.1511   5   5  11.8651   5.3425   3.7011   7.7630   4.0326   5.5959   0.00    0.0
2091  21900.000   4121678.0504   2651744.0045   4070005.8946   6   1   2.8738   2.6651   5.4787   2.4565   3.4282   3.6940   0.00    0.0
2091  22200.000   4121942.5806   2652185.0580   4069028.7794   5   5   9.3362   4.6005   3.6175   6.2738   3.7931   4.9590   0.00    0.0
2091  22500.000   4121942.9258   2652185.1431   4069028.7983   5   5   8.5666   4.4629   3.5970   5.8686   3.7608   4.7694   0.00    0.0
2091  22800.000   4121940.0338   2652183.7039   4069027.3225   5   5   8.0744   4.4597   3.6535   5.6599   3.8199   4.7191   0.00    0.0
2091  23100.000   4121943.6875   2652184.9479   4069028.2195   5   5   7.7028   4.5225   3.7035   5.5402   3.8970   4.6873   0.00    0.0
2091  23400.000   4121943.2662   2652183.9065   4069026.9528   5   6   7.4663   4.5692   3.4372   5.6715   3.8090   4.8854   0.00    0.0
2091  23700.000   4121941.8121   2652183.1967   4069026.5697   5   6   7.3317   4.7999   3.5679   5.7659   3.9853   4.9495   0.00    0.0
2091  24000.000   4121942.4488   2652183.6736   4069027.0558   5   6   7.2767   5.0995   3.7130   5.9295   4.1979   5.0433   0.00    0.0
2091  24300.000   4121940.8372   2652182.7087   4069026.1064   5   6   7.2648   5.4561   3.8637   6.1373   4.4365   5.1487   0.00    0.0
2091  24600.000   4121945.1274   2652185.0089   4069028.2477   5   5  17.8951  12.6801  10.6520  14.9821  11.5293  13.7463   0.00    0.0
2091  24900.000   4121953.7822   2652192.5253   4069033.9674   5   6   5.2601   2.8816   3.2455   3.6930   2.7650   3.9232   0.00    0.0
2091  25200.000   4121953.8401   2652193.1205   4069034.1962   5   6   4.8955   2.8376   3.1037   3.5221   2.6385   3.6691   0.00    0.0
2091  25500.000   4121951.1578   2652191.2345   4069032.6306   5   6   4.5786   2.8258   2.9703   3.3842   2.5223   3.4330   0.00    0.0
2091  25800.000   4121950.7006   2652191.6874   4069032.5686   5   6   4.2767   2.7979   2.8278   3.2371   2.3787   3.1873   0.00    0.0
2091  26100.000   4121949.9200   2652191.0280   4069031.9638   5   6   4.0137   2.7796   2.6936   3.1082   2.2273   2.9514   0.00    0.0
2091  26400.000   4121948.6373   2652190.5292   4069031.2472   5   6   3.7959   2.7795   2.5738   3.0066   2.0717   2.7287   0.00    0.0
2091  26700.000   4121947.6961   2652189.9136   4069030.4427   5   6   3.6265   2.8041   2.4716   2.9389   1.9118   2.5187   0.00    0.0
2091  27000.000   4121947.7334   2652190.2093   4069029.9544   5   6   3.5082   2.8594   2.3887   2.9111   1.7435   2.3172   0.00    0.0
2091  27300.000   4121678.0733   2651744.0230   4070005.9371   6   1   2.8707   2.6629   5.4732   2.4537   3.4244   3.6896   0.00    0.0
2091  27600.000   4121678.0419   2651743.9975   4070005.8783   6   1   2.8675   2.6606   5.4673   2.4506   3.4203   3.6849   0.00    0.0
2091  27900.000   4121946.3859   2652188.9456   4069029.1918   5   6   3.5035   3.2712   2.2638   3.1328   1.0486   1.6684   0.00    0.0
2091  28500.000   4121944.8085   2652186.2640   4069031.1742   5   5   4.4201   5.2205   4.2467   4.5432  -3.6488  -2.5934   0.00    0.0
2091  28800.000   4121943.6939   2652184.9081   4069031.0797   5   5   5.2903   6.1949   4.5532   5.5219  -4.4129  -3.5821   0.00    0.0
2091  29400.000   4121942.6052   2652184.1267   4069030.0693   5   6   7.4043   8.4323   4.5537   7.7782  -5.5065  -4.8436   0.00    0.0
2091  29520.000   4121784.9604   2651851.0574   4069967.5548   5   4  16.8310  19.0104   5.5661  17.8006  -8.7091  -7.8693   0.00    0.0
2091  29610.000   4121677.8084   2651743.4320   4070005.0051   6   2   2.8019   2.2326   4.9859   2.2645   2.9073   3.4950   0.00    0.0
2091  29700.000   4121677.7961   2651743.4219   4070004.9825   6   1   2.8003   2.2312   4.9827   2.2628   2.9049   3.4926   0.00    0.0
2091  29730.000   4121677.7557   2651743.3936   4070004.9094   6   1   2.7965   2.2288   4.9758   2.2595   2.9003   3.4871   0.00    0.0
2091  30600.000   4121955.6912   2652197.7345   4069027.3864   5   5  30.1873  29.9738   7.4108  30.0504 -13.8666 -13.9163   0.00    0.0
2091  30900.000   4121947.8245   2652190.2566   4069028.3144   5   5  23.2298  22.2327   5.6426  22.6839  -9.6763  -9.9333   0.00    0.0
2091  31200.000   4121943.7706   2652186.2922   4069028.9749   5   4  30.8353  27.5206   4.6753  29.0892  -7.7276  -8.1888   0.00    0.0
2091  31230.000   4121292.0635   2651560.3617   4069461.1881   5   4  29.8163  26.5349   4.5864  28.0844  -7.2272  -7.6778   0.00    0.0
2091  31260.000   4120850.4882   2651141.0480   4069788.1911   5   4  28.8871  25.6365   4.5115  27.1682  -6.7567  -7.1980   0.00    0.0
2091  31320.000   4120463.9886   2650785.4001   4070141.3254   5   4  27.2590  24.0636   4.3975  25.5629  -5.8884  -6.3147   0.00    0.0
2091  31350.000   4120474.6734   2650803.2170   4070175.0783   5   4  26.5442  23.3736   4.3559  24.8581  -5.4828  -5.9037   0.00    0.0
2091  31440.000   4121121.7634   2651427.5989   4069740.1825   5   4  24.4899  21.4063   4.2258  22.8407  -4.2300  -4.6368   0.00    0.0
2091  31470.000   4121500.2736   2651780.1326   4069424.8919   5   4  23.9058  20.8483   4.1977  22.2676  -3.8236  -4.2310   0.00    0.0
2091  31500.000   4121939.5292   2652182.9819   4069028.4037   5   4  23.3648  20.3320   4.1760  21.7367  -3.4138  -3.8260   0.00    0.0
2091  31560.000   4120982.9964   2651291.8315   4069743.0503   5   4  22.3920  19.4062   4.1505  20.7830  -2.5761  -3.0210   0.00    0.0
2091  31650.000   4120601.8297   2650959.7144   4070118.6289   5   4  21.1764  18.2533   4.1469  19.5920  -0.7400  -1.5682   0.00    0.0
2091  31680.000   4120699.6613   2651056.9602   4070067.2018   5   4  20.7652  17.8678   4.1378  19.1917   1.1551  -0.6097   0.00    0.0
2091  31710.000   4120888.3198   2651235.5660   4069930.0135   5   4  20.3810  17.5085   4.1325  18.8181   1.7530   1.2473   0.00    0.0
2091  31770.000   4121518.6964   2651809.6109   4069408.9296   5   4  19.6869  16.8616   4.1324  18.1436   2.4862   2.2338   0.00    0.0
2091  31800.000   4121942.8832   2652185.6707   4069028.9620   5   4  19.3735  16.5707   4.1373  17.8395   2.7529   2.5548   0.00    0.0
2091  31950.000   4120675.1808   2651057.1258   4070066.4551   5   4  18.0800  15.3817   4.2009  16.5877   3.6307   3.5475   0.00    0.0
2091  31980.000   4120757.3390   2651138.1057   4070018.5904   5   4  17.8217  15.1486   4.2066  16.3402   3.7670   3.7006   0.00    0.0
2091  32010.000   4120932.7379   2651299.8709   4069889.5772   5   4  17.5790  14.9305   4.2147  16.1080   3.8916   3.8391   0.00    0.0
2091  32040.000   4121193.5406   2651533.7025   4069680.6024   5   4  17.3513  14.7268   4.2251  15.8905   4.0064   3.9655   0.00    0.0
2091  32070.000   4121532.6372   2651831.6043   4069392.9790   5   4  17.1377  14.5367   4.2377  15.6868   4.1130   4.0815   0.00    0.0
2091  32100.000   4121677.7277   2651743.3713   4070004.8582   6   1   2.7941   2.2270   4.9713   2.2572   2.8970   3.4836   0.00    0.0
2091  32130.000   4121457.0605   2651750.8325   4069388.8361   5   4  16.7486  14.1936   4.2683  15.3169   4.3013   4.2826   0.00    0.0
2091  32160.000   4121101.7689   2651437.8536   4069667.1115   5   4  16.5717  14.0391   4.2861  15.1493   4.3852   4.3704   0.00    0.0
2091  32190.000   4120865.0024   2651233.6777   4069862.7577   5   4  16.4061  13.8955   4.3057  14.9926   4.4650   4.4528   0.00    0.0
2091  32250.000   4120716.7128   2651117.6130   4070011.4692   5   4  16.1063  13.6386   4.3501  14.7100   4.6144   4.6039   0.00    0.0
2091  32280.000   4120794.9766   2651192.7219   4069968.4307   5   4  15.9312  13.4898   4.3620  14.5465   4.6847   4.6786   0.00    0.0
2091  32310.000   4120958.6299   2651340.7624   4069846.3820   5   4  15.7670  13.3515   4.3758  14.3935   4.7520   4.7492   0.00    0.0
2091  32340.000   4121206.3123   2651558.4290   4069647.7496   5   4  15.6128  13.2227   4.3913  14.2503   4.8166   4.8161   0.00    0.0
2091  32370.000   4121536.6290   2651842.4977   4069374.5483   5   4  15.4681  13.1031   4.4085  14.1164   4.8789   4.8796   0.00    0.0
2091  32400.000   4121677.7447   2651743.3849   4070004.8891   6   1   2.7919   2.2252   4.9673   2.2550   2.8939   3.4804   0.00    0.0
2091  32430.000   4121476.3078   2651774.4045   4069366.2251   5   4  15.2044  12.8889   4.4468  13.8738   4.9946   4.9945   0.00    0.0
2091  32550.000   4120748.8872   2651160.2927   4069954.8437   5   4  14.7712  12.5517   4.5393  13.4802   5.2053   5.1924   0.00    0.0
2091  32580.000   4120814.7607   2651223.7819   4069913.0926   5   4  14.6475  12.4563   4.5543  13.3691   5.2531   5.2398   0.00    0.0
2091  32610.000   4120969.3606   2651361.7443   4069797.6674   5   4  14.5315  12.3682   4.5708  13.2655   5.3001   5.2856   0.00    0.0
2091  33270.000   4121543.9100   2651851.4161   4069310.2722   5   4  12.9353  11.4209   5.0446  11.9517   6.1762   6.0279   0.00    0.0
2091  33300.000   4121939.7443   2652183.0345   4069027.3443   5   4  12.8866  11.4050   5.0672  11.9174   6.2128   6.0559   0.00    0.0
2091  33330.000   4121510.1076   2651802.0339   4069292.4554   5   4  12.8420  11.3936   5.0897  11.8873   6.2483   6.0819   0.00    0.0
2091  33360.000   4121184.1552   2651516.0637   4069498.5812   5   4  12.8012  11.3859   5.1133  11.8608   6.2845   6.1080   0.00    0.0
2091  33390.000   4120959.8880   2651322.0244   4069644.7689   5   4  12.7642  11.3819   5.1380  11.8378   6.3214   6.1340   0.00    0.0
2091  33420.000   4120831.0346   2651213.2267   4069730.1888   5   4  12.7307  11.3814   5.1638  11.8181   6.3590   6.1601   0.00    0.0
2091  33510.000   4121003.2741   2651375.3861   4069637.1176   5   4  12.6076  11.3638   5.2288  11.7418   6.4645   6.2366   0.00    0.0
2091  34200.000   4121944.9483   2652187.4743   4069029.2651   5   4   6.0905   3.5744   4.6343   4.1556   2.6508   2.3416   0.00    0.0
2091  34230.000   4121488.0033   2651740.8445   4069183.4202   5   4   6.1360   3.6047   4.6173   4.1974   2.6521   2.3512   0.00    0.0
2091  34260.000   4121121.6223   2651383.7997   4069295.3334   5   4   6.1842   3.6367   4.6018   4.2413   2.6547   2.3622   0.00    0.0
2091  34290.000   4120849.3977   2651119.2888   4069365.5263   5   4   6.2351   3.6706   4.5877   4.2874   2.6585   2.3748   0.00    0.0
2091  34320.000   4120678.5159   2650952.8449   4069401.0207   5   4   6.2889   3.7064   4.5750   4.3357   2.6637   2.3891   0.00    0.0
2091  34350.000   4120607.9610   2650884.9687   4069400.0811   5   4   6.3454   3.7441   4.5636   4.3863   2.6702   2.4049   0.00    0.0
2091  34380.000   4120644.5489   2650921.2171   4069369.4984   5   4   6.3811   3.7725   4.5409   4.4242   2.6697   2.4179   0.00    0.0
2091  34410.000   4120790.0123   2651063.9582   4069310.4149   5   4   6.4194   3.8026   4.5198   4.4641   2.6707   2.4322   0.00    0.0
2091  34440.000   4121053.6310   2651320.5424   4069232.5647   5   4   6.4603   3.8346   4.5002   4.5060   2.6729   2.4479   0.00    0.0
2091  34470.000   4121437.0608   2651693.4083   4069136.8238   5   4   6.5039   3.8684   4.4821   4.5500   2.6766   2.4650   0.00    0.0
2091  34500.000   4121945.3184   2652187.8323   4069029.2556   5   4   6.5502   3.9042   4.4654   4.5961   2.6817   2.4836   0.00    0.0
2091  34530.000   4121502.8619   2651731.1714   4069157.0546   5   4   6.5972   3.9399   4.4494   4.6423   2.6860   2.5009   0.00    0.0
2091  34560.000   4121149.4111   2651366.9193   4069249.7151   5   4   6.6470   3.9775   4.4349   4.6906   2.6917   2.5197   0.00    0.0
2091  34590.000   4120888.2794   2651097.9644   4069307.4262   5   4   6.6996   4.0172   4.4217   4.7413   2.6989   2.5400   0.00    0.0
2091  34620.000   4120725.3457   2650929.3977   4069336.7740   5   4   6.7552   4.0590   4.4098   4.7943   2.7076   2.5621   0.00    0.0
2091  34650.000   4120659.4422   2650861.7579   4069335.0066   5   4   6.8136   4.1029   4.3993   4.8496   2.7178   2.5859   0.00    0.0
2091  34680.000   4120696.6333   2650900.0698   4069309.1240   5   4   6.8495   4.1362   4.3787   4.8905   2.7208   2.6046   0.00    0.0
2091  34710.000   4120838.0928   2651046.5639   4069259.5544   5   4   6.8879   4.1713   4.3596   4.9334   2.7252   2.6245   0.00    0.0
2091  34740.000   4121092.0589   2651308.0367   4069195.0905   5   4   6.9291   4.2083   4.3419   4.9784   2.7310   2.6458   0.00    0.0
2091  34770.000   4121459.6529   2651686.8112   4069116.5948   5   4   6.9730   4.2474   4.3257   5.0256   2.7384   2.6685   0.00    0.0
2091  34800.000   4121945.2994   2652187.8112   4069029.0245   5   4   7.0198   4.2886   4.3109   5.0751   2.7474   2.6928   0.00    0.0
2091  34830.000   4121530.8138   2651731.2044   4069138.8151   5   4   7.0671   4.3296   4.2967   5.1245   2.7554   2.7154   0.00    0.0
2091  34860.000   4121201.0374   2651368.1853   4069219.0385   5   4   7.1173   4.3727   4.2839   5.1763   2.7649   2.7395   0.00    0.0
2091  34890.000   4120958.1819   2651100.9734   4069269.3792   5   4   7.1704   4.4181   4.2724   5.2304   2.7761   2.7653   0.00    0.0
2091  34920.000   4120807.7403   2650934.2354   4069295.6882   5   4   7.2265   4.4656   4.2623   5.2869   2.7889   2.7927   0.00    0.0
2091  34950.000   4120747.9238   2650868.1976   4069294.9590   5   4   7.2856   4.5154   4.2535   5.3460   2.8034   2.8219   0.00    0.0
2091  34980.000   4120784.1987   2650907.8575   4069272.7427   5   4   7.3205   4.5530   4.2354   5.3886   2.8098   2.8434   0.00    0.0
2091  35010.000   4120916.9615   2651054.8024   4069229.6250   5   4   7.3580   4.5926   4.2188   5.4333   2.8176   2.8662   0.00    0.0
2091  35040.000   4121153.8094   2651315.3561   4069173.9821   5   4   7.3984   4.6343   4.2035   5.4804   2.8271   2.8904   0.00    0.0
2091  35070.000   4121495.2323   2651691.4621   4069105.5279   5   4   7.4417   4.6782   4.1897   5.5297   2.8382   2.9161   0.00    0.0
2091  35100.000   4121945.1722   2652187.7493   4069029.0049   5   4   7.4878   4.7243   4.1773   5.5815   2.8510   2.9433   0.00    0.0
2091  35130.000   4121571.2424   2651742.8405   4069129.4491   5   4   7.5345   4.7701   4.1653   5.6330   2.8625   2.9685   0.00    0.0
2091  35160.000   4121274.9539   2651390.2913   4069204.3063   5   4   7.5841   4.8181   4.1547   5.6869   2.8757   2.9953   0.00    0.0
2091  35190.000   4121057.4917   2651131.5499   4069252.1173   5   4   7.6367   4.8684   4.1455   5.7433   2.8906   3.0237   0.00    0.0
2091  35220.000   4120921.0567   2650969.3089   4069275.3220   5   4   7.6923   4.9211   4.1375   5.8023   2.9072   3.0539   0.00    0.0
2091  35250.000   4120868.5236   2650906.6660   4069276.2917   5   4   7.7510   4.9762   4.1309   5.8639   2.9256   3.0858   0.00    0.0
2091  35280.000   4120902.0243   2650946.3847   4069257.1755   5   4   7.7841   5.0175   4.1155   5.9072   2.9348   3.1076   0.00    0.0
2091  35310.000   4121024.1807   2651091.4492   4069220.2748   5   4   7.8201   5.0610   4.1015   5.9529   2.9455   3.1308   0.00    0.0
2091  35340.000   4121237.0939   2651344.5287   4069168.1994   5   4   7.8590   5.1066   4.0889   6.0009   2.9578   3.1555   0.00    0.0
2091  35370.000   4121542.8535   2651708.4694   4069103.1711   5   4   7.9009   5.1546   4.0776   6.0514   2.9718   3.1816   0.00    0.0
2091  35400.000   4121945.1048   2652187.7470   4069028.6949   5   4   7.9458   5.2048   4.0676   6.1044   2.9875   3.2093   0.00    0.0
2091  35430.000   4121623.0272   2651766.7506   4069127.9909   5   4   7.9911   5.2546   4.0580   6.1571   3.0018   3.2349   0.00    0.0
2091  35460.000   4121368.5255   2651434.0777   4069204.3133   5   4   8.0394   5.3068   4.0497   6.2122   3.0177   3.2620   0.00    0.0
2091  35490.000   4121182.1744   2651190.5076   4069254.1708   5   4   8.0908   5.3614   4.0428   6.2700   3.0354   3.2908   0.00    0.0
2091  35520.000   4121065.8923   2651038.6613   4069279.9619   5   4   8.1453   5.4184   4.0371   6.3304   3.0549   3.3213   0.00    0.0
2091  35550.000   4121021.4898   2650980.8984   4069283.4102   5   4   8.2029   5.4779   4.0327   6.3934   3.0762   3.3536   0.00    0.0
2091  35580.000   4121050.9539   2651019.5474   4069266.2573   5   4   8.2339   5.5220   4.0197   6.4367   3.0868   3.3737   0.00    0.0
2091  35610.000   4121156.2898   2651157.1986   4069230.3151   5   4   8.2680   5.5686   4.0081   6.4826   3.0992   3.3954   0.00    0.0
2091  35640.000   4121338.9241   2651395.8442   4069177.2509   5   4   8.3052   5.6175   3.9978   6.5310   3.1132   3.4187   0.00    0.0
2091  35670.000   4121600.7189   2651738.0574   4069108.5736   5   4   8.3454   5.6687   3.9888   6.5819   3.1290   3.4435   0.00    0.0
2091  35700.000   4121944.8616   2652187.7148   4069028.4061   5   4   8.3888   5.7224   3.9811   6.6354   3.1465   3.4700   0.00    0.0
2091  35730.000   4121683.9126   2651802.5435   4069134.9986   5   4   8.4324   5.7755   3.9736   6.6885   3.1621   3.4940   0.00    0.0
2091  35760.000   4121478.3900   2651499.3529   4069217.4903   5   4   8.4791   5.8310   3.9674   6.7442   3.1795   3.5197   0.00    0.0
2091  35790.000   4121327.8617   2651277.9400   4069273.4241   5   4   8.5290   5.8890   3.9624   6.8025   3.1987   3.5471   0.00    0.0
2091  35820.000   4121234.1314   2651140.5665   4069303.9709   5   4   8.5820   5.9495   3.9587   6.8636   3.2197   3.5762   0.00    0.0
2091  35850.000   4121198.8711   2651089.2493   4069310.4295   5   4   8.6382   6.0127   3.9562   6.9274   3.2426   3.6072   0.00    0.0
2091  35880.000   4121223.0912   2651125.6089   4069294.0389   5   4   8.6677   6.0594   3.9454   6.9707   3.2537   3.6247   0.00    0.0
2091  35910.000   4121308.3251   2651251.5927   4069256.1700   5   4   8.7000   6.1084   3.9357   7.0163   3.2663   3.6436   0.00    0.0
2091  35970.000   4121667.3834   2651780.1456   4069121.0070   5   4   8.7740   6.2137   3.9200   7.1154   3.2968   3.6863   0.00    0.0
2091  36000.000   4121945.3181   2652188.1457   4069028.2511   5   4   8.8157   6.2702   3.9141   7.1691   3.3147   3.7102   0.00    0.0
2091  36030.000   4121752.7709   2651850.3613   4069147.6174   5   4   8.8579   6.3259   3.9082   7.2223   3.3305   3.7316   0.00    0.0
2091  36090.000   4121490.6163   2651392.6540   4069305.7939   5   4   8.9518   6.4452   3.9002   7.3369   3.3675   3.7796   0.00    0.0
2091  36120.000   4121421.2791   2651273.2539   4069342.7525   5   4   9.0035   6.5088   3.8980   7.3984   3.3887   3.8063   0.00    0.0
2091  36150.000   4121394.6643   2651228.8858   4069352.4897   5   4   9.0585   6.5750   3.8970   7.4628   3.4118   3.8348   0.00    0.0
2091  36180.000   4121411.9530   2651261.0148   4069336.0480   5   4   9.0862   6.6236   3.8875   7.5054   3.4219   3.8484   0.00    0.0
2091  36210.000   4121474.3962   2651371.2497   4069294.5077   5   4   9.1171   6.6747   3.8792   7.5508   3.4337   3.8638   0.00    0.0
2091  36240.000   4121583.1122   2651561.2136   4069228.5103   5   4   9.1513   6.7283   3.8720   7.5989   3.4472   3.8809   0.00    0.0
2091  36270.000   4121739.2865   2651832.4735   4069138.7688   5   4   9.1887   6.7846   3.8661   7.6499   3.4626   3.8998   0.00    0.0
2091  36300.000   4121945.2858   2652188.0325   4069027.8278   5   4   9.2293   6.8434   3.8614   7.7036   3.4797   3.9204   0.00    0.0
2091  36330.000   4121826.2657   2651907.9574   4069164.3257   5   4   9.2704   6.9016   3.8566   7.7569   3.4945   3.9384   0.00    0.0
2091  36360.000   4121677.7551   2651743.3952   4070004.9050   6   1   2.7915   2.2247   4.9667   2.2545   2.8933   3.4799   0.00    0.0
2091  36390.000   4121663.2990   2651529.4109   4069348.3747   5   4   9.3623   7.0260   3.8506   7.8721   3.5295   3.9798   0.00    0.0
2091  36420.000   4121619.3917   2651431.0220   4069392.5652   5   4   9.4132   7.0922   3.8494   7.9340   3.5498   4.0032   0.00    0.0
2091  36450.000   4121601.9263   2651394.8402   4069405.6463   5   4   9.4673   7.1612   3.8494   7.9989   3.5719   4.0285   0.00    0.0
2091  36480.000   4121612.1071   2651422.2762   4069388.1733   5   4   9.4942   7.2117   3.8407   8.0415   3.5801   4.0383   0.00    0.0
2091  36600.000   4121945.3885   2652187.9549   4069028.2480   5   5   4.9472   4.1495   3.8047   4.1043   3.3538   3.7657   0.00    0.0
2091  36660.000   4121677.7369   2651743.3817   4070004.8757   6   1   2.7898   2.2235   4.9642   2.2529   2.8913   3.4776   0.00    0.0
2091  36720.000   4121634.0412   2651378.4407   4069632.8021   5   4   6.5670   4.3763   5.8082   4.7789   4.1707   5.7605   0.00    0.0
2091  36750.000   4121614.1073   2651337.3295   4069655.7701   5   4   6.5426   4.3683   5.8206   4.7600   4.1590   5.7530   0.00    0.0
2091  36780.000   4121620.5849   2651364.1454   4069628.1875   5   4   6.4997   4.3492   5.8148   4.7277   4.1347   5.7281   0.00    0.0
2091  36810.000   4121655.1292   2651460.6358   4069550.7160   5   4   6.4589   4.3312   5.8109   4.6967   4.1112   5.7048   0.00    0.0
2091  36840.000   4121719.6793   2651628.7673   4069424.1529   5   4   6.4201   4.3144   5.8088   4.6669   4.0886   5.6832   0.00    0.0
2091  36870.000   4121815.4635   2651870.1425   4069248.9339   5   4   6.3832   4.2987   5.8086   4.6384   4.0668   5.6633   0.00    0.0
2091  36900.000   4121945.2147   2652187.7177   4069028.0536   5   4   6.3482   4.2842   5.8101   4.6110   4.0458   5.6450   0.00    0.0
2091  36930.000   4121875.2830   2651920.1646   4069291.5324   5   4   6.3140   4.2694   5.8118   4.5834   4.0235   5.6265   0.00    0.0
2091  36960.000   4121816.5936   2651707.9576   4069499.5730   5   4   6.2817   4.2559   5.8152   4.5571   4.0021   5.6097   0.00    0.0
2091  37080.000   4121677.7502   2651743.3900   4070004.8993   6   1   2.7879   2.2226   4.9609   2.2515   2.8893   3.4750   0.00    0.0
2091  37140.000   4121677.7416   2651743.3838   4070004.8852   6   1   2.7859   2.2212   4.9577   2.2496   2.8869   3.4723   0.00    0.0
2091  37200.000   4121945.0851   2652187.4890   4069028.2978   5   4   5.9969   4.1338   5.8128   4.3224   3.7942   5.4433   0.00    0.0
2091  37230.000   4121907.6228   2651945.1482   4069326.3150   5   4   5.9620   4.1188   5.8121   4.2926   3.7650   5.4215   0.00    0.0
2091  37260.000   4121677.7323   2651743.3779   4070004.8687   6   1   2.7841   2.2203   4.9546   2.2482   2.8850   3.4697   0.00    0.0
2091  37290.000   4121677.7645   2651743.4016   4070004.9220   6   1   2.7819   2.2189   4.9513   2.2462   2.8825   3.4669   0.00    0.0
2091  37350.000   4121807.2550   2651481.4852   4069859.2949   5   4   5.8397   4.0721   5.8283   4.1848   3.6533   5.3496   0.00    0.0
2091  37380.000   4121804.3731   2651501.3366   4069824.3474   5   4   5.7969   4.0531   5.8181   4.1489   3.6160   5.3190   0.00    0.0
2091  37500.000   4121944.3637   2652187.1922   4069027.7909   5   5   4.2532   3.8771   3.5931   3.5537   2.7822   3.2082   0.00    0.0
2091  37650.000   4121873.5010   2651535.0354   4069946.7956   5   4   5.4891   3.9423   5.8072   3.8782   3.2913   5.1062   0.00    0.0
2091  37770.000   4121904.6703   2651937.7511   4069355.5270   5   4   5.3363   3.8903   5.7773   3.7460   3.1142   4.9877   0.00    0.0
2091  37800.000   4121944.4540   2652186.6909   4069028.3657   5   4   5.3024   3.8813   5.7748   3.7161   3.0700   4.9616   0.00    0.0
2091  37890.000   4121942.9306   2651690.9641   4069865.0445   5   4   5.2089   3.8621   5.7754   3.6322   2.9324   4.8878   0.00    0.0
2091  37920.000   4121677.8053   2651743.4309   4070004.9994   6   1   2.7779   2.2162   4.9431   2.2426   2.8772   3.4607   0.00    0.0
2091  37950.000   4121921.5116   2651575.6562   4070022.8799   5   4   5.1542   3.8577   5.7855   3.5824   2.8382   4.8447   0.00    0.0
2091  37980.000   4121677.8172   2651743.4395   4070005.0219   6   1   2.7738   2.2136   4.9350   2.2391   2.8719   3.4546   0.00    0.0
2091  38010.000   4121907.4820   2651655.7195   4069861.5130   5   4   5.0796   3.8408   5.7683   3.5188   2.7286   4.7805   0.00    0.0
2091  38040.000   4121909.4104   2651775.1801   4069661.8250   5   4   5.0447   3.8350   5.7626   3.4890   2.6729   4.7503   0.00    0.0
2091  38070.000   4121677.8007   2651743.4293   4070004.9935   6   1   2.7723   2.2129   4.9325   2.2379   2.8703   3.4525   0.00    0.0
2091  38100.000   4121944.2318   2652186.2999   4069028.2152   5   4   4.9798   3.8287   5.7572   3.4333   2.5588   4.6936   0.00    0.0
2091  38130.000   4121677.8220   2651743.4424   4070005.0300   6   1   2.7708   2.2122   4.9300   2.2368   2.8688   3.4504   0.00    0.0
2091  38160.000   4121972.0777   2651836.0874   4069705.8716   5   4   4.9205   3.8289   5.7578   3.3823   2.4376   4.6395   0.00    0.0
2091  38190.000   4121677.8482   2651743.4613   4070005.0797   6   1   2.7669   2.2096   4.9220   2.2332   2.8636   3.4444   0.00    0.0
2091  38220.000   4121964.0350   2651639.0691   4070045.4951   5   4   4.8670   3.8367   5.7663   3.3368   2.3095   4.5896   0.00    0.0
2091  38250.000   4121953.4869   2651604.7766   4070087.1517   5   4   4.8425   3.8436   5.7735   3.3161   2.2421   4.5661   0.00    0.0
2091  38280.000   4121942.2589   2651617.0160   4070043.9435   5   4   4.8075   3.8424   5.7654   3.2878   2.1684   4.5321   0.00    0.0
2091  38310.000   4121677.8233   2651743.4434   4070005.0326   6   1   2.7630   2.2071   4.9141   2.2297   2.8584   3.4385   0.00    0.0
2091  38340.000   4121928.4322   2651791.8285   4069703.6523   5   4   4.7425   3.8464   5.7557   3.2360   2.0135   4.4675   0.00    0.0
2091  38370.000   4121677.8445   2651743.4564   4070005.0685   6   1   2.7616   2.2064   4.9119   2.2287   2.8570   3.4366   0.00    0.0
2091  38400.000   4121943.7527   2652185.9093   4069027.8994   5   4   4.6836   3.8587   5.7540   3.1902   1.8447   4.4069   0.00    0.0
2091  38430.000   4121972.1863   2652001.7140   4069425.8410   5   4   4.6562   3.8675   5.7553   3.1694   1.7521   4.3771   0.00    0.0
2091  38460.000   4121985.6729   2651849.8821   4069739.2973   5   4   4.6302   3.8784   5.7585   3.1502   1.6534   4.3481   0.00    0.0
2091  38490.000   4121988.3819   2651734.3132   4069962.7293   5   4   4.6057   3.8916   5.7638   3.1325   1.5472   4.3198   0.00    0.0
2091  38520.000   4121983.0776   2651657.8199   4070096.5012   5   4   4.5826   3.9070   5.7710   3.1165   1.4315   4.2922   0.00    0.0
2091  38550.000   4121972.7738   2651623.5327   4070140.7409   5   4   4.5608   3.9247   5.7802   3.1020   1.3035   4.2652   0.00    0.0
2091  38580.000   4121959.9083   2651633.9028   4070095.7367   5   4   4.5299   3.9345   5.7749   3.0809   1.1617   4.2292   0.00    0.0
2091  38610.000   4121677.8787   2651743.4813   4070005.1336   6   1   2.7577   2.2039   4.9041   2.2252   2.8518   3.4307   0.00    0.0
2091  38640.000   4121938.9863   2651801.6759   4069738.4862   5   4   4.4726   3.9608   5.7705   3.0439   0.8006   4.1597   0.00    0.0
2091  38670.000   4121936.6711   2651965.1686   4069426.4027   5   4   4.4462   3.9774   5.7714   3.0280   0.5296   4.1260   0.00    0.0
2091  38700.000   4121943.7473   2652185.8509   4069027.6587   5   4   4.4213   3.9965   5.7742   3.0139  -0.2926   4.0928   0.00    0.0
2091  38730.000   4121976.4250   2652007.0488   4069440.5187   5   4   4.3977   4.0175   5.7784   3.0017  -0.6784   4.0594   0.00    0.0
2091  38760.000   4121992.4648   2651858.2591   4069765.8618   5   4   4.3757   4.0409   5.7845   2.9915  -0.9175   4.0263   0.00    0.0
2091  38790.000   4121996.4471   2651744.2557   4069998.0172   5   4   4.3551   4.0670   5.7927   2.9832  -1.1096   3.9936   0.00    0.0
2091  38820.000   4121991.3164   2651667.9664   4070137.2639   5   4   4.3359   4.0956   5.8029   2.9770  -1.2766   3.9611   0.00    0.0
2091  38850.000   4121677.8515   2651743.4593   4070005.0806   6   1   2.7560   2.2024   4.9003   2.2234   2.8492   3.4279   0.00    0.0
2091  38880.000   4121965.4006   2651641.5726   4070136.5261   5   4   4.2922   4.1498   5.8134   2.9624  -1.5580   3.8890   0.00    0.0
2091  38910.000   4121951.6899   2651697.8483   4069997.7411   5   4   4.2677   4.1752   5.8137   2.9539  -1.6804   3.8495   0.00    0.0
2091  38940.000   4121941.3065   2651804.9245   4069766.3903   5   4   4.2447   4.2032   5.8161   2.9476  -1.7968   3.8102   0.00    0.0
2091  38970.000   4121937.4103   2651966.2412   4069442.3391   5   4   4.2233   4.2339   5.8205   2.9436  -1.9085   3.7711   0.00    0.0
2091  39000.000   4121677.8308   2651743.4467   4070005.0463   6   1   2.7548   2.2019   4.8985   2.2226   2.8480   3.4264   0.00    0.0
2091  39030.000   4121976.9087   2652009.3726   4069451.6114   5   4   4.1853   4.3032   5.8350   2.9427  -2.1219   3.6921   0.00    0.0
2091  39300.000   4121663.6566   2651730.7995   4069977.7671   6   2   2.0279   1.4438   3.3358   1.3565   1.4655   2.2476   0.00    0.0
2091  39600.000   4121662.0966   2651729.4112   4069974.7683   6   1   1.9335   1.3374   3.1221   1.2280   1.2283   2.0817   0.00    0.0
2091  39900.000   4121942.9594   2652184.5389   4069027.4693   5   5   3.8299   2.9362   4.2027   2.6819   1.8189   2.9990   0.00    0.0
2091  40200.000   4121942.2643   2652184.2261   4069026.8923   5   5   3.8523   3.1033   3.9721   2.8259   1.6471   2.7120   0.00    0.0
2091  40500.000   4121942.6014   2652183.8948   4069027.1063   5   5   3.9576   3.3287   3.7783   3.0440   1.4573   2.4283   0.00    0.0
2091  40770.000   4121662.0968   2651729.4113   4069974.7685   6   1   1.9334   1.3373   3.1218   1.2278   1.2280   2.0815   0.00    0.0
2091  40800.000   4121941.7854   2652182.9653   4069026.0472   5   5   4.1622   3.6331   3.6214   3.3542   1.2137   2.1256   0.00    0.0
2091  40860.000   4121942.5089   2651930.0553   4069716.6024   5   4   6.5891   3.8460   4.9068   4.1163   2.1761   4.5978   0.00    0.0
