% program   : RTKLIB ver.2.4.2
% inp file  : /home/fkarlitepe/Documents/Projects/Estimation-Orbit/precise orbit/ankr0330.20o
% inp file  : /home/fkarlitepe/Documents/Projects/Estimation-Orbit/precise orbit/precise/GRG0MGXFIN_20200330000_01D_15M_ORB.sp3
% inp file  : /home/fkarlitepe/Documents/Projects/Estimation-Orbit/precise orbit/igs20910.clk
% inp file  : /home/fkarlitepe/Documents/Projects/Estimation-Orbit/precise orbit/ankr0330.20n
% obs start : 2020/02/02 00:00:00.0 GPST (week2091      0.0s)
% obs end   : 2020/02/02 23:59:30.0 GPST (week2091  86370.0s)
%
% (x/y/z-ecef=WGS84,Q=1:fix,2:float,3:sbas,4:dgps,5:single,6:ppp,ns=# of satellites)
%  GPST              x-ecef(m)      y-ecef(m)      z-ecef(m)   Q  ns   sdx(m)   sdy(m)   sdz(m)  sdxy(m)  sdyz(m)  sdzx(m) age(s)  ratio
2091     60.000   4121944.5077   2652190.9961   4069025.7280   6   3  40.0005   9.3518  61.2411  18.9293  23.4001  49.3343   0.00    0.0
2091     90.000   4121952.2494   2652192.7245   4069037.1700   6   4   3.4697   2.3310   7.7882   2.3274   3.1850   4.6306   0.00    0.0
2091    120.000   4121952.0377   2652192.7193   4069036.6339   6   3   3.2745   1.9389   6.7373   2.0500   2.7520   4.2608   0.00    0.0
2091    150.000   4121951.6996   2652192.6026   4069035.9456   6   3   3.1475   1.7070   6.1097   1.8862   2.4949   4.0293   0.00    0.0
2091    210.000   4121950.2804   2652191.9891   4069032.9842   6   3   2.8227   1.4895   5.1668   1.6299   2.1162   3.5201   0.00    0.0
2091    240.000   4121949.3051   2652191.5846   4069030.7344   6   3   2.4341   1.3008   4.2541   1.3553   1.7386   2.9593   0.00    0.0
2091    300.000   4121948.0985   2652191.1571   4069027.0016   6   3   1.6358   1.0597   2.6885   0.8168   1.0823   1.8865   0.00    0.0
2091    330.000   4121947.6283   2652190.9631   4069026.4350   6   3   1.5728   0.9967   2.5616   0.7788   1.0265   1.8117   0.00    0.0
2091    360.000   4121947.4423   2652190.8795   4069026.2861   6   3   1.5344   0.9477   2.4813   0.7589   0.9927   1.7679   0.00    0.0
2091    390.000   4121947.2547   2652190.8017   4069026.1347   6   3   1.5035   0.9069   2.4162   0.7445   0.9668   1.7330   0.00    0.0
2091    420.000   4121947.2051   2652190.7643   4069026.1955   6   3   1.4763   0.8721   2.3594   0.7328   0.9453   1.7026   0.00    0.0
2091    450.000   4121947.2526   2652190.7503   4069026.3754   6   3   1.4516   0.8420   2.3082   0.7228   0.9268   1.6749   0.00    0.0
2091    480.000   4121947.3121   2652190.7437   4069026.4919   6   3   1.4048   0.8110   2.2226   0.6983   0.8932   1.6190   0.00    0.0
2091    510.000   4121947.2861   2652190.7179   4069026.3448   6   3   1.3163   0.7751   2.0719   0.6466   0.8304   1.5108   0.00    0.0
2091    540.000   4121947.3734   2652190.7326   4069026.1149   6   3   1.1526   0.7289   1.8033   0.5436   0.7149   1.3095   0.00    0.0
2091    600.000   4121947.3710   2652190.7478   4069024.3964   6   3   0.6001   0.6365   0.8869  -0.1051   0.3225   0.6363   0.00    0.0
2091    660.000   4121947.4438   2652190.7365   4069024.4831   6   3   0.5836   0.6186   0.8622  -0.0983   0.3139   0.6190   0.00    0.0
2091    720.000   4121947.6623   2652190.5914   4069024.7127   6   4   0.5617   0.5975   0.8440   0.0702   0.3265   0.6000   0.00    0.0
2091    840.000   4121947.7597   2652190.6058   4069024.7801   6   3   0.5278   0.5802   0.7882  -0.0538   0.3017   0.5609   0.00    0.0
2091    870.000   4121948.0491   2652190.6746   4069024.9570   6   4   0.4488   0.5544   0.6630  -0.1311   0.2549   0.4699   0.00    0.0
2091    930.000   4121948.0366   2652190.6556   4069024.8099   6   3   0.4004   0.5374   0.5776  -0.1713   0.2127   0.4121   0.00    0.0
2091    960.000   4121948.0208   2652190.6366   4069024.7814   6   3   0.3870   0.5255   0.5554  -0.1719   0.2029   0.3972   0.00    0.0
2091   1140.000   4121947.9567   2652190.6029   4069024.6452   6   3   0.3667   0.5136   0.5212  -0.1781   0.1858   0.3742   0.00    0.0
2091   1170.000   4121947.8695   2652190.5541   4069024.3868   6   3   0.3259   0.5001   0.4477  -0.1985   0.1443   0.3255   0.00    0.0
2091   1230.000   4121947.8080   2652190.5085   4069024.2076   6   3   0.2984   0.4886   0.3971  -0.2073   0.1133   0.2927   0.00    0.0
2091   1260.000   4121947.8025   2652190.4858   4069024.1868   6   3   0.2903   0.4797   0.3840  -0.2045   0.1072   0.2840   0.00    0.0
2091   1410.000   4121947.7949   2652190.4573   4069024.1633   6   3   0.2845   0.4714   0.3755  -0.2005   0.1042   0.2784   0.00    0.0
2091   1470.000   4121947.7837   2652190.4216   4069024.0441   6   3   0.2612   0.4618   0.3316  -0.2063   0.0664   0.2506   0.00    0.0
2091   1560.000   4121947.7676   2652190.3975   4069024.0054   6   3   0.2537   0.4541   0.3190  -0.2038   0.0564   0.2425   0.00    0.0
2091   1680.000   4121947.7591   2652190.3821   4069023.9914   6   3   0.2503   0.4471   0.3148  -0.1996   0.0570   0.2396   0.00    0.0
2091   1710.000   4121947.7472   2652190.3635   4069023.9627   6   3   0.2457   0.4403   0.3080  -0.1962   0.0532   0.2351   0.00    0.0
2091   1740.000   4121947.7144   2652190.3341   4069023.8874   6   3   0.2383   0.4335   0.2950  -0.1945   0.0378   0.2270   0.00    0.0
2091   1770.000   4121947.7414   2652190.3219   4069023.8567   6   3   0.2234   0.4261   0.2658  -0.1964  -0.0488   0.2094   0.00    0.0
2091   3270.000   4121947.7547   2652190.2900   4069023.8692   6   2   0.2227   0.4221   0.2654  -0.1938  -0.0440   0.2089   0.00    0.0
2091   3360.000   4121947.7543   2652190.2891   4069023.8773   6   3   0.2213   0.4166   0.2650  -0.1895  -0.0365   0.2083   0.00    0.0
2091   4260.000   4121947.7610   2652190.2958   4069023.8946   6   4   0.2187   0.4067   0.2626  -0.1840  -0.0382   0.2063   0.00    0.0
2091   4290.000   4121947.7590   2652190.3059   4069023.9013   6   4   0.2165   0.3984   0.2614  -0.1781  -0.0312   0.2050   0.00    0.0
2091   4320.000   4121947.7526   2652190.3282   4069023.9085   6   4   0.2146   0.3909   0.2605  -0.1724  -0.0197   0.2039   0.00    0.0
2091   4350.000   4121947.7460   2652190.3434   4069023.9132   6   4   0.2128   0.3840   0.2598  -0.1670   0.0140   0.2030   0.00    0.0
2091   4380.000   4121947.7391   2652190.3509   4069023.9157   6   4   0.2111   0.3774   0.2589  -0.1619   0.0261   0.2021   0.00    0.0
2091   4410.000   4121947.7308   2652190.3509   4069023.9152   6   4   0.2095   0.3710   0.2577  -0.1571   0.0323   0.2010   0.00    0.0
2091   4440.000   4121947.7186   2652190.3584   4069023.9137   6   4   0.2077   0.3646   0.2560  -0.1528   0.0348   0.1996   0.00    0.0
2091   4470.000   4121947.7046   2652190.3488   4069023.9062   6   4   0.2057   0.3579   0.2529  -0.1493   0.0323   0.1974   0.00    0.0
2091   4500.000   4121947.6990   2652190.3728   4069023.9104   6   4   0.2034   0.3508   0.2488  -0.1462   0.0260   0.1945   0.00    0.0
2091   4530.000   4121947.6982   2652190.3846   4069023.9213   6   4   0.2021   0.3458   0.2478  -0.1422   0.0326   0.1936   0.00    0.0
2091   4560.000   4121947.6988   2652190.3859   4069023.9315   6   4   0.2009   0.3413   0.2472  -0.1382   0.0382   0.1930   0.00    0.0
2091   4590.000   4121947.7008   2652190.3833   4069023.9416   6   4   0.1999   0.3370   0.2466  -0.1343   0.0429   0.1924   0.00    0.0
2091   4620.000   4121947.7096   2652190.3660   4069023.9516   6   3   0.1991   0.3337   0.2461  -0.1315   0.0464   0.1919   0.00    0.0
2091   4650.000   4121947.7176   2652190.3505   4069023.9620   6   3   0.1985   0.3305   0.2456  -0.1288   0.0495   0.1915   0.00    0.0
2091   4710.000   4121947.7252   2652190.3344   4069023.9745   6   3   0.1977   0.3273   0.2446  -0.1259   0.0534   0.1907   0.00    0.0
2091   4740.000   4121947.7240   2652190.3351   4069023.9892   6   4   0.1963   0.3231   0.2425  -0.1218   0.0591   0.1892   0.00    0.0
2091   4770.000   4121947.7333   2652190.3251   4069024.0197   6   4   0.1941   0.3181   0.2366  -0.1161   0.0699   0.1856   0.00    0.0
2091   4800.000   4121947.7608   2652190.2777   4069024.0764   6   3   0.1900   0.3108   0.2221  -0.1075   0.0896   0.1771   0.00    0.0
2091   4830.000   4121947.7792   2652190.2332   4069024.1046   6   4   0.1887   0.3049   0.2194  -0.1020   0.0943   0.1754   0.00    0.0
2091   4860.000   4121947.7855   2652190.2158   4069024.1161   6   5   0.1875   0.2994   0.2183  -0.0964   0.0970   0.1745   0.00    0.0
2091   4890.000   4121947.7929   2652190.1972   4069024.1259   6   5   0.1866   0.2943   0.2175  -0.0912   0.0991   0.1739   0.00    0.0
2091   4920.000   4121947.8005   2652190.1778   4069024.1348   6   4   0.1859   0.2901   0.2169  -0.0870   0.1009   0.1734   0.00    0.0
2091   4950.000   4121947.8090   2652190.1570   4069024.1441   6   5   0.1851   0.2857   0.2164  -0.0821   0.1024   0.1730   0.00    0.0
2091   4980.000   4121947.8171   2652190.1361   4069024.1530   6   5   0.1843   0.2815   0.2157  -0.0772   0.1039   0.1725   0.00    0.0
2091   5010.000   4121947.8245   2652190.1159   4069024.1607   6   5   0.1834   0.2773   0.2146  -0.0722   0.1055   0.1718   0.00    0.0
2091   5040.000   4121947.8308   2652190.0989   4069024.1669   6   5   0.1824   0.2729   0.2124  -0.0667   0.1075   0.1706   0.00    0.0
2091   5070.000   4121947.8313   2652190.0815   4069024.1576   6   4   0.1810   0.2679   0.2067  -0.0604   0.1113   0.1676   0.00    0.0
2091   5100.000   4121947.8369   2652190.0065   4069024.1667   6   5   0.1781   0.2599   0.1924  -0.0478   0.1199   0.1608   0.00    0.0
2091   5130.000   4121947.8417   2652189.9923   4069024.1700   6   4   0.1774   0.2566   0.1902  -0.0425   0.1210   0.1598   0.00    0.0
2091   5160.000   4121947.8467   2652189.9748   4069024.1739   6   4   0.1770   0.2539   0.1894  -0.0378   0.1214   0.1594   0.00    0.0
2091   5190.000   4121947.8514   2652189.9599   4069024.1777   6   4   0.1767   0.2515   0.1890  -0.0330   0.1217   0.1592   0.00    0.0
2091   5220.000   4121947.8562   2652189.9466   4069024.1827   6   4   0.1764   0.2493   0.1886  -0.0277   0.1218   0.1590   0.00    0.0
2091   5250.000   4121947.8603   2652189.9346   4069024.1867   6   4   0.1761   0.2471   0.1884  -0.0216   0.1220   0.1589   0.00    0.0
2091   5280.000   4121947.8643   2652189.9219   4069024.1908   6   4   0.1758   0.2450   0.1880  -0.0132   0.1221   0.1587   0.00    0.0
2091   5310.000   4121947.8688   2652189.9148   4069024.1961   6   4   0.1755   0.2427   0.1873   0.0105   0.1222   0.1585   0.00    0.0
2091   5340.000   4121947.8729   2652189.9086   4069024.2004   6   4   0.1751   0.2399   0.1860   0.0198   0.1224   0.1579   0.00    0.0
2091   5370.000   4121947.8729   2652189.8860   4069024.1927   6   4   0.1745   0.2355   0.1835   0.0276   0.1237   0.1569   0.00    0.0
2091   5400.000   4121947.8746   2652189.7758   4069024.1916   6   5   0.1732   0.2259   0.1758   0.0359   0.1261   0.1537   0.00    0.0
2091   5430.000   4121947.8804   2652189.7309   4069024.1967   6   5   0.1727   0.2228   0.1744   0.0396   0.1262   0.1531   0.00    0.0
2091   5460.000   4121947.8850   2652189.7108   4069024.2027   6   5   0.1723   0.2208   0.1739   0.0426   0.1261   0.1530   0.00    0.0
2091   5490.000   4121947.8891   2652189.6994   4069024.2073   6   5   0.1720   0.2190   0.1737   0.0453   0.1259   0.1529   0.00    0.0
2091   5520.000   4121947.8905   2652189.6919   4069024.2084   6   4   0.1718   0.2176   0.1735   0.0471   0.1258   0.1528   0.00    0.0
2091   5550.000   4121947.8921   2652189.6887   4069024.2103   6   3   0.1717   0.2163   0.1734   0.0488   0.1258   0.1528   0.00    0.0
2091   5580.000   4121947.8944   2652189.6865   4069024.2152   6   4   0.1715   0.2149   0.1731   0.0504   0.1256   0.1528   0.00    0.0
2091   5610.000   4121947.8972   2652189.6800   4069024.2230   6   4   0.1713   0.2133   0.1728   0.0517   0.1254   0.1526   0.00    0.0
2091   5640.000   4121947.8992   2652189.6672   4069024.2287   6   3   0.1710   0.2112   0.1720   0.0527   0.1251   0.1523   0.00    0.0
2091   5670.000   4121947.9004   2652189.6411   4069024.2343   6   4   0.1705   0.2067   0.1697   0.0524   0.1239   0.1514   0.00    0.0
2091   5700.000   4121947.8677   2652189.4841   4069024.1669   6   4   0.1693   0.1950   0.1622   0.0474   0.1194   0.1483   0.00    0.0
2091   5730.000   4121947.8604   2652189.4461   4069024.1542   6   4   0.1690   0.1923   0.1609   0.0474   0.1185   0.1478   0.00    0.0
2091   5760.000   4121947.8580   2652189.4365   4069024.1515   6   4   0.1688   0.1909   0.1605   0.0482   0.1181   0.1476   0.00    0.0
2091   5790.000   4121947.8552   2652189.4390   4069024.1514   6   5   0.1685   0.1896   0.1602   0.0497   0.1179   0.1475   0.00    0.0
2091   5820.000   4121947.8542   2652189.4399   4069024.1511   6   3   0.1683   0.1887   0.1601   0.0507   0.1178   0.1474   0.00    0.0
2091   5850.000   4121947.8534   2652189.4412   4069024.1516   6   3   0.1682   0.1878   0.1600   0.0516   0.1177   0.1474   0.00    0.0
2091   5880.000   4121947.8565   2652189.4344   4069024.1521   6   5   0.1679   0.1867   0.1598   0.0529   0.1175   0.1473   0.00    0.0
2091   5910.000   4121947.8537   2652189.4292   4069024.1507   6   4   0.1677   0.1856   0.1595   0.0535   0.1172   0.1472   0.00    0.0
2091   5940.000   4121947.8497   2652189.4175   4069024.1483   6   4   0.1675   0.1838   0.1588   0.0535   0.1165   0.1469   0.00    0.0
2091   5970.000   4121947.8271   2652189.3487   4069024.1116   6   4   0.1669   0.1798   0.1568   0.0516   0.1144   0.1460   0.00    0.0
2091   6000.000   4121947.7851   2652189.2296   4069024.0360   6   4   0.1656   0.1685   0.1502   0.0423   0.1074   0.1430   0.00    0.0
2091   6030.000   4121947.7764   2652189.1936   4069024.0182   6   5   0.1651   0.1661   0.1490   0.0419   0.1062   0.1425   0.00    0.0
2091   6060.000   4121947.7715   2652189.1871   4069024.0144   6   3   0.1649   0.1650   0.1487   0.0423   0.1059   0.1423   0.00    0.0
2091   6090.000   4121947.7699   2652189.1821   4069024.0120   6   5   0.1647   0.1641   0.1485   0.0433   0.1057   0.1422   0.00    0.0
2091   6120.000   4121947.7673   2652189.1828   4069024.0120   6   4   0.1645   0.1635   0.1483   0.0441   0.1056   0.1421   0.00    0.0
2091   6150.000   4121947.7651   2652189.1847   4069024.0126   6   4   0.1643   0.1629   0.1483   0.0448   0.1055   0.1421   0.00    0.0
2091   6180.000   4121947.7630   2652189.1865   4069024.0134   6   4   0.1642   0.1623   0.1481   0.0455   0.1054   0.1420   0.00    0.0
2091   6210.000   4121947.7596   2652189.1847   4069024.0124   6   4   0.1640   0.1615   0.1479   0.0459   0.1051   0.1419   0.00    0.0
2091   6240.000   4121947.7551   2652189.1766   4069024.0098   6   3   0.1637   0.1602   0.1473   0.0457   0.1045   0.1416   0.00    0.0
2091   6270.000   4121947.7466   2652189.1503   4069024.0059   6   3   0.1632   0.1572   0.1458   0.0434   0.1026   0.1408   0.00    0.0
2091   6300.000   4121947.6957   2652189.0306   4069023.9224   6   4   0.1619   0.1484   0.1407   0.0328   0.0962   0.1384   0.00    0.0
2091   6330.000   4121947.6729   2652188.9902   4069023.8812   6   3   0.1615   0.1467   0.1398   0.0317   0.0952   0.1379   0.00    0.0
2091   6360.000   4121947.6627   2652188.9748   4069023.8674   6   4   0.1613   0.1459   0.1395   0.0320   0.0949   0.1378   0.00    0.0
2091   6390.000   4121947.6574   2652188.9701   4069023.8614   6   3   0.1611   0.1454   0.1394   0.0327   0.0948   0.1377   0.00    0.0
2091   6420.000   4121947.6538   2652188.9694   4069023.8588   6   4   0.1610   0.1450   0.1393   0.0334   0.0948   0.1376   0.00    0.0
2091   6450.000   4121947.6517   2652188.9714   4069023.8585   6   4   0.1608   0.1446   0.1392   0.0342   0.0948   0.1375   0.00    0.0
2091   6480.000   4121947.6506   2652188.9729   4069023.8586   6   3   0.1606   0.1443   0.1392   0.0351   0.0948   0.1375   0.00    0.0
2091   6510.000   4121947.6492   2652188.9733   4069023.8593   6   4   0.1605   0.1441   0.1391   0.0360   0.0949   0.1374   0.00    0.0
2091   6540.000   4121947.6486   2652188.9741   4069023.8596   6   3   0.1603   0.1438   0.1389   0.0369   0.0950   0.1373   0.00    0.0
2091   6570.000   4121947.6470   2652188.9752   4069023.8568   6   3   0.1601   0.1435   0.1385   0.0377   0.0951   0.1372   0.00    0.0
2091   6600.000   4121947.6457   2652188.9773   4069023.8537   6   3   0.1599   0.1432   0.1370   0.0386   0.0954   0.1369   0.00    0.0
2091   6630.000   4121947.6454   2652188.9791   4069023.8540   6   3   0.1598   0.1429   0.1367   0.0394   0.0955   0.1368   0.00    0.0
2091   6660.000   4121947.6445   2652188.9796   4069023.8541   6   4   0.1596   0.1427   0.1366   0.0401   0.0956   0.1367   0.00    0.0
2091   6690.000   4121947.6447   2652188.9804   4069023.8557   6   3   0.1595   0.1424   0.1366   0.0408   0.0956   0.1367   0.00    0.0
2091   6720.000   4121947.6441   2652188.9809   4069023.8569   6   4   0.1593   0.1422   0.1365   0.0415   0.0957   0.1366   0.00    0.0
2091   6750.000   4121947.6427   2652188.9814   4069023.8572   6   4   0.1592   0.1419   0.1365   0.0421   0.0958   0.1366   0.00    0.0
2091   6780.000   4121947.6418   2652188.9826   4069023.8575   6   3   0.1591   0.1417   0.1365   0.0428   0.0958   0.1366   0.00    0.0
2091   6810.000   4121947.6406   2652188.9837   4069023.8577   6   3   0.1589   0.1414   0.1364   0.0434   0.0958   0.1365   0.00    0.0
2091   6840.000   4121947.6386   2652188.9840   4069023.8586   6   4   0.1588   0.1411   0.1363   0.0439   0.0959   0.1365   0.00    0.0
2091   6870.000   4121947.6336   2652188.9808   4069023.8520   6   4   0.1586   0.1408   0.1360   0.0443   0.0959   0.1364   0.00    0.0
2091   6900.000   4121947.6321   2652188.9822   4069023.8500   6   3   0.1583   0.1401   0.1350   0.0442   0.0957   0.1361   0.00    0.0
2091   6930.000   4121947.6319   2652188.9847   4069023.8511   6   3   0.1582   0.1398   0.1349   0.0447   0.0958   0.1361   0.00    0.0
2091   6960.000   4121947.6311   2652188.9853   4069023.8504   6   3   0.1581   0.1395   0.1348   0.0452   0.0958   0.1360   0.00    0.0
2091   6990.000   4121947.6310   2652188.9858   4069023.8501   6   3   0.1579   0.1393   0.1348   0.0457   0.0958   0.1360   0.00    0.0
2091   7020.000   4121947.6311   2652188.9862   4069023.8504   6   3   0.1578   0.1391   0.1347   0.0462   0.0959   0.1359   0.00    0.0
2091   7050.000   4121947.6312   2652188.9859   4069023.8505   6   3   0.1577   0.1389   0.1347   0.0467   0.0959   0.1359   0.00    0.0
2091   7080.000   4121947.6314   2652188.9854   4069023.8506   6   3   0.1575   0.1386   0.1347   0.0472   0.0959   0.1359   0.00    0.0
2091   7110.000   4121947.6315   2652188.9845   4069023.8496   6   3   0.1574   0.1384   0.1347   0.0476   0.0960   0.1358   0.00    0.0
2091   7140.000   4121947.6321   2652188.9844   4069023.8484   6   3   0.1572   0.1381   0.1346   0.0480   0.0959   0.1358   0.00    0.0
2091   7170.000   4121947.6351   2652188.9887   4069023.8516   6   3   0.1570   0.1376   0.1343   0.0480   0.0958   0.1356   0.00    0.0
2091   7200.000   4121947.6343   2652188.9864   4069023.8503   6   3   0.1566   0.1364   0.1336   0.0469   0.0951   0.1353   0.00    0.0
2091   7230.000   4121947.6328   2652188.9831   4069023.8485   6   3   0.1565   0.1360   0.1335   0.0471   0.0950   0.1352   0.00    0.0
2091   7290.000   4121947.6317   2652188.9809   4069023.8461   6   3   0.1563   0.1358   0.1334   0.0475   0.0950   0.1352   0.00    0.0
2091   7320.000   4121947.6311   2652188.9799   4069023.8447   6   3   0.1562   0.1356   0.1334   0.0479   0.0951   0.1352   0.00    0.0
2091   7350.000   4121947.6306   2652188.9795   4069023.8440   6   3   0.1561   0.1354   0.1334   0.0483   0.0951   0.1351   0.00    0.0
2091   7470.000   4121947.6244   2652188.9752   4069023.8364   6   4   0.1558   0.1346   0.1332   0.0484   0.0949   0.1350   0.00    0.0
2091   7500.000   4121947.6158   2652188.9678   4069023.8260   6   4   0.1551   0.1329   0.1326   0.0468   0.0939   0.1346   0.00    0.0
2091   7530.000   4121947.6137   2652188.9737   4069023.8215   6   4   0.1549   0.1323   0.1325   0.0470   0.0937   0.1345   0.00    0.0
2091   7560.000   4121947.6119   2652188.9839   4069023.8224   6   4   0.1547   0.1319   0.1324   0.0476   0.0938   0.1344   0.00    0.0
2091   7590.000   4121947.6081   2652188.9897   4069023.8217   6   4   0.1545   0.1316   0.1324   0.0483   0.0938   0.1343   0.00    0.0
2091   7620.000   4121947.6050   2652188.9948   4069023.8215   6   4   0.1543   0.1313   0.1324   0.0489   0.0939   0.1343   0.00    0.0
2091   7650.000   4121947.6019   2652188.9996   4069023.8213   6   4   0.1541   0.1310   0.1324   0.0495   0.0940   0.1342   0.00    0.0
2091   7680.000   4121947.5988   2652189.0043   4069023.8211   6   4   0.1539   0.1308   0.1323   0.0501   0.0941   0.1342   0.00    0.0
2091   7710.000   4121947.5951   2652189.0093   4069023.8207   6   4   0.1538   0.1305   0.1323   0.0507   0.0941   0.1341   0.00    0.0
2091   7740.000   4121947.5885   2652189.0190   4069023.8193   6   4   0.1536   0.1302   0.1323   0.0513   0.0942   0.1341   0.00    0.0
2091   7770.000   4121947.5829   2652189.0302   4069023.8176   6   4   0.1533   0.1299   0.1323   0.0517   0.0943   0.1341   0.00    0.0
2091   7800.000   4121947.5781   2652189.0422   4069023.8163   6   4   0.1529   0.1295   0.1323   0.0518   0.0943   0.1340   0.00    0.0
2091   7830.000   4121947.5685   2652189.0520   4069023.8148   6   4   0.1527   0.1292   0.1323   0.0522   0.0944   0.1340   0.00    0.0
2091   7860.000   4121947.5610   2652189.0625   4069023.8134   6   4   0.1525   0.1290   0.1323   0.0527   0.0945   0.1339   0.00    0.0
2091   7890.000   4121947.5548   2652189.0730   4069023.8124   6   4   0.1524   0.1287   0.1322   0.0532   0.0945   0.1339   0.00    0.0
2091   7920.000   4121947.5479   2652189.0827   4069023.8112   6   4   0.1522   0.1285   0.1322   0.0537   0.0946   0.1338   0.00    0.0
2091   7950.000   4121947.5414   2652189.0920   4069023.8102   6   4   0.1520   0.1283   0.1322   0.0542   0.0946   0.1338   0.00    0.0
2091   7980.000   4121947.5356   2652189.1011   4069023.8093   6   4   0.1519   0.1280   0.1322   0.0546   0.0947   0.1337   0.00    0.0
2091   8010.000   4121947.5299   2652189.1101   4069023.8085   6   4   0.1517   0.1278   0.1322   0.0551   0.0947   0.1337   0.00    0.0
2091   8040.000   4121947.5272   2652189.1182   4069023.8086   6   5   0.1515   0.1275   0.1322   0.0555   0.0948   0.1336   0.00    0.0
2091   8070.000   4121947.5277   2652189.1255   4069023.8103   6   5   0.1512   0.1271   0.1321   0.0559   0.0948   0.1335   0.00    0.0
2091   8100.000   4121947.5340   2652189.1284   4069023.8146   6   5   0.1505   0.1266   0.1320   0.0557   0.0948   0.1332   0.00    0.0
2091   8130.000   4121947.5366   2652189.1275   4069023.8159   6   5   0.1503   0.1263   0.1320   0.0562   0.0948   0.1331   0.00    0.0
2091   8160.000   4121947.5386   2652189.1247   4069023.8165   6   5   0.1501   0.1261   0.1320   0.0567   0.0949   0.1331   0.00    0.0
2091   8190.000   4121947.5407   2652189.1220   4069023.8173   6   5   0.1499   0.1258   0.1319   0.0571   0.0949   0.1330   0.00    0.0
2091   8220.000   4121947.5423   2652189.1201   4069023.8179   6   5   0.1498   0.1256   0.1319   0.0576   0.0950   0.1330   0.00    0.0
2091   8250.000   4121947.5434   2652189.1190   4069023.8185   6   5   0.1496   0.1253   0.1319   0.0580   0.0951   0.1329   0.00    0.0
2091   8280.000   4121947.5442   2652189.1181   4069023.8188   6   5   0.1495   0.1251   0.1319   0.0584   0.0951   0.1329   0.00    0.0
2091   8310.000   4121947.5447   2652189.1173   4069023.8191   6   5   0.1493   0.1248   0.1319   0.0589   0.0952   0.1328   0.00    0.0
2091   8340.000   4121947.5432   2652189.1162   4069023.8179   6   5   0.1491   0.1246   0.1319   0.0593   0.0952   0.1328   0.00    0.0
2091   8370.000   4121947.5432   2652189.1153   4069023.8179   6   5   0.1489   0.1243   0.1318   0.0597   0.0953   0.1327   0.00    0.0
2091   8400.000   4121947.5541   2652189.1141   4069023.8254   6   5   0.1485   0.1241   0.1317   0.0601   0.0953   0.1325   0.00    0.0
2091   8430.000   4121947.5595   2652189.1129   4069023.8289   6   5   0.1483   0.1238   0.1316   0.0605   0.0954   0.1324   0.00    0.0
2091   8460.000   4121947.5611   2652189.1122   4069023.8299   6   5   0.1482   0.1236   0.1316   0.0608   0.0954   0.1323   0.00    0.0
2091   8490.000   4121947.5636   2652189.1108   4069023.8312   6   5   0.1480   0.1234   0.1316   0.0612   0.0955   0.1323   0.00    0.0
2091   8520.000   4121947.5655   2652189.1095   4069023.8320   6   5   0.1479   0.1232   0.1316   0.0615   0.0955   0.1323   0.00    0.0
2091   8550.000   4121947.5674   2652189.1083   4069023.8329   6   5   0.1478   0.1230   0.1316   0.0619   0.0956   0.1322   0.00    0.0
2091   8580.000   4121947.5690   2652189.1074   4069023.8337   6   5   0.1477   0.1228   0.1316   0.0622   0.0956   0.1322   0.00    0.0
2091   8610.000   4121947.5705   2652189.1066   4069023.8344   6   5   0.1475   0.1226   0.1315   0.0625   0.0957   0.1321   0.00    0.0
2091   8640.000   4121947.5715   2652189.1063   4069023.8350   6   5   0.1474   0.1224   0.1315   0.0629   0.0957   0.1321   0.00    0.0
2091   8670.000   4121947.5721   2652189.1068   4069023.8358   6   5   0.1473   0.1221   0.1315   0.0632   0.0957   0.1321   0.00    0.0
2091   8700.000   4121947.5733   2652189.1048   4069023.8357   6   5   0.1471   0.1218   0.1315   0.0635   0.0957   0.1320   0.00    0.0
2091   8730.000   4121947.5739   2652189.1051   4069023.8363   6   5   0.1470   0.1216   0.1315   0.0638   0.0957   0.1320   0.00    0.0
2091   8760.000   4121947.5737   2652189.1059   4069023.8365   6   5   0.1469   0.1214   0.1314   0.0641   0.0958   0.1320   0.00    0.0
2091   8790.000   4121947.5739   2652189.1061   4069023.8366   6   5   0.1468   0.1212   0.1314   0.0644   0.0958   0.1319   0.00    0.0
2091   8820.000   4121947.5738   2652189.1066   4069023.8368   6   4   0.1467   0.1210   0.1314   0.0646   0.0958   0.1319   0.00    0.0
2091   8850.000   4121947.5745   2652189.1063   4069023.8371   6   5   0.1466   0.1208   0.1314   0.0649   0.0959   0.1319   0.00    0.0
2091   8880.000   4121947.5747   2652189.1067   4069023.8373   6   4   0.1465   0.1207   0.1314   0.0651   0.0959   0.1318   0.00    0.0
2091   8910.000   4121947.5756   2652189.1061   4069023.8376   6   5   0.1464   0.1205   0.1314   0.0654   0.0959   0.1318   0.00    0.0
2091   8940.000   4121947.5752   2652189.1073   4069023.8379   6   3   0.1463   0.1203   0.1314   0.0656   0.0960   0.1318   0.00    0.0
2091   8970.000   4121947.5769   2652189.1057   4069023.8384   6   5   0.1461   0.1201   0.1314   0.0658   0.0960   0.1317   0.00    0.0
2091   9000.000   4121947.5790   2652189.1041   4069023.8393   6   5   0.1460   0.1197   0.1313   0.0660   0.0959   0.1316   0.00    0.0
2091   9030.000   4121947.5808   2652189.1031   4069023.8405   6   5   0.1458   0.1195   0.1313   0.0662   0.0960   0.1316   0.00    0.0
2091   9060.000   4121947.5814   2652189.1035   4069023.8412   6   4   0.1457   0.1194   0.1313   0.0665   0.0960   0.1316   0.00    0.0
2091   9090.000   4121947.5819   2652189.1038   4069023.8417   6   5   0.1456   0.1192   0.1313   0.0667   0.0960   0.1315   0.00    0.0
2091   9120.000   4121947.5823   2652189.1044   4069023.8422   6   4   0.1455   0.1190   0.1312   0.0669   0.0961   0.1315   0.00    0.0
2091   9150.000   4121947.5826   2652189.1049   4069023.8427   6   5   0.1454   0.1189   0.1312   0.0671   0.0961   0.1315   0.00    0.0
2091   9180.000   4121947.5824   2652189.1064   4069023.8431   6   3   0.1454   0.1188   0.1312   0.0673   0.0961   0.1315   0.00    0.0
2091   9210.000   4121947.5820   2652189.1082   4069023.8435   6   4   0.1453   0.1187   0.1312   0.0674   0.0961   0.1314   0.00    0.0
2091   9240.000   4121947.5781   2652189.1136   4069023.8431   6   4   0.1452   0.1185   0.1312   0.0676   0.0961   0.1314   0.00    0.0
2091   9270.000   4121947.5761   2652189.1181   4069023.8434   6   5   0.1450   0.1183   0.1311   0.0677   0.0961   0.1313   0.00    0.0
2091   9300.000   4121947.5733   2652189.1150   4069023.8394   6   5   0.1447   0.1178   0.1309   0.0677   0.0959   0.1311   0.00    0.0
2091   9330.000   4121947.5702   2652189.1165   4069023.8379   6   5   0.1446   0.1177   0.1309   0.0678   0.0958   0.1310   0.00    0.0
2091   9360.000   4121947.5683   2652189.1182   4069023.8373   6   4   0.1445   0.1175   0.1308   0.0680   0.0958   0.1310   0.00    0.0
2091   9390.000   4121947.5674   2652189.1197   4069023.8373   6   5   0.1444   0.1174   0.1308   0.0682   0.0959   0.1309   0.00    0.0
2091   9420.000   4121947.5673   2652189.1210   4069023.8376   6   5   0.1443   0.1172   0.1308   0.0684   0.0959   0.1309   0.00    0.0
2091   9450.000   4121947.5675   2652189.1218   4069023.8379   6   4   0.1442   0.1171   0.1308   0.0685   0.0959   0.1309   0.00    0.0
2091   9480.000   4121947.5699   2652189.1212   4069023.8391   6   4   0.1441   0.1170   0.1308   0.0687   0.0959   0.1309   0.00    0.0
2091   9510.000   4121947.5724   2652189.1211   4069023.8405   6   5   0.1440   0.1168   0.1308   0.0689   0.0960   0.1308   0.00    0.0
2091   9540.000   4121947.5765   2652189.1215   4069023.8430   6   5   0.1439   0.1167   0.1308   0.0691   0.0960   0.1308   0.00    0.0
2091   9570.000   4121947.5822   2652189.1228   4069023.8464   6   5   0.1437   0.1166   0.1307   0.0692   0.0960   0.1307   0.00    0.0
2091   9600.000   4121947.5900   2652189.1249   4069023.8509   6   5   0.1433   0.1164   0.1306   0.0693   0.0960   0.1304   0.00    0.0
2091   9630.000   4121947.5922   2652189.1259   4069023.8524   6   4   0.1431   0.1163   0.1305   0.0694   0.0960   0.1303   0.00    0.0
2091   9660.000   4121947.5929   2652189.1269   4069023.8530   6   5   0.1430   0.1162   0.1305   0.0696   0.0960   0.1303   0.00    0.0
2091   9690.000   4121947.5938   2652189.1276   4069023.8538   6   4   0.1429   0.1160   0.1305   0.0698   0.0960   0.1303   0.00    0.0
2091   9720.000   4121947.5947   2652189.1282   4069023.8544   6   4   0.1428   0.1159   0.1305   0.0699   0.0961   0.1303   0.00    0.0
2091   9750.000   4121947.5949   2652189.1291   4069023.8548   6   4   0.1428   0.1158   0.1305   0.0701   0.0961   0.1302   0.00    0.0
2091   9780.000   4121947.5939   2652189.1317   4069023.8552   6   4   0.1427   0.1157   0.1305   0.0702   0.0961   0.1302   0.00    0.0
2091   9810.000   4121947.5944   2652189.1342   4069023.8564   6   5   0.1426   0.1155   0.1305   0.0704   0.0961   0.1302   0.00    0.0
2091   9840.000   4121947.5964   2652189.1371   4069023.8586   6   4   0.1425   0.1154   0.1304   0.0705   0.0961   0.1302   0.00    0.0
2091   9870.000   4121947.6058   2652189.1396   4069023.8644   6   4   0.1423   0.1153   0.1304   0.0706   0.0961   0.1301   0.00    0.0
2091   9900.000   4121947.6165   2652189.1414   4069023.8708   6   4   0.1417   0.1152   0.1302   0.0707   0.0961   0.1297   0.00    0.0
2091   9930.000   4121947.6218   2652189.1429   4069023.8742   6   4   0.1415   0.1151   0.1302   0.0709   0.0961   0.1296   0.00    0.0
2091   9960.000   4121947.6245   2652189.1441   4069023.8761   6   3   0.1415   0.1150   0.1301   0.0709   0.0962   0.1296   0.00    0.0
2091   9990.000   4121947.6240   2652189.1458   4069023.8765   6   4   0.1414   0.1149   0.1301   0.0711   0.0962   0.1296   0.00    0.0
2091  10020.000   4121947.6235   2652189.1477   4069023.8768   6   4   0.1413   0.1148   0.1301   0.0712   0.0962   0.1296   0.00    0.0
2091  10050.000   4121947.6232   2652189.1493   4069023.8773   6   5   0.1412   0.1147   0.1301   0.0713   0.0962   0.1295   0.00    0.0
2091  10080.000   4121947.6228   2652189.1505   4069023.8773   6   5   0.1412   0.1145   0.1301   0.0715   0.0962   0.1295   0.00    0.0
2091  10110.000   4121947.6230   2652189.1509   4069023.8773   6   3   0.1411   0.1145   0.1301   0.0715   0.0962   0.1295   0.00    0.0
2091  10140.000   4121947.6250   2652189.1513   4069023.8779   6   4   0.1410   0.1143   0.1300   0.0716   0.0962   0.1294   0.00    0.0
2091  10170.000   4121947.6357   2652189.1466   4069023.8807   6   3   0.1408   0.1141   0.1299   0.0716   0.0961   0.1293   0.00    0.0
2091  10200.000   4121947.6437   2652189.1450   4069023.8838   6   3   0.1399   0.1137   0.1295   0.0715   0.0958   0.1287   0.00    0.0
2091  10230.000   4121947.6465   2652189.1411   4069023.8829   6   4   0.1397   0.1135   0.1294   0.0715   0.0957   0.1286   0.00    0.0
2091  10260.000   4121947.6485   2652189.1400   4069023.8830   6   4   0.1396   0.1134   0.1293   0.0716   0.0957   0.1285   0.00    0.0
2091  10290.000   4121947.6489   2652189.1402   4069023.8832   6   5   0.1395   0.1133   0.1293   0.0717   0.0957   0.1285   0.00    0.0
2091  10320.000   4121947.6476   2652189.1415   4069023.8827   6   3   0.1395   0.1132   0.1293   0.0718   0.0957   0.1285   0.00    0.0
2091  10350.000   4121947.6468   2652189.1432   4069023.8827   6   3   0.1394   0.1132   0.1293   0.0719   0.0957   0.1285   0.00    0.0
2091  10380.000   4121947.6464   2652189.1442   4069023.8827   6   4   0.1394   0.1130   0.1293   0.0719   0.0957   0.1284   0.00    0.0
2091  10410.000   4121947.6454   2652189.1456   4069023.8825   6   4   0.1393   0.1129   0.1292   0.0720   0.0957   0.1284   0.00    0.0
2091  10440.000   4121947.6442   2652189.1468   4069023.8820   6   3   0.1392   0.1128   0.1292   0.0720   0.0956   0.1283   0.00    0.0
2091  10470.000   4121947.6439   2652189.1487   4069023.8825   6   3   0.1390   0.1126   0.1289   0.0717   0.0953   0.1281   0.00    0.0
2091  10500.000   4121947.6341   2652189.1437   4069023.8736   6   4   0.1381   0.1118   0.1280   0.0704   0.0943   0.1271   0.00    0.0
2091  10530.000   4121947.6328   2652189.1447   4069023.8730   6   3   0.1379   0.1116   0.1278   0.0702   0.0941   0.1269   0.00    0.0
2091  10560.000   4121947.6320   2652189.1460   4069023.8730   6   3   0.1378   0.1115   0.1277   0.0702   0.0941   0.1269   0.00    0.0
2091  10590.000   4121947.6317   2652189.1477   4069023.8733   6   3   0.1378   0.1114   0.1277   0.0702   0.0940   0.1268   0.00    0.0
2091  10620.000   4121947.6308   2652189.1487   4069023.8730   6   3   0.1377   0.1113   0.1277   0.0703   0.0940   0.1268   0.00    0.0
2091  10680.000   4121947.6294   2652189.1487   4069023.8719   6   3   0.1377   0.1112   0.1276   0.0703   0.0940   0.1268   0.00    0.0
2091  10710.000   4121947.6252   2652189.1459   4069023.8676   6   3   0.1376   0.1111   0.1276   0.0703   0.0939   0.1267   0.00    0.0
2091  10740.000   4121947.6164   2652189.1384   4069023.8582   6   3   0.1375   0.1109   0.1275   0.0702   0.0938   0.1266   0.00    0.0
2091  10770.000   4121947.6031   2652189.1256   4069023.8432   6   3   0.1372   0.1105   0.1271   0.0697   0.0933   0.1263   0.00    0.0
2091  10800.000   4121947.5877   2652189.1034   4069023.8220   6   3   0.1359   0.1090   0.1255   0.0675   0.0915   0.1248   0.00    0.0
2091  10890.000   4121947.5877   2652189.1046   4069023.8224   6   3   0.1359   0.1089   0.1255   0.0675   0.0914   0.1248   0.00    0.0
2091  10950.000   4121947.5877   2652189.1062   4069023.8229   6   3   0.1358   0.1088   0.1254   0.0675   0.0914   0.1247   0.00    0.0
2091  10980.000   4121947.5876   2652189.1084   4069023.8237   6   3   0.1358   0.1087   0.1254   0.0675   0.0914   0.1247   0.00    0.0
2091  11010.000   4121947.5876   2652189.1110   4069023.8248   6   3   0.1357   0.1086   0.1253   0.0675   0.0913   0.1246   0.00    0.0
2091  11040.000   4121947.5869   2652189.1122   4069023.8248   6   3   0.1355   0.1083   0.1251   0.0673   0.0910   0.1245   0.00    0.0
2091  11070.000   4121947.5858   2652189.1084   4069023.8219   6   3   0.1351   0.1077   0.1245   0.0665   0.0903   0.1240   0.00    0.0
2091  11130.000   4121947.5789   2652189.1003   4069023.8132   6   3   0.1346   0.1069   0.1239   0.0657   0.0895   0.1234   0.00    0.0
2091  11400.000   4121947.5804   2652189.0313   4069023.7796   6   4   0.1320   0.1025   0.1203   0.0608   0.0846   0.1204   0.00    0.0
2091  11430.000   4121947.5807   2652189.0161   4069023.7726   6   4   0.1315   0.1017   0.1196   0.0601   0.0838   0.1198   0.00    0.0
2091  11460.000   4121947.5824   2652189.0123   4069023.7716   6   4   0.1313   0.1013   0.1194   0.0599   0.0836   0.1196   0.00    0.0
2091  11490.000   4121947.5838   2652189.0094   4069023.7710   6   4   0.1312   0.1011   0.1193   0.0599   0.0835   0.1195   0.00    0.0
2091  11520.000   4121947.5855   2652189.0064   4069023.7706   6   4   0.1311   0.1010   0.1193   0.0599   0.0834   0.1195   0.00    0.0
2091  11550.000   4121947.5870   2652189.0034   4069023.7700   6   4   0.1310   0.1009   0.1192   0.0600   0.0834   0.1194   0.00    0.0
2091  11580.000   4121947.5894   2652188.9961   4069023.7685   6   5   0.1309   0.1006   0.1192   0.0601   0.0833   0.1194   0.00    0.0
2091  11610.000   4121947.5915   2652188.9889   4069023.7668   6   5   0.1307   0.1004   0.1190   0.0601   0.0832   0.1192   0.00    0.0
2091  11640.000   4121947.5923   2652188.9782   4069023.7625   6   5   0.1305   0.0999   0.1188   0.0599   0.0828   0.1190   0.00    0.0
2091  11670.000   4121947.5885   2652188.9485   4069023.7461   6   5   0.1299   0.0987   0.1180   0.0590   0.0818   0.1183   0.00    0.0
2091  11700.000   4121947.5777   2652188.8847   4069023.7073   6   4   0.1278   0.0951   0.1153   0.0555   0.0780   0.1161   0.00    0.0
2091  11730.000   4121947.5764   2652188.8800   4069023.7049   6   4   0.1274   0.0944   0.1148   0.0549   0.0773   0.1156   0.00    0.0
2091  11760.000   4121947.5783   2652188.8762   4069023.7050   6   5   0.1272   0.0941   0.1146   0.0549   0.0772   0.1155   0.00    0.0
2091  11790.000   4121947.5816   2652188.8714   4069023.7054   6   5   0.1271   0.0939   0.1145   0.0550   0.0771   0.1154   0.00    0.0
2091  11820.000   4121947.5844   2652188.8665   4069023.7054   6   5   0.1270   0.0937   0.1145   0.0551   0.0771   0.1153   0.00    0.0
2091  11850.000   4121947.5870   2652188.8617   4069023.7054   6   5   0.1269   0.0935   0.1145   0.0552   0.0771   0.1153   0.00    0.0
2091  11880.000   4121947.5893   2652188.8556   4069023.7044   6   5   0.1268   0.0934   0.1144   0.0553   0.0770   0.1152   0.00    0.0
2091  11910.000   4121947.5918   2652188.8487   4069023.7031   6   5   0.1267   0.0931   0.1143   0.0553   0.0770   0.1151   0.00    0.0
2091  11940.000   4121947.5939   2652188.8390   4069023.7001   6   5   0.1264   0.0928   0.1141   0.0553   0.0767   0.1150   0.00    0.0
2091  11970.000   4121947.5948   2652188.8070   4069023.6850   6   5   0.1260   0.0918   0.1136   0.0547   0.0760   0.1145   0.00    0.0
2091  12000.000   4121947.5860   2652188.7456   4069023.6491   6   5   0.1243   0.0888   0.1116   0.0525   0.0732   0.1128   0.00    0.0
2091  12030.000   4121947.5912   2652188.7361   4069023.6480   6   5   0.1239   0.0882   0.1113   0.0522   0.0727   0.1125   0.00    0.0
2091  12060.000   4121947.5948   2652188.7294   4069023.6472   6   5   0.1237   0.0879   0.1112   0.0523   0.0726   0.1124   0.00    0.0
2091  12090.000   4121947.5973   2652188.7244   4069023.6466   6   5   0.1236   0.0878   0.1111   0.0523   0.0726   0.1123   0.00    0.0
2091  12120.000   4121947.5997   2652188.7220   4069023.6470   6   5   0.1236   0.0877   0.1111   0.0525   0.0726   0.1123   0.00    0.0
2091  12150.000   4121947.6016   2652188.7197   4069023.6473   6   5   0.1235   0.0876   0.1110   0.0526   0.0726   0.1122   0.00    0.0
2091  12180.000   4121947.6038   2652188.7166   4069023.6474   6   5   0.1234   0.0874   0.1110   0.0528   0.0726   0.1122   0.00    0.0
2091  12210.000   4121947.6062   2652188.7129   4069023.6474   6   5   0.1233   0.0873   0.1110   0.0529   0.0727   0.1122   0.00    0.0
2091  12240.000   4121947.6078   2652188.7108   4069023.6477   6   5   0.1232   0.0871   0.1109   0.0530   0.0726   0.1121   0.00    0.0
2091  12270.000   4121947.6115   2652188.7058   4069023.6479   6   5   0.1229   0.0866   0.1108   0.0532   0.0724   0.1119   0.00    0.0
2091  12300.000   4121947.6388   2652188.6723   4069023.6482   6   5   0.1219   0.0852   0.1103   0.0536   0.0719   0.1114   0.00    0.0
2091  12330.000   4121947.6453   2652188.6618   4069023.6474   6   5   0.1217   0.0848   0.1102   0.0538   0.0718   0.1113   0.00    0.0
2091  12360.000   4121947.6490   2652188.6567   4069023.6475   6   5   0.1216   0.0847   0.1101   0.0539   0.0718   0.1112   0.00    0.0
2091  12390.000   4121947.6506   2652188.6552   4069023.6478   6   4   0.1216   0.0846   0.1101   0.0540   0.0718   0.1112   0.00    0.0
2091  12420.000   4121947.6536   2652188.6523   4069023.6487   6   5   0.1215   0.0845   0.1101   0.0541   0.0718   0.1111   0.00    0.0
2091  12450.000   4121947.6560   2652188.6502   4069023.6494   6   5   0.1214   0.0844   0.1101   0.0542   0.0719   0.1111   0.00    0.0
2091  12480.000   4121947.6584   2652188.6481   4069023.6501   6   5   0.1214   0.0843   0.1101   0.0543   0.0719   0.1111   0.00    0.0
2091  12510.000   4121947.6612   2652188.6453   4069023.6507   6   5   0.1213   0.0842   0.1100   0.0545   0.0719   0.1110   0.00    0.0
2091  12540.000   4121947.6656   2652188.6396   4069023.6508   6   5   0.1211   0.0841   0.1100   0.0546   0.0719   0.1110   0.00    0.0
2091  12570.000   4121947.6718   2652188.6335   4069023.6517   6   5   0.1209   0.0838   0.1099   0.0548   0.0719   0.1109   0.00    0.0
2091  12600.000   4121947.6976   2652188.6082   4069023.6542   6   5   0.1201   0.0830   0.1096   0.0555   0.0717   0.1105   0.00    0.0
2091  12630.000   4121947.7034   2652188.6045   4069023.6560   6   5   0.1199   0.0828   0.1095   0.0557   0.0717   0.1104   0.00    0.0
2091  12660.000   4121947.7070   2652188.6008   4069023.6566   6   5   0.1198   0.0827   0.1095   0.0558   0.0717   0.1103   0.00    0.0
2091  12690.000   4121947.7093   2652188.5984   4069023.6570   6   5   0.1197   0.0826   0.1095   0.0559   0.0717   0.1103   0.00    0.0
2091  12720.000   4121947.7115   2652188.5961   4069023.6575   6   5   0.1196   0.0825   0.1095   0.0560   0.0717   0.1103   0.00    0.0
2091  12750.000   4121947.7136   2652188.5941   4069023.6580   6   5   0.1196   0.0825   0.1094   0.0561   0.0718   0.1102   0.00    0.0
2091  12780.000   4121947.7160   2652188.5919   4069023.6586   6   5   0.1195   0.0824   0.1094   0.0562   0.0718   0.1102   0.00    0.0
2091  12810.000   4121947.7190   2652188.5886   4069023.6590   6   5   0.1195   0.0823   0.1094   0.0563   0.0718   0.1102   0.00    0.0
2091  12840.000   4121947.7237   2652188.5817   4069023.6588   6   5   0.1194   0.0821   0.1094   0.0564   0.0718   0.1101   0.00    0.0
2091  12870.000   4121947.7333   2652188.5685   4069023.6587   6   5   0.1191   0.0818   0.1093   0.0567   0.0718   0.1101   0.00    0.0
2091  12900.000   4121947.7608   2652188.5307   4069023.6585   6   5   0.1184   0.0806   0.1091   0.0576   0.0716   0.1098   0.00    0.0
2091  12930.000   4121947.7645   2652188.5278   4069023.6596   6   5   0.1183   0.0804   0.1090   0.0578   0.0716   0.1097   0.00    0.0
2091  12960.000   4121947.7676   2652188.5244   4069023.6603   6   5   0.1182   0.0803   0.1090   0.0579   0.0716   0.1097   0.00    0.0
2091  12990.000   4121947.7703   2652188.5216   4069023.6610   6   5   0.1181   0.0802   0.1090   0.0580   0.0716   0.1097   0.00    0.0
2091  13020.000   4121947.7728   2652188.5189   4069023.6616   6   5   0.1181   0.0801   0.1090   0.0581   0.0716   0.1096   0.00    0.0
2091  13050.000   4121947.7753   2652188.5163   4069023.6622   6   5   0.1180   0.0800   0.1090   0.0582   0.0717   0.1096   0.00    0.0
2091  13080.000   4121947.7786   2652188.5126   4069023.6630   6   5   0.1180   0.0800   0.1090   0.0583   0.0717   0.1096   0.00    0.0
2091  13110.000   4121947.7827   2652188.5075   4069023.6638   6   5   0.1179   0.0799   0.1089   0.0584   0.0717   0.1096   0.00    0.0
2091  13140.000   4121947.7881   2652188.5008   4069023.6649   6   5   0.1178   0.0797   0.1089   0.0585   0.0717   0.1095   0.00    0.0
2091  13170.000   4121947.7940   2652188.4936   4069023.6662   6   4   0.1176   0.0793   0.1089   0.0589   0.0717   0.1095   0.00    0.0
2091  13200.000   4121947.8187   2652188.4537   4069023.6652   6   5   0.1171   0.0778   0.1087   0.0599   0.0716   0.1094   0.00    0.0
2091  13230.000   4121947.8280   2652188.4395   4069023.6654   6   5   0.1169   0.0774   0.1087   0.0602   0.0716   0.1093   0.00    0.0
2091  13260.000   4121947.8327   2652188.4323   4069023.6655   6   5   0.1168   0.0773   0.1087   0.0603   0.0716   0.1093   0.00    0.0
2091  13290.000   4121947.8352   2652188.4290   4069023.6658   6   5   0.1168   0.0772   0.1087   0.0604   0.0716   0.1093   0.00    0.0
2091  13320.000   4121947.8371   2652188.4269   4069023.6662   6   5   0.1168   0.0772   0.1086   0.0605   0.0716   0.1092   0.00    0.0
2091  13350.000   4121947.8376   2652188.4260   4069023.6660   6   4   0.1167   0.0771   0.1086   0.0605   0.0716   0.1092   0.00    0.0
2091  13380.000   4121947.8383   2652188.4247   4069023.6658   6   5   0.1167   0.0771   0.1086   0.0606   0.0716   0.1092   0.00    0.0
2091  13410.000   4121947.8391   2652188.4239   4069023.6658   6   5   0.1167   0.0770   0.1086   0.0606   0.0717   0.1092   0.00    0.0
2091  13440.000   4121947.8402   2652188.4230   4069023.6659   6   5   0.1166   0.0769   0.1086   0.0607   0.0717   0.1092   0.00    0.0
2091  13470.000   4121947.8441   2652188.4181   4069023.6657   6   5   0.1165   0.0766   0.1086   0.0609   0.0716   0.1092   0.00    0.0
2091  13500.000   4121947.8585   2652188.3912   4069023.6599   6   5   0.1162   0.0755   0.1085   0.0616   0.0713   0.1092   0.00    0.0
2091  13530.000   4121947.8625   2652188.3844   4069023.6590   6   5   0.1161   0.0753   0.1085   0.0617   0.0713   0.1092   0.00    0.0
2091  13560.000   4121947.8650   2652188.3807   4069023.6587   6   4   0.1161   0.0752   0.1084   0.0618   0.0713   0.1092   0.00    0.0
2091  13590.000   4121947.8667   2652188.3786   4069023.6590   6   5   0.1161   0.0751   0.1084   0.0618   0.0713   0.1091   0.00    0.0
2091  13620.000   4121947.8684   2652188.3768   4069023.6592   6   5   0.1160   0.0751   0.1084   0.0619   0.0713   0.1091   0.00    0.0
2091  13650.000   4121947.8697   2652188.3756   4069023.6595   6   4   0.1160   0.0750   0.1084   0.0619   0.0713   0.1091   0.00    0.0
2091  13680.000   4121947.8701   2652188.3742   4069023.6591   6   5   0.1160   0.0750   0.1084   0.0620   0.0713   0.1091   0.00    0.0
2091  13710.000   4121947.8703   2652188.3738   4069023.6590   6   5   0.1159   0.0749   0.1084   0.0620   0.0713   0.1091   0.00    0.0
2091  13740.000   4121947.8709   2652188.3730   4069023.6590   6   5   0.1159   0.0748   0.1084   0.0621   0.0713   0.1091   0.00    0.0
2091  13770.000   4121947.8737   2652188.3669   4069023.6576   6   5   0.1158   0.0745   0.1083   0.0623   0.0713   0.1091   0.00    0.0
2091  13800.000   4121947.8848   2652188.3374   4069023.6490   6   4   0.1157   0.0733   0.1083   0.0628   0.0709   0.1091   0.00    0.0
2091  13830.000   4121947.8879   2652188.3299   4069023.6472   6   4   0.1156   0.0731   0.1082   0.0629   0.0709   0.1091   0.00    0.0
2091  13860.000   4121947.8891   2652188.3289   4069023.6474   6   5   0.1156   0.0730   0.1082   0.0630   0.0708   0.1091   0.00    0.0
2091  13890.000   4121947.8902   2652188.3280   4069023.6478   6   5   0.1156   0.0730   0.1082   0.0630   0.0708   0.1091   0.00    0.0
2091  13920.000   4121947.8914   2652188.3271   4069023.6481   6   5   0.1156   0.0729   0.1082   0.0631   0.0709   0.1091   0.00    0.0
2091  13950.000   4121947.8926   2652188.3260   4069023.6485   6   4   0.1155   0.0729   0.1082   0.0631   0.0709   0.1091   0.00    0.0
2091  13980.000   4121947.8939   2652188.3244   4069023.6486   6   4   0.1155   0.0728   0.1082   0.0631   0.0709   0.1091   0.00    0.0
2091  14010.000   4121947.8954   2652188.3220   4069023.6485   6   5   0.1155   0.0728   0.1082   0.0632   0.0709   0.1090   0.00    0.0
2091  14040.000   4121947.8976   2652188.3178   4069023.6479   6   5   0.1154   0.0727   0.1081   0.0633   0.0709   0.1090   0.00    0.0
2091  14070.000   4121947.9039   2652188.3038   4069023.6457   6   5   0.1154   0.0723   0.1081   0.0634   0.0708   0.1090   0.00    0.0
2091  14100.000   4121947.9161   2652188.2722   4069023.6388   6   5   0.1152   0.0710   0.1079   0.0639   0.0704   0.1090   0.00    0.0
2091  14130.000   4121947.9187   2652188.2642   4069023.6363   6   5   0.1152   0.0708   0.1078   0.0640   0.0703   0.1090   0.00    0.0
2091  14160.000   4121947.9203   2652188.2605   4069023.6354   6   5   0.1151   0.0707   0.1078   0.0640   0.0703   0.1090   0.00    0.0
2091  14190.000   4121947.9216   2652188.2586   4069023.6354   6   5   0.1151   0.0706   0.1078   0.0640   0.0703   0.1089   0.00    0.0
2091  14220.000   4121947.9227   2652188.2570   4069023.6354   6   5   0.1151   0.0706   0.1078   0.0641   0.0703   0.1089   0.00    0.0
2091  14250.000   4121947.9236   2652188.2559   4069023.6355   6   4   0.1150   0.0705   0.1078   0.0641   0.0703   0.1089   0.00    0.0
2091  14280.000   4121947.9245   2652188.2545   4069023.6354   6   5   0.1150   0.0705   0.1077   0.0641   0.0703   0.1089   0.00    0.0
2091  14310.000   4121947.9258   2652188.2520   4069023.6350   6   4   0.1150   0.0704   0.1077   0.0642   0.0703   0.1089   0.00    0.0
2091  14340.000   4121947.9284   2652188.2466   4069023.6343   6   4   0.1149   0.0703   0.1077   0.0642   0.0703   0.1088   0.00    0.0
2091  14370.000   4121947.9324   2652188.2383   4069023.6335   6   4   0.1148   0.0699   0.1076   0.0644   0.0702   0.1087   0.00    0.0
2091  14400.000   4121947.9458   2652188.2074   4069023.6296   6   5   0.1145   0.0685   0.1071   0.0647   0.0698   0.1085   0.00    0.0
2091  14430.000   4121947.9500   2652188.2004   4069023.6297   6   4   0.1144   0.0683   0.1070   0.0648   0.0697   0.1084   0.00    0.0
2091  14460.000   4121947.9513   2652188.1977   4069023.6293   6   5   0.1143   0.0682   0.1070   0.0648   0.0697   0.1084   0.00    0.0
2091  14490.000   4121947.9521   2652188.1963   4069023.6290   6   4   0.1143   0.0681   0.1069   0.0649   0.0697   0.1083   0.00    0.0
2091  14520.000   4121947.9525   2652188.1958   4069023.6288   6   5   0.1142   0.0681   0.1069   0.0649   0.0697   0.1083   0.00    0.0
2091  14550.000   4121947.9528   2652188.1955   4069023.6287   6   5   0.1142   0.0680   0.1069   0.0649   0.0697   0.1083   0.00    0.0
2091  14580.000   4121947.9531   2652188.1948   4069023.6283   6   5   0.1142   0.0680   0.1069   0.0649   0.0697   0.1083   0.00    0.0
2091  14610.000   4121947.9543   2652188.1932   4069023.6283   6   4   0.1141   0.0679   0.1068   0.0650   0.0697   0.1082   0.00    0.0
2091  14640.000   4121947.9550   2652188.1923   4069023.6282   6   4   0.1141   0.0678   0.1068   0.0650   0.0697   0.1082   0.00    0.0
2091  14670.000   4121947.9618   2652188.1847   4069023.6310   6   4   0.1139   0.0674   0.1065   0.0651   0.0696   0.1080   0.00    0.0
2091  14700.000   4121947.9832   2652188.1561   4069023.6377   6   4   0.1131   0.0660   0.1057   0.0654   0.0691   0.1073   0.00    0.0
2091  14730.000   4121947.9863   2652188.1522   4069023.6387   6   5   0.1130   0.0657   0.1055   0.0654   0.0691   0.1071   0.00    0.0
2091  14760.000   4121947.9880   2652188.1506   4069023.6393   6   4   0.1129   0.0656   0.1054   0.0654   0.0690   0.1071   0.00    0.0
2091  14790.000   4121947.9894   2652188.1499   4069023.6402   6   4   0.1128   0.0656   0.1054   0.0655   0.0690   0.1070   0.00    0.0
2091  14820.000   4121947.9907   2652188.1491   4069023.6409   6   4   0.1128   0.0656   0.1054   0.0655   0.0690   0.1070   0.00    0.0
2091  14850.000   4121947.9915   2652188.1485   4069023.6411   6   5   0.1128   0.0655   0.1054   0.0655   0.0690   0.1070   0.00    0.0
2091  14880.000   4121947.9920   2652188.1479   4069023.6411   6   4   0.1127   0.0655   0.1053   0.0655   0.0690   0.1070   0.00    0.0
2091  14910.000   4121947.9933   2652188.1469   4069023.6416   6   4   0.1127   0.0654   0.1053   0.0655   0.0690   0.1069   0.00    0.0
2091  14940.000   4121947.9956   2652188.1454   4069023.6430   6   4   0.1126   0.0653   0.1052   0.0656   0.0690   0.1068   0.00    0.0
2091  14970.000   4121948.0035   2652188.1418   4069023.6490   6   4   0.1122   0.0650   0.1048   0.0656   0.0689   0.1065   0.00    0.0
2091  15000.000   4121948.0347   2652188.1198   4069023.6697   6   4   0.1111   0.0636   0.1035   0.0657   0.0684   0.1053   0.00    0.0
2091  15030.000   4121948.0427   2652188.1150   4069023.6749   6   4   0.1108   0.0633   0.1032   0.0657   0.0683   0.1050   0.00    0.0
2091  15060.000   4121948.0465   2652188.1127   4069023.6774   6   5   0.1107   0.0632   0.1031   0.0657   0.0683   0.1049   0.00    0.0
2091  15090.000   4121948.0495   2652188.1112   4069023.6794   6   4   0.1106   0.0632   0.1030   0.0657   0.0683   0.1049   0.00    0.0
2091  15120.000   4121948.0513   2652188.1101   4069023.6803   6   4   0.1106   0.0631   0.1030   0.0657   0.0683   0.1048   0.00    0.0
2091  15150.000   4121948.0526   2652188.1091   4069023.6809   6   4   0.1105   0.0631   0.1030   0.0657   0.0683   0.1048   0.00    0.0
2091  15180.000   4121948.0539   2652188.1082   4069023.6814   6   4   0.1105   0.0631   0.1029   0.0657   0.0683   0.1048   0.00    0.0
2091  15210.000   4121948.0551   2652188.1071   4069023.6818   6   4   0.1104   0.0630   0.1029   0.0657   0.0682   0.1047   0.00    0.0
2091  15240.000   4121948.0579   2652188.1053   4069023.6834   6   4   0.1103   0.0629   0.1027   0.0657   0.0682   0.1045   0.00    0.0
2091  15270.000   4121948.0659   2652188.0996   4069023.6885   6   4   0.1098   0.0626   0.1022   0.0657   0.0681   0.1041   0.00    0.0
2091  15300.000   4121948.0960   2652188.0855   4069023.7117   6   4   0.1082   0.0613   0.1004   0.0656   0.0675   0.1024   0.00    0.0
2091  15330.000   4121948.1098   2652188.0806   4069023.7228   6   4   0.1078   0.0611   0.1000   0.0655   0.0673   0.1020   0.00    0.0
2091  15360.000   4121948.1162   2652188.0780   4069023.7274   6   4   0.1077   0.0610   0.0999   0.0655   0.0673   0.1019   0.00    0.0
2091  15390.000   4121948.1211   2652188.0760   4069023.7309   6   4   0.1076   0.0610   0.0998   0.0655   0.0673   0.1018   0.00    0.0
2091  15420.000   4121948.1237   2652188.0749   4069023.7327   6   4   0.1076   0.0609   0.0998   0.0655   0.0673   0.1018   0.00    0.0
2091  15450.000   4121948.1253   2652188.0740   4069023.7336   6   4   0.1075   0.0609   0.0998   0.0655   0.0673   0.1017   0.00    0.0
2091  15480.000   4121948.1273   2652188.0734   4069023.7350   6   4   0.1075   0.0609   0.0997   0.0655   0.0673   0.1017   0.00    0.0
2091  15510.000   4121948.1304   2652188.0728   4069023.7375   6   4   0.1074   0.0608   0.0996   0.0655   0.0673   0.1016   0.00    0.0
2091  15540.000   4121948.1371   2652188.0716   4069023.7433   6   4   0.1072   0.0608   0.0994   0.0655   0.0672   0.1014   0.00    0.0
2091  15570.000   4121948.1510   2652188.0693   4069023.7556   6   4   0.1066   0.0605   0.0988   0.0654   0.0670   0.1008   0.00    0.0
2091  15600.000   4121948.1830   2652188.0573   4069023.7814   6   4   0.1046   0.0593   0.0966   0.0650   0.0662   0.0988   0.00    0.0
2091  15630.000   4121948.1848   2652188.0560   4069023.7823   6   4   0.1042   0.0591   0.0962   0.0649   0.0661   0.0983   0.00    0.0
2091  15660.000   4121948.1888   2652188.0550   4069023.7855   6   4   0.1040   0.0590   0.0960   0.0649   0.0661   0.0981   0.00    0.0
2091  15690.000   4121948.1916   2652188.0544   4069023.7877   6   4   0.1040   0.0590   0.0959   0.0648   0.0660   0.0981   0.00    0.0
2091  15720.000   4121948.1924   2652188.0540   4069023.7880   6   4   0.1039   0.0590   0.0959   0.0648   0.0660   0.0980   0.00    0.0
2091  15750.000   4121948.1929   2652188.0537   4069023.7882   6   4   0.1039   0.0590   0.0958   0.0648   0.0660   0.0980   0.00    0.0
2091  15780.000   4121948.1941   2652188.0534   4069023.7890   6   4   0.1038   0.0589   0.0958   0.0648   0.0660   0.0979   0.00    0.0
2091  15810.000   4121948.1947   2652188.0535   4069023.7895   6   4   0.1037   0.0589   0.0957   0.0648   0.0660   0.0978   0.00    0.0
2091  15840.000   4121948.1961   2652188.0536   4069023.7909   6   4   0.1035   0.0588   0.0954   0.0648   0.0659   0.0976   0.00    0.0
2091  15870.000   4121948.2005   2652188.0528   4069023.7951   6   4   0.1028   0.0586   0.0947   0.0646   0.0657   0.0969   0.00    0.0
2091  15900.000   4121948.2359   2652188.0449   4069023.8261   6   4   0.1006   0.0575   0.0923   0.0639   0.0648   0.0946   0.00    0.0
2091  15930.000   4121948.2439   2652188.0447   4069023.8334   6   4   0.1001   0.0574   0.0917   0.0638   0.0646   0.0940   0.00    0.0
2091  15960.000   4121948.2447   2652188.0449   4069023.8341   6   4   0.0999   0.0573   0.0916   0.0637   0.0645   0.0939   0.00    0.0
2091  15990.000   4121948.2455   2652188.0448   4069023.8345   6   4   0.0998   0.0573   0.0915   0.0637   0.0645   0.0938   0.00    0.0
2091  16020.000   4121948.2459   2652188.0447   4069023.8348   6   4   0.0998   0.0572   0.0914   0.0637   0.0645   0.0937   0.00    0.0
2091  16050.000   4121948.2467   2652188.0447   4069023.8353   6   4   0.0997   0.0572   0.0914   0.0637   0.0645   0.0937   0.00    0.0
2091  16080.000   4121948.2470   2652188.0446   4069023.8353   6   4   0.0997   0.0572   0.0913   0.0637   0.0644   0.0936   0.00    0.0
2091  16110.000   4121948.2480   2652188.0445   4069023.8360   6   4   0.0996   0.0572   0.0912   0.0636   0.0644   0.0935   0.00    0.0
2091  16140.000   4121948.2485   2652188.0446   4069023.8363   6   4   0.0993   0.0571   0.0910   0.0636   0.0643   0.0933   0.00    0.0
2091  16170.000   4121948.2484   2652188.0443   4069023.8360   6   4   0.0986   0.0569   0.0902   0.0634   0.0640   0.0925   0.00    0.0
2091  16200.000   4121948.2451   2652188.0424   4069023.8327   6   5   0.0980   0.0560   0.0894   0.0627   0.0632   0.0918   0.00    0.0
2091  16230.000   4121948.2453   2652188.0416   4069023.8323   6   5   0.0978   0.0558   0.0893   0.0626   0.0631   0.0917   0.00    0.0
2091  16260.000   4121948.2453   2652188.0411   4069023.8318   6   5   0.0978   0.0558   0.0892   0.0625   0.0630   0.0916   0.00    0.0
2091  16290.000   4121948.2452   2652188.0407   4069023.8313   6   5   0.0978   0.0557   0.0892   0.0625   0.0630   0.0916   0.00    0.0
2091  16320.000   4121948.2454   2652188.0405   4069023.8312   6   5   0.0978   0.0557   0.0892   0.0625   0.0630   0.0916   0.00    0.0
2091  16350.000   4121948.2457   2652188.0403   4069023.8311   6   5   0.0977   0.0557   0.0891   0.0625   0.0630   0.0916   0.00    0.0
2091  16380.000   4121948.2460   2652188.0401   4069023.8310   6   5   0.0977   0.0557   0.0891   0.0625   0.0630   0.0916   0.00    0.0
2091  16410.000   4121948.2466   2652188.0397   4069023.8312   6   5   0.0977   0.0557   0.0891   0.0625   0.0629   0.0915   0.00    0.0
2091  16440.000   4121948.2490   2652188.0393   4069023.8327   6   5   0.0976   0.0556   0.0890   0.0624   0.0629   0.0915   0.00    0.0
2091  16470.000   4121948.2528   2652188.0372   4069023.8343   6   5   0.0975   0.0554   0.0889   0.0623   0.0627   0.0913   0.00    0.0
2091  16500.000   4121948.2497   2652188.0315   4069023.8297   6   5   0.0968   0.0547   0.0882   0.0618   0.0620   0.0907   0.00    0.0
2091  16530.000   4121948.2512   2652188.0301   4069023.8300   6   5   0.0967   0.0546   0.0880   0.0617   0.0619   0.0905   0.00    0.0
2091  16560.000   4121948.2514   2652188.0297   4069023.8299   6   5   0.0966   0.0545   0.0880   0.0616   0.0619   0.0905   0.00    0.0
2091  16590.000   4121948.2517   2652188.0295   4069023.8298   6   5   0.0966   0.0545   0.0880   0.0616   0.0619   0.0905   0.00    0.0
2091  16620.000   4121948.2521   2652188.0292   4069023.8298   6   5   0.0966   0.0545   0.0880   0.0616   0.0619   0.0905   0.00    0.0
2091  16650.000   4121948.2526   2652188.0290   4069023.8300   6   5   0.0966   0.0545   0.0880   0.0616   0.0619   0.0904   0.00    0.0
2091  16680.000   4121948.2533   2652188.0288   4069023.8304   6   5   0.0966   0.0544   0.0879   0.0616   0.0619   0.0904   0.00    0.0
