% program   : RTKLIB ver.2.4.2
% inp file  : /home/fkarlitepe/Documents/Projects/Estimation-Orbit/precise orbit/ankr0330.20o
% inp file  : /home/fkarlitepe/Documents/Projects/Estimation-Orbit/precise orbit/precise/SHA0MGXRAP_20200330000_01D_15M_ORB.sp3
% inp file  : /home/fkarlitepe/Documents/Projects/Estimation-Orbit/precise orbit/igs20910.clk
% inp file  : /home/fkarlitepe/Documents/Projects/Estimation-Orbit/precise orbit/ankr0330.20n
% obs start : 2020/02/02 00:00:00.0 GPST (week2091      0.0s)
% obs end   : 2020/02/02 23:59:30.0 GPST (week2091  86370.0s)
%
% (x/y/z-ecef=WGS84,Q=1:fix,2:float,3:sbas,4:dgps,5:single,6:ppp,ns=# of satellites)
%  GPST              x-ecef(m)      y-ecef(m)      z-ecef(m)   Q  ns   sdx(m)   sdy(m)   sdz(m)  sdxy(m)  sdyz(m)  sdzx(m) age(s)  ratio
2091     60.000   4121943.8095   2652190.7962   4069024.4936   6   3  40.0005   9.3518  61.2411  18.9293  23.4001  49.3343   0.00    0.0
2091     90.000   4121952.8580   2652192.8104   4069037.8591   6   4   3.4697   2.3310   7.7882   2.3274   3.1850   4.6306   0.00    0.0
2091    120.000   4121952.6019   2652192.7920   4069037.2033   6   3   3.2745   1.9389   6.7373   2.0500   2.7520   4.2608   0.00    0.0
2091    150.000   4121952.2112   2652192.6610   4069036.3957   6   3   3.1475   1.7070   6.1097   1.8862   2.4949   4.0293   0.00    0.0
2091    210.000   4121950.5132   2652191.9527   4069032.8695   6   3   2.8227   1.4895   5.1668   1.6299   2.1162   3.5201   0.00    0.0
2091    240.000   4121949.2326   2652191.4509   4069030.0762   6   3   2.4341   1.3008   4.2541   1.3553   1.7386   2.9593   0.00    0.0
2091    300.000   4121947.5855   2652190.8805   4069025.7402   6   3   1.6358   1.0597   2.6885   0.8168   1.0823   1.8865   0.00    0.0
2091    330.000   4121947.0994   2652190.6958   4069025.1967   6   3   1.5728   0.9967   2.5616   0.7788   1.0265   1.8117   0.00    0.0
2091    360.000   4121946.9078   2652190.6225   4069025.0773   6   3   1.5344   0.9477   2.4813   0.7589   0.9927   1.7679   0.00    0.0
2091    390.000   4121946.7180   2652190.5541   4069024.9561   6   3   1.5035   0.9069   2.4162   0.7445   0.9668   1.7330   0.00    0.0
2091    420.000   4121946.6682   2652190.5252   4069025.0469   6   3   1.4763   0.8721   2.3594   0.7328   0.9453   1.7026   0.00    0.0
2091    450.000   4121946.7168   2652190.5190   4069025.2561   6   3   1.4516   0.8420   2.3082   0.7228   0.9268   1.6749   0.00    0.0
2091    480.000   4121946.7811   2652190.5199   4069025.4253   6   3   1.4048   0.8110   2.2226   0.6983   0.8932   1.6190   0.00    0.0
2091    510.000   4121946.7673   2652190.5022   4069025.3763   6   3   1.3163   0.7751   2.0719   0.6466   0.8304   1.5108   0.00    0.0
2091    540.000   4121946.8805   2652190.5267   4069025.3336   6   3   1.1526   0.7289   1.8033   0.5436   0.7149   1.3095   0.00    0.0
2091    600.000   4121946.9438   2652190.5527   4069024.2778   6   3   0.6001   0.6365   0.8869  -0.1051   0.3225   0.6363   0.00    0.0
2091    660.000   4121947.0215   2652190.5465   4069024.3807   6   3   0.5836   0.6186   0.8622  -0.0983   0.3139   0.6190   0.00    0.0
2091    720.000   4121947.3259   2652190.3527   4069024.6905   6   4   0.5617   0.5975   0.8440   0.0702   0.3265   0.6000   0.00    0.0
2091    840.000   4121947.4506   2652190.3834   4069024.8299   6   3   0.5278   0.5802   0.7882  -0.0538   0.3017   0.5609   0.00    0.0
2091    870.000   4121947.8434   2652190.4413   4069025.2008   6   4   0.4488   0.5544   0.6630  -0.1311   0.2549   0.4699   0.00    0.0
2091    930.000   4121947.8721   2652190.4459   4069025.1545   6   3   0.4004   0.5374   0.5776  -0.1713   0.2127   0.4121   0.00    0.0
2091    960.000   4121947.8670   2652190.4374   4069025.1485   6   3   0.3870   0.5255   0.5554  -0.1719   0.2029   0.3972   0.00    0.0
2091   1140.000   4121947.8355   2652190.4217   4069025.0532   6   3   0.3667   0.5136   0.5212  -0.1781   0.1858   0.3742   0.00    0.0
2091   1170.000   4121947.8174   2652190.4049   4069024.8783   6   3   0.3259   0.5001   0.4477  -0.1985   0.1443   0.3255   0.00    0.0
2091   1230.000   4121947.8046   2652190.3822   4069024.7468   6   3   0.2984   0.4886   0.3971  -0.2073   0.1133   0.2927   0.00    0.0
2091   1260.000   4121947.8112   2652190.3678   4069024.7356   6   3   0.2903   0.4797   0.3840  -0.2045   0.1072   0.2840   0.00    0.0
2091   1410.000   4121947.8142   2652190.3453   4069024.7154   6   3   0.2845   0.4714   0.3755  -0.2005   0.1042   0.2784   0.00    0.0
2091   1470.000   4121947.8639   2652190.3300   4069024.6143   6   3   0.2612   0.4618   0.3316  -0.2063   0.0664   0.2506   0.00    0.0
2091   1560.000   4121947.8655   2652190.3123   4069024.5761   6   3   0.2537   0.4541   0.3190  -0.2038   0.0564   0.2425   0.00    0.0
2091   1680.000   4121947.8631   2652190.2993   4069024.5599   6   3   0.2503   0.4471   0.3148  -0.1996   0.0570   0.2396   0.00    0.0
2091   1710.000   4121947.8618   2652190.2837   4069024.5277   6   3   0.2457   0.4403   0.3080  -0.1962   0.0532   0.2351   0.00    0.0
2091   1740.000   4121947.8496   2652190.2582   4069024.4462   6   3   0.2383   0.4335   0.2950  -0.1945   0.0378   0.2270   0.00    0.0
2091   1770.000   4121947.9210   2652190.2518   4069024.3994   6   3   0.2234   0.4261   0.2658  -0.1964  -0.0488   0.2094   0.00    0.0
2091   3270.000   4121947.9326   2652190.2236   4069024.4100   6   2   0.2227   0.4221   0.2654  -0.1938  -0.0440   0.2089   0.00    0.0
2091   3360.000   4121947.9314   2652190.2242   4069024.4163   6   3   0.2213   0.4166   0.2650  -0.1895  -0.0365   0.2083   0.00    0.0
2091   4260.000   4121947.9337   2652190.2264   4069024.4249   6   4   0.2187   0.4067   0.2626  -0.1840  -0.0382   0.2063   0.00    0.0
2091   4290.000   4121947.9293   2652190.2365   4069024.4272   6   4   0.2165   0.3984   0.2614  -0.1781  -0.0312   0.2050   0.00    0.0
2091   4320.000   4121947.9211   2652190.2598   4069024.4311   6   4   0.2146   0.3909   0.2605  -0.1724  -0.0197   0.2039   0.00    0.0
2091   4350.000   4121947.9129   2652190.2762   4069024.4331   6   4   0.2128   0.3840   0.2598  -0.1670   0.0140   0.2030   0.00    0.0
2091   4380.000   4121947.9043   2652190.2845   4069024.4322   6   4   0.2111   0.3774   0.2589  -0.1619   0.0261   0.2021   0.00    0.0
2091   4410.000   4121947.8936   2652190.2848   4069024.4269   6   4   0.2095   0.3710   0.2577  -0.1571   0.0323   0.2010   0.00    0.0
2091   4440.000   4121947.8778   2652190.2916   4069024.4182   6   4   0.2077   0.3646   0.2560  -0.1528   0.0348   0.1996   0.00    0.0
2091   4470.000   4121947.8577   2652190.2797   4069024.3980   6   4   0.2057   0.3579   0.2529  -0.1493   0.0323   0.1974   0.00    0.0
2091   4500.000   4121947.8438   2652190.3009   4069024.3846   6   4   0.2034   0.3508   0.2488  -0.1462   0.0260   0.1945   0.00    0.0
2091   4530.000   4121947.8410   2652190.3138   4069024.3914   6   4   0.2021   0.3458   0.2478  -0.1422   0.0326   0.1936   0.00    0.0
2091   4560.000   4121947.8403   2652190.3162   4069024.3987   6   4   0.2009   0.3413   0.2472  -0.1382   0.0382   0.1930   0.00    0.0
2091   4590.000   4121947.8412   2652190.3146   4069024.4064   6   4   0.1999   0.3370   0.2466  -0.1343   0.0429   0.1924   0.00    0.0
2091   4620.000   4121947.8486   2652190.2991   4069024.4140   6   3   0.1991   0.3337   0.2461  -0.1315   0.0464   0.1919   0.00    0.0
2091   4650.000   4121947.8554   2652190.2852   4069024.4220   6   3   0.1985   0.3305   0.2456  -0.1288   0.0495   0.1915   0.00    0.0
2091   4710.000   4121947.8602   2652190.2721   4069024.4291   6   3   0.1977   0.3273   0.2446  -0.1259   0.0534   0.1907   0.00    0.0
2091   4740.000   4121947.8541   2652190.2776   4069024.4326   6   4   0.1963   0.3231   0.2425  -0.1218   0.0591   0.1892   0.00    0.0
2091   4770.000   4121947.8492   2652190.2819   4069024.4315   6   4   0.1941   0.3181   0.2366  -0.1161   0.0699   0.1856   0.00    0.0
2091   4800.000   4121947.8419   2652190.2721   4069024.4123   6   3   0.1900   0.3108   0.2221  -0.1075   0.0896   0.1771   0.00    0.0
2091   4830.000   4121947.8530   2652190.2386   4069024.4268   6   4   0.1887   0.3049   0.2194  -0.1020   0.0943   0.1754   0.00    0.0
2091   4860.000   4121947.8564   2652190.2271   4069024.4324   6   5   0.1875   0.2994   0.2183  -0.0964   0.0970   0.1745   0.00    0.0
2091   4890.000   4121947.8617   2652190.2131   4069024.4383   6   5   0.1866   0.2943   0.2175  -0.0912   0.0991   0.1739   0.00    0.0
2091   4920.000   4121947.8673   2652190.1984   4069024.4441   6   4   0.1859   0.2902   0.2169  -0.0870   0.1009   0.1734   0.00    0.0
2091   4950.000   4121947.8745   2652190.1808   4069024.4508   6   5   0.1851   0.2857   0.2164  -0.0821   0.1024   0.1730   0.00    0.0
2091   4980.000   4121947.8811   2652190.1635   4069024.4563   6   5   0.1843   0.2815   0.2157  -0.0772   0.1039   0.1725   0.00    0.0
2091   5010.000   4121947.8863   2652190.1482   4069024.4590   6   5   0.1834   0.2773   0.2146  -0.0722   0.1055   0.1718   0.00    0.0
2091   5040.000   4121947.8886   2652190.1400   4069024.4559   6   5   0.1824   0.2729   0.2124  -0.0667   0.1075   0.1706   0.00    0.0
2091   5070.000   4121947.8783   2652190.1445   4069024.4219   6   4   0.1810   0.2679   0.2067  -0.0604   0.1113   0.1676   0.00    0.0
2091   5100.000   4121947.8583   2652190.1140   4069024.3687   6   5   0.1781   0.2599   0.1924  -0.0478   0.1199   0.1608   0.00    0.0
2091   5130.000   4121947.8597   2652190.1060   4069024.3631   6   4   0.1774   0.2566   0.1902  -0.0425   0.1210   0.1598   0.00    0.0
2091   5160.000   4121947.8638   2652190.0904   4069024.3640   6   4   0.1770   0.2539   0.1894  -0.0378   0.1214   0.1594   0.00    0.0
2091   5190.000   4121947.8682   2652190.0763   4069024.3662   6   4   0.1767   0.2515   0.1890  -0.0330   0.1217   0.1592   0.00    0.0
2091   5220.000   4121947.8730   2652190.0634   4069024.3701   6   4   0.1764   0.2493   0.1886  -0.0277   0.1218   0.1590   0.00    0.0
2091   5250.000   4121947.8772   2652190.0514   4069024.3732   6   4   0.1761   0.2471   0.1884  -0.0216   0.1220   0.1589   0.00    0.0
2091   5280.000   4121947.8812   2652190.0398   4069024.3762   6   4   0.1758   0.2450   0.1880  -0.0132   0.1221   0.1587   0.00    0.0
2091   5310.000   4121947.8855   2652190.0359   4069024.3802   6   4   0.1755   0.2427   0.1873   0.0105   0.1222   0.1585   0.00    0.0
2091   5340.000   4121947.8891   2652190.0393   4069024.3820   6   4   0.1751   0.2399   0.1860   0.0198   0.1224   0.1579   0.00    0.0
2091   5370.000   4121947.8875   2652190.0495   4069024.3691   6   4   0.1745   0.2355   0.1835   0.0276   0.1237   0.1569   0.00    0.0
2091   5400.000   4121947.8876   2652190.0354   4069024.3608   6   5   0.1732   0.2259   0.1758   0.0359   0.1261   0.1537   0.00    0.0
2091   5430.000   4121947.8951   2652190.0037   4069024.3660   6   5   0.1727   0.2228   0.1744   0.0396   0.1262   0.1531   0.00    0.0
2091   5460.000   4121947.9014   2652189.9854   4069024.3720   6   5   0.1723   0.2208   0.1739   0.0426   0.1261   0.1530   0.00    0.0
2091   5490.000   4121947.9072   2652189.9731   4069024.3767   6   5   0.1720   0.2190   0.1737   0.0453   0.1259   0.1529   0.00    0.0
2091   5520.000   4121947.9097   2652189.9646   4069024.3777   6   4   0.1718   0.2176   0.1735   0.0471   0.1258   0.1528   0.00    0.0
2091   5550.000   4121947.9125   2652189.9600   4069024.3797   6   3   0.1717   0.2163   0.1734   0.0488   0.1258   0.1528   0.00    0.0
2091   5580.000   4121947.9160   2652189.9577   4069024.3848   6   4   0.1715   0.2149   0.1731   0.0504   0.1256   0.1528   0.00    0.0
2091   5610.000   4121947.9203   2652189.9535   4069024.3932   6   4   0.1713   0.2133   0.1728   0.0517   0.1254   0.1526   0.00    0.0
2091   5640.000   4121947.9246   2652189.9499   4069024.4009   6   3   0.1710   0.2112   0.1720   0.0527   0.1251   0.1523   0.00    0.0
2091   5670.000   4121947.9313   2652189.9575   4069024.4133   6   4   0.1705   0.2067   0.1697   0.0524   0.1239   0.1514   0.00    0.0
2091   5700.000   4121947.9153   2652189.9065   4069024.3716   6   4   0.1693   0.1950   0.1622   0.0474   0.1194   0.1483   0.00    0.0
2091   5730.000   4121947.9123   2652189.8826   4069024.3635   6   4   0.1690   0.1923   0.1609   0.0474   0.1185   0.1478   0.00    0.0
2091   5760.000   4121947.9124   2652189.8751   4069024.3623   6   4   0.1688   0.1909   0.1605   0.0482   0.1181   0.1476   0.00    0.0
2091   5790.000   4121947.9122   2652189.8760   4069024.3629   6   5   0.1685   0.1896   0.1602   0.0497   0.1179   0.1475   0.00    0.0
2091   5820.000   4121947.9130   2652189.8751   4069024.3630   6   3   0.1683   0.1887   0.1601   0.0507   0.1178   0.1474   0.00    0.0
2091   5850.000   4121947.9139   2652189.8742   4069024.3638   6   3   0.1682   0.1878   0.1600   0.0516   0.1177   0.1474   0.00    0.0
2091   5880.000   4121947.9193   2652189.8652   4069024.3647   6   5   0.1679   0.1867   0.1598   0.0529   0.1175   0.1473   0.00    0.0
2091   5910.000   4121947.9186   2652189.8601   4069024.3642   6   4   0.1677   0.1856   0.1595   0.0535   0.1172   0.1472   0.00    0.0
2091   5940.000   4121947.9175   2652189.8522   4069024.3640   6   4   0.1675   0.1838   0.1588   0.0535   0.1165   0.1469   0.00    0.0
2091   5970.000   4121947.9008   2652189.8005   4069024.3335   6   4   0.1669   0.1798   0.1568   0.0516   0.1144   0.1460   0.00    0.0
2091   6000.000   4121947.8734   2652189.7353   4069024.2762   6   4   0.1656   0.1685   0.1502   0.0423   0.1074   0.1430   0.00    0.0
2091   6030.000   4121947.8688   2652189.7038   4069024.2611   6   5   0.1651   0.1661   0.1490   0.0419   0.1062   0.1425   0.00    0.0
2091   6060.000   4121947.8661   2652189.6967   4069024.2582   6   3   0.1649   0.1650   0.1487   0.0423   0.1059   0.1423   0.00    0.0
2091   6090.000   4121947.8669   2652189.6891   4069024.2561   6   5   0.1647   0.1641   0.1485   0.0433   0.1057   0.1422   0.00    0.0
2091   6120.000   4121947.8659   2652189.6876   4069024.2564   6   4   0.1645   0.1635   0.1483   0.0441   0.1056   0.1421   0.00    0.0
2091   6150.000   4121947.8654   2652189.6870   4069024.2571   6   4   0.1643   0.1629   0.1483   0.0448   0.1055   0.1421   0.00    0.0
2091   6180.000   4121947.8649   2652189.6865   4069024.2580   6   4   0.1642   0.1623   0.1481   0.0455   0.1054   0.1420   0.00    0.0
2091   6210.000   4121947.8631   2652189.6825   4069024.2571   6   4   0.1640   0.1615   0.1479   0.0459   0.1051   0.1419   0.00    0.0
2091   6240.000   4121947.8600   2652189.6723   4069024.2543   6   3   0.1637   0.1602   0.1473   0.0457   0.1045   0.1416   0.00    0.0
2091   6270.000   4121947.8525   2652189.6433   4069024.2488   6   3   0.1632   0.1572   0.1458   0.0434   0.1026   0.1408   0.00    0.0
2091   6300.000   4121947.7996   2652189.5154   4069024.1574   6   4   0.1619   0.1484   0.1407   0.0328   0.0962   0.1384   0.00    0.0
2091   6330.000   4121947.7773   2652189.4710   4069024.1146   6   3   0.1615   0.1467   0.1398   0.0317   0.0952   0.1379   0.00    0.0
2091   6360.000   4121947.7682   2652189.4526   4069024.1003   6   4   0.1613   0.1459   0.1395   0.0320   0.0949   0.1378   0.00    0.0
2091   6390.000   4121947.7641   2652189.4453   4069024.0941   6   3   0.1611   0.1454   0.1394   0.0327   0.0948   0.1377   0.00    0.0
2091   6420.000   4121947.7617   2652189.4422   4069024.0913   6   4   0.1610   0.1450   0.1393   0.0334   0.0948   0.1376   0.00    0.0
2091   6450.000   4121947.7608   2652189.4420   4069024.0910   6   4   0.1608   0.1446   0.1392   0.0342   0.0948   0.1375   0.00    0.0
2091   6480.000   4121947.7611   2652189.4417   4069024.0912   6   3   0.1606   0.1443   0.1392   0.0351   0.0948   0.1375   0.00    0.0
2091   6510.000   4121947.7610   2652189.4404   4069024.0921   6   4   0.1605   0.1441   0.1391   0.0360   0.0949   0.1374   0.00    0.0
2091   6540.000   4121947.7617   2652189.4395   4069024.0924   6   3   0.1603   0.1438   0.1389   0.0369   0.0950   0.1373   0.00    0.0
2091   6570.000   4121947.7612   2652189.4390   4069024.0890   6   3   0.1601   0.1435   0.1385   0.0377   0.0951   0.1372   0.00    0.0
2091   6600.000   4121947.7606   2652189.4396   4069024.0836   6   3   0.1599   0.1432   0.1370   0.0386   0.0954   0.1369   0.00    0.0
2091   6630.000   4121947.7614   2652189.4397   4069024.0836   6   3   0.1598   0.1429   0.1367   0.0394   0.0955   0.1368   0.00    0.0
2091   6660.000   4121947.7616   2652189.4386   4069024.0837   6   4   0.1596   0.1427   0.1366   0.0401   0.0956   0.1367   0.00    0.0
2091   6690.000   4121947.7630   2652189.4378   4069024.0855   6   3   0.1595   0.1424   0.1366   0.0408   0.0956   0.1367   0.00    0.0
2091   6720.000   4121947.7636   2652189.4368   4069024.0868   6   4   0.1593   0.1422   0.1365   0.0415   0.0957   0.1366   0.00    0.0
2091   6750.000   4121947.7634   2652189.4357   4069024.0872   6   4   0.1592   0.1419   0.1365   0.0421   0.0958   0.1366   0.00    0.0
2091   6780.000   4121947.7635   2652189.4353   4069024.0876   6   3   0.1591   0.1417   0.1365   0.0428   0.0958   0.1366   0.00    0.0
2091   6810.000   4121947.7631   2652189.4346   4069024.0877   6   3   0.1589   0.1414   0.1364   0.0434   0.0958   0.1365   0.00    0.0
2091   6840.000   4121947.7617   2652189.4325   4069024.0880   6   4   0.1588   0.1411   0.1363   0.0439   0.0959   0.1365   0.00    0.0
2091   6870.000   4121947.7558   2652189.4243   4069024.0789   6   4   0.1586   0.1408   0.1360   0.0443   0.0959   0.1364   0.00    0.0
2091   6900.000   4121947.7483   2652189.4117   4069024.0680   6   3   0.1583   0.1401   0.1350   0.0442   0.0957   0.1361   0.00    0.0
2091   6930.000   4121947.7478   2652189.4106   4069024.0676   6   3   0.1582   0.1398   0.1349   0.0447   0.0958   0.1361   0.00    0.0
2091   6960.000   4121947.7475   2652189.4090   4069024.0664   6   3   0.1581   0.1395   0.1348   0.0452   0.0958   0.1360   0.00    0.0
2091   6990.000   4121947.7480   2652189.4079   4069024.0658   6   3   0.1579   0.1393   0.1348   0.0457   0.0958   0.1360   0.00    0.0
2091   7020.000   4121947.7488   2652189.4066   4069024.0660   6   3   0.1578   0.1391   0.1347   0.0462   0.0959   0.1359   0.00    0.0
2091   7050.000   4121947.7497   2652189.4050   4069024.0661   6   3   0.1577   0.1389   0.1347   0.0467   0.0959   0.1359   0.00    0.0
2091   7080.000   4121947.7505   2652189.4028   4069024.0659   6   3   0.1575   0.1386   0.1347   0.0472   0.0959   0.1359   0.00    0.0
2091   7110.000   4121947.7508   2652189.3996   4069024.0643   6   3   0.1574   0.1384   0.1347   0.0476   0.0960   0.1358   0.00    0.0
2091   7140.000   4121947.7507   2652189.3957   4069024.0614   6   3   0.1572   0.1381   0.1346   0.0480   0.0959   0.1358   0.00    0.0
2091   7170.000   4121947.7496   2652189.3899   4069024.0588   6   3   0.1570   0.1376   0.1343   0.0480   0.0958   0.1356   0.00    0.0
2091   7200.000   4121947.7317   2652189.3543   4069024.0369   6   3   0.1566   0.1364   0.1336   0.0469   0.0951   0.1353   0.00    0.0
2091   7230.000   4121947.7276   2652189.3440   4069024.0313   6   3   0.1565   0.1360   0.1335   0.0471   0.0950   0.1352   0.00    0.0
2091   7290.000   4121947.7266   2652189.3398   4069024.0284   6   3   0.1563   0.1358   0.1334   0.0475   0.0950   0.1352   0.00    0.0
2091   7320.000   4121947.7263   2652189.3372   4069024.0266   6   3   0.1562   0.1356   0.1334   0.0479   0.0951   0.1352   0.00    0.0
2091   7350.000   4121947.7262   2652189.3354   4069024.0257   6   3   0.1561   0.1354   0.1334   0.0483   0.0951   0.1351   0.00    0.0
2091   7470.000   4121947.7141   2652189.3162   4069024.0103   6   4   0.1558   0.1346   0.1332   0.0484   0.0949   0.1350   0.00    0.0
2091   7500.000   4121947.6813   2652189.2607   4069023.9721   6   4   0.1551   0.1329   0.1326   0.0468   0.0939   0.1346   0.00    0.0
2091   7530.000   4121947.6759   2652189.2569   4069023.9628   6   4   0.1549   0.1323   0.1325   0.0470   0.0937   0.1345   0.00    0.0
2091   7560.000   4121947.6737   2652189.2631   4069023.9623   6   4   0.1547   0.1319   0.1324   0.0476   0.0938   0.1344   0.00    0.0
2091   7590.000   4121947.6709   2652189.2674   4069023.9617   6   4   0.1545   0.1316   0.1324   0.0483   0.0938   0.1343   0.00    0.0
2091   7620.000   4121947.6687   2652189.2711   4069023.9616   6   4   0.1543   0.1313   0.1324   0.0489   0.0939   0.1343   0.00    0.0
2091   7650.000   4121947.6666   2652189.2747   4069023.9617   6   4   0.1541   0.1310   0.1324   0.0495   0.0940   0.1342   0.00    0.0
2091   7680.000   4121947.6644   2652189.2780   4069023.9615   6   4   0.1539   0.1308   0.1323   0.0501   0.0941   0.1342   0.00    0.0
2091   7710.000   4121947.6617   2652189.2816   4069023.9613   6   4   0.1538   0.1305   0.1323   0.0507   0.0941   0.1341   0.00    0.0
2091   7740.000   4121947.6558   2652189.2900   4069023.9600   6   4   0.1536   0.1302   0.1323   0.0513   0.0942   0.1341   0.00    0.0
2091   7770.000   4121947.6509   2652189.3000   4069023.9584   6   4   0.1533   0.1299   0.1323   0.0517   0.0943   0.1341   0.00    0.0
2091   7800.000   4121947.6466   2652189.3106   4069023.9572   6   4   0.1529   0.1295   0.1323   0.0518   0.0943   0.1340   0.00    0.0
2091   7830.000   4121947.6376   2652189.3193   4069023.9558   6   4   0.1527   0.1292   0.1323   0.0522   0.0944   0.1340   0.00    0.0
2091   7860.000   4121947.6309   2652189.3287   4069023.9546   6   4   0.1525   0.1290   0.1323   0.0527   0.0945   0.1339   0.00    0.0
2091   7890.000   4121947.6254   2652189.3382   4069023.9537   6   4   0.1524   0.1287   0.1322   0.0532   0.0945   0.1339   0.00    0.0
2091   7920.000   4121947.6193   2652189.3470   4069023.9526   6   4   0.1522   0.1285   0.1322   0.0537   0.0946   0.1338   0.00    0.0
2091   7950.000   4121947.6136   2652189.3553   4069023.9517   6   4   0.1520   0.1283   0.1322   0.0542   0.0946   0.1338   0.00    0.0
2091   7980.000   4121947.6084   2652189.3634   4069023.9510   6   4   0.1519   0.1280   0.1322   0.0546   0.0947   0.1337   0.00    0.0
2091   8010.000   4121947.6035   2652189.3714   4069023.9503   6   4   0.1517   0.1278   0.1322   0.0551   0.0947   0.1337   0.00    0.0
2091   8040.000   4121947.6016   2652189.3782   4069023.9506   6   5   0.1515   0.1275   0.1322   0.0555   0.0948   0.1336   0.00    0.0
2091   8070.000   4121947.6029   2652189.3838   4069023.9524   6   5   0.1512   0.1271   0.1321   0.0559   0.0948   0.1335   0.00    0.0
2091   8100.000   4121947.6102   2652189.3837   4069023.9572   6   5   0.1505   0.1266   0.1320   0.0557   0.0948   0.1332   0.00    0.0
2091   8130.000   4121947.6137   2652189.3820   4069023.9586   6   5   0.1503   0.1263   0.1320   0.0562   0.0948   0.1331   0.00    0.0
2091   8160.000   4121947.6164   2652189.3783   4069023.9594   6   5   0.1501   0.1261   0.1320   0.0567   0.0949   0.1331   0.00    0.0
2091   8190.000   4121947.6193   2652189.3746   4069023.9603   6   5   0.1499   0.1258   0.1319   0.0571   0.0949   0.1330   0.00    0.0
2091   8220.000   4121947.6215   2652189.3719   4069023.9610   6   5   0.1498   0.1256   0.1319   0.0576   0.0950   0.1330   0.00    0.0
2091   8250.000   4121947.6233   2652189.3700   4069023.9617   6   5   0.1496   0.1253   0.1319   0.0580   0.0951   0.1329   0.00    0.0
2091   8280.000   4121947.6247   2652189.3682   4069023.9622   6   5   0.1495   0.1251   0.1319   0.0584   0.0951   0.1329   0.00    0.0
2091   8310.000   4121947.6260   2652189.3666   4069023.9626   6   5   0.1493   0.1248   0.1319   0.0589   0.0952   0.1328   0.00    0.0
2091   8340.000   4121947.6254   2652189.3645   4069023.9617   6   5   0.1491   0.1246   0.1319   0.0593   0.0952   0.1328   0.00    0.0
2091   8370.000   4121947.6266   2652189.3626   4069023.9622   6   5   0.1489   0.1243   0.1318   0.0597   0.0953   0.1327   0.00    0.0
2091   8400.000   4121947.6401   2652189.3598   4069023.9709   6   5   0.1485   0.1241   0.1317   0.0601   0.0953   0.1325   0.00    0.0
2091   8430.000   4121947.6464   2652189.3578   4069023.9747   6   5   0.1483   0.1238   0.1316   0.0605   0.0954   0.1324   0.00    0.0
2091   8460.000   4121947.6487   2652189.3563   4069023.9758   6   5   0.1482   0.1236   0.1316   0.0608   0.0954   0.1323   0.00    0.0
2091   8490.000   4121947.6518   2652189.3542   4069023.9773   6   5   0.1480   0.1234   0.1316   0.0612   0.0955   0.1323   0.00    0.0
2091   8520.000   4121947.6543   2652189.3522   4069023.9783   6   5   0.1479   0.1232   0.1316   0.0615   0.0955   0.1323   0.00    0.0
2091   8550.000   4121947.6567   2652189.3503   4069023.9792   6   5   0.1478   0.1230   0.1316   0.0619   0.0956   0.1322   0.00    0.0
2091   8580.000   4121947.6589   2652189.3486   4069023.9801   6   5   0.1477   0.1228   0.1316   0.0622   0.0956   0.1322   0.00    0.0
2091   8610.000   4121947.6609   2652189.3470   4069023.9809   6   5   0.1475   0.1226   0.1315   0.0625   0.0957   0.1321   0.00    0.0
2091   8640.000   4121947.6625   2652189.3458   4069023.9814   6   5   0.1474   0.1224   0.1315   0.0629   0.0957   0.1321   0.00    0.0
2091   8670.000   4121947.6638   2652189.3451   4069023.9822   6   5   0.1473   0.1221   0.1315   0.0632   0.0957   0.1321   0.00    0.0
2091   8700.000   4121947.6659   2652189.3400   4069023.9813   6   5   0.1471   0.1218   0.1315   0.0635   0.0957   0.1320   0.00    0.0
2091   8730.000   4121947.6670   2652189.3393   4069023.9818   6   5   0.1470   0.1216   0.1315   0.0638   0.0957   0.1320   0.00    0.0
2091   8760.000   4121947.6674   2652189.3393   4069023.9820   6   5   0.1469   0.1214   0.1314   0.0641   0.0958   0.1320   0.00    0.0
2091   8790.000   4121947.6680   2652189.3388   4069023.9822   6   5   0.1468   0.1212   0.1314   0.0644   0.0958   0.1319   0.00    0.0
2091   8820.000   4121947.6683   2652189.3387   4069023.9824   6   4   0.1467   0.1210   0.1314   0.0646   0.0958   0.1319   0.00    0.0
2091   8850.000   4121947.6694   2652189.3377   4069023.9827   6   5   0.1466   0.1208   0.1314   0.0649   0.0959   0.1319   0.00    0.0
2091   8880.000   4121947.6700   2652189.3375   4069023.9830   6   4   0.1465   0.1207   0.1314   0.0651   0.0959   0.1318   0.00    0.0
2091   8910.000   4121947.6713   2652189.3361   4069023.9833   6   5   0.1464   0.1205   0.1314   0.0654   0.0959   0.1318   0.00    0.0
2091   8940.000   4121947.6714   2652189.3367   4069023.9836   6   3   0.1463   0.1203   0.1314   0.0656   0.0960   0.1318   0.00    0.0
2091   8970.000   4121947.6738   2652189.3341   4069023.9843   6   5   0.1461   0.1201   0.1314   0.0658   0.0960   0.1317   0.00    0.0
2091   9000.000   4121947.6771   2652189.3308   4069023.9856   6   5   0.1460   0.1197   0.1313   0.0660   0.0959   0.1316   0.00    0.0
2091   9030.000   4121947.6796   2652189.3291   4069023.9870   6   5   0.1458   0.1195   0.1313   0.0662   0.0960   0.1316   0.00    0.0
2091   9060.000   4121947.6806   2652189.3289   4069023.9878   6   4   0.1457   0.1194   0.1313   0.0665   0.0960   0.1316   0.00    0.0
2091   9090.000   4121947.6815   2652189.3286   4069023.9884   6   5   0.1456   0.1192   0.1313   0.0667   0.0960   0.1315   0.00    0.0
2091   9120.000   4121947.6823   2652189.3287   4069023.9889   6   4   0.1455   0.1190   0.1312   0.0669   0.0961   0.1315   0.00    0.0
2091   9150.000   4121947.6831   2652189.3287   4069023.9895   6   5   0.1454   0.1189   0.1312   0.0671   0.0961   0.1315   0.00    0.0
2091   9180.000   4121947.6831   2652189.3298   4069023.9899   6   3   0.1454   0.1188   0.1312   0.0673   0.0961   0.1315   0.00    0.0
2091   9210.000   4121947.6830   2652189.3313   4069023.9904   6   4   0.1453   0.1187   0.1312   0.0674   0.0961   0.1314   0.00    0.0
2091   9240.000   4121947.6794   2652189.3359   4069023.9900   6   4   0.1452   0.1185   0.1312   0.0676   0.0961   0.1314   0.00    0.0
2091   9270.000   4121947.6781   2652189.3392   4069023.9900   6   5   0.1450   0.1183   0.1311   0.0677   0.0961   0.1313   0.00    0.0
2091   9300.000   4121947.6768   2652189.3330   4069023.9854   6   5   0.1447   0.1178   0.1309   0.0677   0.0959   0.1311   0.00    0.0
2091   9330.000   4121947.6744   2652189.3336   4069023.9839   6   5   0.1446   0.1177   0.1309   0.0678   0.0958   0.1310   0.00    0.0
2091   9360.000   4121947.6729   2652189.3347   4069023.9833   6   4   0.1445   0.1175   0.1308   0.0680   0.0958   0.1310   0.00    0.0
2091   9390.000   4121947.6724   2652189.3357   4069023.9833   6   5   0.1444   0.1174   0.1308   0.0682   0.0959   0.1309   0.00    0.0
2091   9420.000   4121947.6726   2652189.3366   4069023.9838   6   5   0.1443   0.1172   0.1308   0.0684   0.0959   0.1309   0.00    0.0
2091   9450.000   4121947.6732   2652189.3369   4069023.9841   6   4   0.1442   0.1171   0.1308   0.0685   0.0959   0.1309   0.00    0.0
2091   9480.000   4121947.6760   2652189.3360   4069023.9854   6   4   0.1441   0.1170   0.1308   0.0687   0.0959   0.1309   0.00    0.0
2091   9510.000   4121947.6790   2652189.3354   4069023.9870   6   5   0.1440   0.1168   0.1308   0.0689   0.0960   0.1308   0.00    0.0
2091   9540.000   4121947.6837   2652189.3355   4069023.9897   6   5   0.1439   0.1167   0.1308   0.0691   0.0960   0.1308   0.00    0.0
2091   9570.000   4121947.6907   2652189.3365   4069023.9938   6   5   0.1437   0.1166   0.1307   0.0692   0.0960   0.1307   0.00    0.0
2091   9600.000   4121947.7026   2652189.3387   4069024.0005   6   5   0.1433   0.1164   0.1306   0.0693   0.0960   0.1304   0.00    0.0
2091   9630.000   4121947.7058   2652189.3395   4069024.0025   6   4   0.1431   0.1163   0.1305   0.0694   0.0960   0.1303   0.00    0.0
2091   9660.000   4121947.7071   2652189.3401   4069024.0034   6   5   0.1430   0.1162   0.1305   0.0696   0.0960   0.1303   0.00    0.0
2091   9690.000   4121947.7084   2652189.3404   4069024.0042   6   4   0.1429   0.1160   0.1305   0.0698   0.0960   0.1303   0.00    0.0
2091   9720.000   4121947.7096   2652189.3406   4069024.0049   6   4   0.1428   0.1159   0.1305   0.0699   0.0961   0.1303   0.00    0.0
2091   9750.000   4121947.7102   2652189.3412   4069024.0054   6   4   0.1428   0.1158   0.1305   0.0701   0.0961   0.1302   0.00    0.0
2091   9780.000   4121947.7094   2652189.3435   4069024.0058   6   4   0.1427   0.1157   0.1305   0.0702   0.0961   0.1302   0.00    0.0
2091   9810.000   4121947.7104   2652189.3457   4069024.0073   6   5   0.1426   0.1155   0.1305   0.0704   0.0961   0.1302   0.00    0.0
2091   9840.000   4121947.7130   2652189.3483   4069024.0097   6   4   0.1425   0.1154   0.1304   0.0705   0.0961   0.1302   0.00    0.0
2091   9870.000   4121947.7238   2652189.3504   4069024.0162   6   4   0.1423   0.1153   0.1304   0.0706   0.0961   0.1301   0.00    0.0
2091   9900.000   4121947.7391   2652189.3522   4069024.0251   6   4   0.1417   0.1152   0.1302   0.0707   0.0961   0.1297   0.00    0.0
2091   9930.000   4121947.7456   2652189.3533   4069024.0290   6   4   0.1415   0.1151   0.1302   0.0709   0.0961   0.1296   0.00    0.0
2091   9960.000   4121947.7487   2652189.3543   4069024.0310   6   3   0.1415   0.1150   0.1301   0.0709   0.0962   0.1296   0.00    0.0
2091   9990.000   4121947.7486   2652189.3557   4069024.0315   6   4   0.1414   0.1149   0.1301   0.0711   0.0962   0.1296   0.00    0.0
2091  10020.000   4121947.7483   2652189.3573   4069024.0319   6   4   0.1413   0.1148   0.1301   0.0712   0.0962   0.1296   0.00    0.0
2091  10050.000   4121947.7483   2652189.3586   4069024.0324   6   5   0.1412   0.1147   0.1301   0.0713   0.0962   0.1295   0.00    0.0
2091  10080.000   4121947.7482   2652189.3595   4069024.0326   6   5   0.1412   0.1145   0.1301   0.0715   0.0962   0.1295   0.00    0.0
2091  10110.000   4121947.7487   2652189.3596   4069024.0326   6   3   0.1411   0.1145   0.1301   0.0715   0.0962   0.1295   0.00    0.0
2091  10140.000   4121947.7512   2652189.3595   4069024.0333   6   4   0.1410   0.1143   0.1300   0.0716   0.0962   0.1294   0.00    0.0
2091  10170.000   4121947.7628   2652189.3541   4069024.0363   6   3   0.1408   0.1141   0.1299   0.0716   0.0961   0.1293   0.00    0.0
2091  10200.000   4121947.7739   2652189.3507   4069024.0401   6   3   0.1399   0.1137   0.1295   0.0715   0.0958   0.1287   0.00    0.0
2091  10230.000   4121947.7774   2652189.3462   4069024.0393   6   4   0.1397   0.1135   0.1294   0.0715   0.0957   0.1286   0.00    0.0
2091  10260.000   4121947.7798   2652189.3447   4069024.0394   6   4   0.1396   0.1134   0.1293   0.0716   0.0957   0.1285   0.00    0.0
2091  10290.000   4121947.7805   2652189.3446   4069024.0397   6   5   0.1395   0.1133   0.1293   0.0717   0.0957   0.1285   0.00    0.0
2091  10320.000   4121947.7793   2652189.3458   4069024.0392   6   3   0.1395   0.1132   0.1293   0.0718   0.0957   0.1285   0.00    0.0
2091  10350.000   4121947.7786   2652189.3472   4069024.0392   6   3   0.1394   0.1132   0.1293   0.0719   0.0957   0.1285   0.00    0.0
2091  10380.000   4121947.7783   2652189.3480   4069024.0392   6   4   0.1394   0.1130   0.1293   0.0719   0.0957   0.1284   0.00    0.0
2091  10410.000   4121947.7773   2652189.3491   4069024.0389   6   4   0.1393   0.1129   0.1292   0.0720   0.0957   0.1284   0.00    0.0
2091  10440.000   4121947.7761   2652189.3500   4069024.0383   6   3   0.1392   0.1128   0.1292   0.0720   0.0956   0.1283   0.00    0.0
2091  10470.000   4121947.7753   2652189.3512   4069024.0382   6   3   0.1390   0.1126   0.1289   0.0717   0.0953   0.1281   0.00    0.0
2091  10500.000   4121947.7632   2652189.3441   4069024.0268   6   4   0.1381   0.1118   0.1280   0.0704   0.0943   0.1271   0.00    0.0
2091  10530.000   4121947.7614   2652189.3445   4069024.0257   6   3   0.1379   0.1116   0.1278   0.0702   0.0941   0.1269   0.00    0.0
2091  10560.000   4121947.7606   2652189.3455   4069024.0255   6   3   0.1378   0.1115   0.1277   0.0702   0.0941   0.1269   0.00    0.0
2091  10590.000   4121947.7603   2652189.3469   4069024.0258   6   3   0.1378   0.1114   0.1277   0.0702   0.0940   0.1268   0.00    0.0
2091  10620.000   4121947.7594   2652189.3476   4069024.0254   6   3   0.1377   0.1113   0.1277   0.0703   0.0940   0.1268   0.00    0.0
2091  10680.000   4121947.7580   2652189.3474   4069024.0242   6   3   0.1377   0.1112   0.1276   0.0703   0.0940   0.1268   0.00    0.0
2091  10710.000   4121947.7538   2652189.3442   4069024.0197   6   3   0.1376   0.1111   0.1276   0.0703   0.0939   0.1267   0.00    0.0
2091  10740.000   4121947.7446   2652189.3362   4069024.0098   6   3   0.1375   0.1109   0.1275   0.0702   0.0938   0.1266   0.00    0.0
2091  10770.000   4121947.7299   2652189.3219   4069023.9933   6   3   0.1372   0.1105   0.1271   0.0697   0.0933   0.1263   0.00    0.0
2091  10800.000   4121947.7086   2652189.2941   4069023.9657   6   3   0.1359   0.1090   0.1255   0.0675   0.0915   0.1248   0.00    0.0
2091  10890.000   4121947.7085   2652189.2948   4069023.9658   6   3   0.1359   0.1089   0.1255   0.0675   0.0914   0.1248   0.00    0.0
2091  10950.000   4121947.7084   2652189.2961   4069023.9662   6   3   0.1358   0.1088   0.1254   0.0675   0.0914   0.1247   0.00    0.0
2091  10980.000   4121947.7081   2652189.2978   4069023.9666   6   3   0.1358   0.1087   0.1254   0.0675   0.0914   0.1247   0.00    0.0
2091  11010.000   4121947.7077   2652189.2996   4069023.9671   6   3   0.1357   0.1086   0.1253   0.0675   0.0913   0.1246   0.00    0.0
2091  11040.000   4121947.7059   2652189.2991   4069023.9655   6   3   0.1355   0.1083   0.1251   0.0673   0.0910   0.1245   0.00    0.0
2091  11070.000   4121947.7009   2652189.2900   4069023.9575   6   3   0.1351   0.1077   0.1245   0.0665   0.0903   0.1240   0.00    0.0
2091  11130.000   4121947.6897   2652189.2758   4069023.9431   6   3   0.1346   0.1069   0.1239   0.0657   0.0895   0.1234   0.00    0.0
2091  11400.000   4121947.6638   2652189.1644   4069023.8711   6   4   0.1320   0.1025   0.1203   0.0608   0.0846   0.1204   0.00    0.0
2091  11430.000   4121947.6596   2652189.1419   4069023.8577   6   4   0.1315   0.1017   0.1196   0.0601   0.0838   0.1198   0.00    0.0
2091  11460.000   4121947.6600   2652189.1358   4069023.8547   6   4   0.1313   0.1013   0.1194   0.0599   0.0836   0.1196   0.00    0.0
2091  11490.000   4121947.6607   2652189.1316   4069023.8531   6   4   0.1312   0.1011   0.1193   0.0599   0.0835   0.1195   0.00    0.0
2091  11520.000   4121947.6621   2652189.1278   4069023.8521   6   4   0.1311   0.1010   0.1193   0.0599   0.0834   0.1195   0.00    0.0
2091  11550.000   4121947.6634   2652189.1242   4069023.8512   6   4   0.1310   0.1009   0.1192   0.0600   0.0834   0.1194   0.00    0.0
2091  11580.000   4121947.6656   2652189.1159   4069023.8491   6   5   0.1309   0.1006   0.1192   0.0601   0.0833   0.1194   0.00    0.0
2091  11610.000   4121947.6671   2652189.1070   4069023.8462   6   5   0.1307   0.1004   0.1190   0.0601   0.0832   0.1192   0.00    0.0
2091  11640.000   4121947.6663   2652189.0931   4069023.8394   6   5   0.1305   0.0999   0.1188   0.0599   0.0828   0.1190   0.00    0.0
2091  11670.000   4121947.6574   2652189.0542   4069023.8152   6   5   0.1299   0.0987   0.1180   0.0590   0.0818   0.1183   0.00    0.0
2091  11700.000   4121947.6292   2652188.9605   4069023.7507   6   4   0.1278   0.0951   0.1153   0.0555   0.0780   0.1161   0.00    0.0
2091  11730.000   4121947.6250   2652188.9506   4069023.7438   6   4   0.1274   0.0944   0.1148   0.0549   0.0773   0.1156   0.00    0.0
2091  11760.000   4121947.6262   2652188.9450   4069023.7426   6   5   0.1272   0.0941   0.1146   0.0549   0.0772   0.1155   0.00    0.0
2091  11790.000   4121947.6292   2652188.9393   4069023.7424   6   5   0.1271   0.0939   0.1145   0.0550   0.0771   0.1154   0.00    0.0
2091  11820.000   4121947.6318   2652188.9338   4069023.7421   6   5   0.1270   0.0937   0.1145   0.0551   0.0771   0.1153   0.00    0.0
2091  11850.000   4121947.6345   2652188.9285   4069023.7419   6   5   0.1269   0.0935   0.1145   0.0552   0.0771   0.1153   0.00    0.0
2091  11880.000   4121947.6366   2652188.9218   4069023.7405   6   5   0.1268   0.0934   0.1144   0.0553   0.0770   0.1152   0.00    0.0
2091  11910.000   4121947.6388   2652188.9140   4069023.7386   6   5   0.1267   0.0931   0.1143   0.0553   0.0770   0.1151   0.00    0.0
2091  11940.000   4121947.6401   2652188.9024   4069023.7342   6   5   0.1264   0.0928   0.1141   0.0553   0.0767   0.1150   0.00    0.0
2091  11970.000   4121947.6386   2652188.8652   4069023.7150   6   5   0.1260   0.0918   0.1136   0.0547   0.0760   0.1145   0.00    0.0
2091  12000.000   4121947.6212   2652188.7867   4069023.6655   6   5   0.1243   0.0888   0.1116   0.0525   0.0732   0.1128   0.00    0.0
2091  12030.000   4121947.6251   2652188.7742   4069023.6620   6   5   0.1239   0.0882   0.1113   0.0522   0.0727   0.1125   0.00    0.0
2091  12060.000   4121947.6284   2652188.7665   4069023.6606   6   5   0.1237   0.0879   0.1112   0.0523   0.0726   0.1124   0.00    0.0
2091  12090.000   4121947.6308   2652188.7610   4069023.6596   6   5   0.1236   0.0878   0.1111   0.0523   0.0726   0.1123   0.00    0.0
2091  12120.000   4121947.6332   2652188.7584   4069023.6601   6   5   0.1236   0.0877   0.1111   0.0525   0.0726   0.1123   0.00    0.0
2091  12150.000   4121947.6351   2652188.7560   4069023.6604   6   5   0.1235   0.0876   0.1110   0.0526   0.0726   0.1122   0.00    0.0
2091  12180.000   4121947.6375   2652188.7527   4069023.6605   6   5   0.1234   0.0874   0.1110   0.0528   0.0726   0.1122   0.00    0.0
2091  12210.000   4121947.6399   2652188.7487   4069023.6604   6   5   0.1233   0.0873   0.1110   0.0529   0.0727   0.1122   0.00    0.0
2091  12240.000   4121947.6415   2652188.7462   4069023.6605   6   5   0.1232   0.0871   0.1109   0.0530   0.0726   0.1121   0.00    0.0
2091  12270.000   4121947.6450   2652188.7399   4069023.6600   6   5   0.1229   0.0866   0.1108   0.0532   0.0724   0.1119   0.00    0.0
2091  12300.000   4121947.6715   2652188.7026   4069023.6581   6   5   0.1219   0.0852   0.1103   0.0536   0.0719   0.1114   0.00    0.0
2091  12330.000   4121947.6779   2652188.6914   4069023.6569   6   5   0.1217   0.0848   0.1102   0.0538   0.0718   0.1113   0.00    0.0
2091  12360.000   4121947.6816   2652188.6860   4069023.6568   6   5   0.1216   0.0847   0.1101   0.0539   0.0718   0.1112   0.00    0.0
2091  12390.000   4121947.6832   2652188.6844   4069023.6572   6   4   0.1216   0.0846   0.1101   0.0540   0.0718   0.1112   0.00    0.0
2091  12420.000   4121947.6862   2652188.6814   4069023.6580   6   5   0.1215   0.0845   0.1101   0.0541   0.0718   0.1111   0.00    0.0
2091  12450.000   4121947.6887   2652188.6793   4069023.6588   6   5   0.1214   0.0844   0.1101   0.0542   0.0719   0.1111   0.00    0.0
2091  12480.000   4121947.6910   2652188.6770   4069023.6594   6   5   0.1214   0.0843   0.1101   0.0543   0.0719   0.1111   0.00    0.0
2091  12510.000   4121947.6938   2652188.6741   4069023.6600   6   5   0.1213   0.0842   0.1100   0.0545   0.0719   0.1110   0.00    0.0
2091  12540.000   4121947.6981   2652188.6683   4069023.6599   6   5   0.1211   0.0841   0.1100   0.0546   0.0719   0.1110   0.00    0.0
2091  12570.000   4121947.7038   2652188.6619   4069023.6603   6   5   0.1209   0.0838   0.1099   0.0548   0.0719   0.1109   0.00    0.0
2091  12600.000   4121947.7271   2652188.6355   4069023.6608   6   5   0.1201   0.0830   0.1096   0.0555   0.0717   0.1105   0.00    0.0
2091  12630.000   4121947.7325   2652188.6316   4069023.6624   6   5   0.1199   0.0828   0.1095   0.0557   0.0717   0.1104   0.00    0.0
2091  12660.000   4121947.7360   2652188.6278   4069023.6628   6   5   0.1198   0.0827   0.1095   0.0558   0.0717   0.1103   0.00    0.0
2091  12690.000   4121947.7384   2652188.6252   4069023.6632   6   5   0.1197   0.0826   0.1095   0.0559   0.0717   0.1103   0.00    0.0
2091  12720.000   4121947.7406   2652188.6229   4069023.6637   6   5   0.1196   0.0825   0.1095   0.0560   0.0717   0.1103   0.00    0.0
2091  12750.000   4121947.7428   2652188.6208   4069023.6642   6   5   0.1196   0.0825   0.1094   0.0561   0.0718   0.1102   0.00    0.0
2091  12780.000   4121947.7452   2652188.6185   4069023.6648   6   5   0.1195   0.0824   0.1094   0.0562   0.0718   0.1102   0.00    0.0
2091  12810.000   4121947.7482   2652188.6150   4069023.6652   6   5   0.1195   0.0823   0.1094   0.0563   0.0718   0.1102   0.00    0.0
2091  12840.000   4121947.7531   2652188.6078   4069023.6651   6   5   0.1194   0.0821   0.1094   0.0564   0.0718   0.1101   0.00    0.0
2091  12870.000   4121947.7632   2652188.5937   4069023.6649   6   5   0.1191   0.0818   0.1093   0.0567   0.0718   0.1101   0.00    0.0
2091  12900.000   4121947.7927   2652188.5524   4069023.6645   6   5   0.1184   0.0806   0.1091   0.0576   0.0716   0.1098   0.00    0.0
2091  12930.000   4121947.7968   2652188.5487   4069023.6657   6   5   0.1183   0.0804   0.1090   0.0578   0.0716   0.1097   0.00    0.0
2091  12960.000   4121947.8001   2652188.5451   4069023.6664   6   5   0.1182   0.0803   0.1090   0.0579   0.0716   0.1097   0.00    0.0
2091  12990.000   4121947.8029   2652188.5422   4069023.6671   6   5   0.1181   0.0802   0.1090   0.0580   0.0716   0.1097   0.00    0.0
2091  13020.000   4121947.8055   2652188.5393   4069023.6677   6   5   0.1181   0.0801   0.1090   0.0581   0.0716   0.1096   0.00    0.0
2091  13050.000   4121947.8082   2652188.5366   4069023.6684   6   5   0.1180   0.0800   0.1090   0.0582   0.0717   0.1096   0.00    0.0
2091  13080.000   4121947.8115   2652188.5328   4069023.6691   6   5   0.1180   0.0800   0.1090   0.0583   0.0717   0.1096   0.00    0.0
2091  13110.000   4121947.8158   2652188.5275   4069023.6700   6   5   0.1179   0.0799   0.1089   0.0584   0.0717   0.1096   0.00    0.0
2091  13140.000   4121947.8217   2652188.5203   4069023.6714   6   5   0.1178   0.0797   0.1089   0.0585   0.0717   0.1095   0.00    0.0
2091  13170.000   4121947.8286   2652188.5118   4069023.6727   6   4   0.1176   0.0793   0.1089   0.0589   0.0717   0.1095   0.00    0.0
2091  13200.000   4121947.8567   2652188.4667   4069023.6716   6   5   0.1171   0.0778   0.1087   0.0599   0.0716   0.1094   0.00    0.0
2091  13230.000   4121947.8667   2652188.4515   4069023.6718   6   5   0.1169   0.0774   0.1087   0.0602   0.0716   0.1093   0.00    0.0
2091  13260.000   4121947.8717   2652188.4439   4069023.6719   6   5   0.1168   0.0773   0.1087   0.0603   0.0716   0.1093   0.00    0.0
2091  13290.000   4121947.8743   2652188.4405   4069023.6722   6   5   0.1168   0.0772   0.1087   0.0604   0.0716   0.1093   0.00    0.0
2091  13320.000   4121947.8763   2652188.4382   4069023.6726   6   5   0.1168   0.0772   0.1086   0.0605   0.0716   0.1092   0.00    0.0
2091  13350.000   4121947.8768   2652188.4373   4069023.6724   6   4   0.1167   0.0771   0.1086   0.0605   0.0716   0.1092   0.00    0.0
2091  13380.000   4121947.8776   2652188.4359   4069023.6722   6   5   0.1167   0.0771   0.1086   0.0606   0.0716   0.1092   0.00    0.0
2091  13410.000   4121947.8785   2652188.4349   4069023.6722   6   5   0.1167   0.0770   0.1086   0.0606   0.0717   0.1092   0.00    0.0
2091  13440.000   4121947.8798   2652188.4337   4069023.6723   6   5   0.1166   0.0769   0.1086   0.0607   0.0717   0.1092   0.00    0.0
2091  13470.000   4121947.8843   2652188.4279   4069023.6719   6   5   0.1165   0.0766   0.1086   0.0609   0.0716   0.1092   0.00    0.0
2091  13500.000   4121947.9012   2652188.3972   4069023.6655   6   5   0.1162   0.0755   0.1085   0.0616   0.0713   0.1092   0.00    0.0
2091  13530.000   4121947.9056   2652188.3897   4069023.6645   6   5   0.1161   0.0753   0.1085   0.0617   0.0713   0.1092   0.00    0.0
2091  13560.000   4121947.9082   2652188.3857   4069023.6642   6   4   0.1161   0.0752   0.1084   0.0618   0.0713   0.1092   0.00    0.0
2091  13590.000   4121947.9100   2652188.3836   4069023.6644   6   5   0.1161   0.0751   0.1084   0.0618   0.0713   0.1091   0.00    0.0
2091  13620.000   4121947.9117   2652188.3817   4069023.6646   6   5   0.1160   0.0751   0.1084   0.0619   0.0713   0.1091   0.00    0.0
2091  13650.000   4121947.9130   2652188.3805   4069023.6649   6   4   0.1160   0.0750   0.1084   0.0619   0.0713   0.1091   0.00    0.0
2091  13680.000   4121947.9134   2652188.3790   4069023.6644   6   5   0.1160   0.0750   0.1084   0.0620   0.0713   0.1091   0.00    0.0
2091  13710.000   4121947.9137   2652188.3784   4069023.6643   6   5   0.1159   0.0749   0.1084   0.0620   0.0713   0.1091   0.00    0.0
2091  13740.000   4121947.9144   2652188.3774   4069023.6642   6   5   0.1159   0.0748   0.1084   0.0621   0.0713   0.1091   0.00    0.0
2091  13770.000   4121947.9176   2652188.3705   4069023.6626   6   5   0.1158   0.0745   0.1083   0.0623   0.0713   0.1091   0.00    0.0
2091  13800.000   4121947.9300   2652188.3381   4069023.6532   6   4   0.1157   0.0733   0.1083   0.0628   0.0709   0.1091   0.00    0.0
2091  13830.000   4121947.9334   2652188.3300   4069023.6512   6   4   0.1156   0.0731   0.1082   0.0629   0.0709   0.1091   0.00    0.0
2091  13860.000   4121947.9345   2652188.3289   4069023.6513   6   5   0.1156   0.0730   0.1082   0.0630   0.0708   0.1091   0.00    0.0
2091  13890.000   4121947.9357   2652188.3279   4069023.6516   6   5   0.1156   0.0730   0.1082   0.0630   0.0708   0.1091   0.00    0.0
2091  13920.000   4121947.9369   2652188.3269   4069023.6520   6   5   0.1156   0.0729   0.1082   0.0631   0.0709   0.1091   0.00    0.0
2091  13950.000   4121947.9381   2652188.3259   4069023.6523   6   4   0.1155   0.0729   0.1082   0.0631   0.0709   0.1091   0.00    0.0
2091  13980.000   4121947.9394   2652188.3242   4069023.6524   6   4   0.1155   0.0728   0.1082   0.0631   0.0709   0.1091   0.00    0.0
2091  14010.000   4121947.9409   2652188.3218   4069023.6523   6   5   0.1155   0.0728   0.1082   0.0632   0.0709   0.1090   0.00    0.0
2091  14040.000   4121947.9430   2652188.3174   4069023.6516   6   5   0.1154   0.0727   0.1081   0.0633   0.0709   0.1090   0.00    0.0
2091  14070.000   4121947.9494   2652188.3030   4069023.6492   6   5   0.1154   0.0723   0.1081   0.0634   0.0708   0.1090   0.00    0.0
2091  14100.000   4121947.9618   2652188.2701   4069023.6416   6   5   0.1152   0.0710   0.1079   0.0639   0.0704   0.1090   0.00    0.0
2091  14130.000   4121947.9644   2652188.2619   4069023.6389   6   5   0.1152   0.0708   0.1078   0.0640   0.0703   0.1090   0.00    0.0
2091  14160.000   4121947.9660   2652188.2582   4069023.6381   6   5   0.1151   0.0707   0.1078   0.0640   0.0703   0.1090   0.00    0.0
2091  14190.000   4121947.9672   2652188.2562   4069023.6380   6   5   0.1151   0.0706   0.1078   0.0640   0.0703   0.1089   0.00    0.0
2091  14220.000   4121947.9683   2652188.2547   4069023.6380   6   5   0.1151   0.0706   0.1078   0.0641   0.0703   0.1089   0.00    0.0
2091  14250.000   4121947.9692   2652188.2536   4069023.6381   6   4   0.1150   0.0705   0.1078   0.0641   0.0703   0.1089   0.00    0.0
2091  14280.000   4121947.9701   2652188.2522   4069023.6379   6   5   0.1150   0.0705   0.1077   0.0641   0.0703   0.1089   0.00    0.0
2091  14310.000   4121947.9713   2652188.2497   4069023.6375   6   4   0.1150   0.0704   0.1077   0.0642   0.0703   0.1089   0.00    0.0
2091  14340.000   4121947.9739   2652188.2443   4069023.6369   6   4   0.1149   0.0703   0.1077   0.0642   0.0703   0.1088   0.00    0.0
2091  14370.000   4121947.9778   2652188.2361   4069023.6361   6   4   0.1148   0.0699   0.1076   0.0644   0.0702   0.1087   0.00    0.0
2091  14400.000   4121947.9911   2652188.2058   4069023.6323   6   5   0.1145   0.0685   0.1071   0.0647   0.0698   0.1085   0.00    0.0
2091  14430.000   4121947.9953   2652188.1988   4069023.6325   6   4   0.1144   0.0683   0.1070   0.0648   0.0697   0.1084   0.00    0.0
2091  14460.000   4121947.9967   2652188.1961   4069023.6322   6   5   0.1143   0.0682   0.1070   0.0648   0.0697   0.1084   0.00    0.0
2091  14490.000   4121947.9974   2652188.1946   4069023.6319   6   4   0.1143   0.0681   0.1069   0.0649   0.0697   0.1083   0.00    0.0
2091  14520.000   4121947.9978   2652188.1941   4069023.6317   6   5   0.1142   0.0681   0.1069   0.0649   0.0697   0.1083   0.00    0.0
2091  14550.000   4121947.9982   2652188.1938   4069023.6316   6   5   0.1142   0.0680   0.1069   0.0649   0.0697   0.1083   0.00    0.0
2091  14580.000   4121947.9985   2652188.1931   4069023.6312   6   5   0.1142   0.0680   0.1069   0.0649   0.0697   0.1083   0.00    0.0
2091  14610.000   4121947.9997   2652188.1914   4069023.6312   6   4   0.1141   0.0679   0.1068   0.0650   0.0697   0.1082   0.00    0.0
2091  14640.000   4121948.0006   2652188.1903   4069023.6313   6   4   0.1141   0.0678   0.1068   0.0650   0.0697   0.1082   0.00    0.0
2091  14670.000   4121948.0083   2652188.1819   4069023.6346   6   4   0.1139   0.0674   0.1065   0.0651   0.0696   0.1080   0.00    0.0
2091  14700.000   4121948.0325   2652188.1502   4069023.6429   6   4   0.1131   0.0660   0.1057   0.0654   0.0691   0.1073   0.00    0.0
2091  14730.000   4121948.0363   2652188.1457   4069023.6442   6   5   0.1130   0.0657   0.1055   0.0654   0.0691   0.1071   0.00    0.0
2091  14760.000   4121948.0382   2652188.1439   4069023.6451   6   4   0.1129   0.0656   0.1054   0.0654   0.0690   0.1071   0.00    0.0
2091  14790.000   4121948.0398   2652188.1430   4069023.6460   6   4   0.1128   0.0656   0.1054   0.0655   0.0690   0.1070   0.00    0.0
2091  14820.000   4121948.0411   2652188.1422   4069023.6467   6   4   0.1128   0.0656   0.1054   0.0655   0.0690   0.1070   0.00    0.0
2091  14850.000   4121948.0419   2652188.1416   4069023.6470   6   5   0.1128   0.0655   0.1054   0.0655   0.0690   0.1070   0.00    0.0
2091  14880.000   4121948.0425   2652188.1409   4069023.6470   6   4   0.1127   0.0655   0.1053   0.0655   0.0690   0.1070   0.00    0.0
2091  14910.000   4121948.0440   2652188.1397   4069023.6477   6   4   0.1127   0.0654   0.1053   0.0655   0.0690   0.1069   0.00    0.0
2091  14940.000   4121948.0468   2652188.1378   4069023.6493   6   4   0.1126   0.0653   0.1052   0.0656   0.0690   0.1068   0.00    0.0
2091  14970.000   4121948.0561   2652188.1330   4069023.6564   6   4   0.1122   0.0650   0.1048   0.0656   0.0689   0.1065   0.00    0.0
2091  15000.000   4121948.0922   2652188.1064   4069023.6800   6   4   0.1111   0.0636   0.1035   0.0657   0.0684   0.1053   0.00    0.0
2091  15030.000   4121948.1012   2652188.1008   4069023.6860   6   4   0.1108   0.0633   0.1032   0.0657   0.0683   0.1050   0.00    0.0
2091  15060.000   4121948.1054   2652188.0982   4069023.6887   6   5   0.1107   0.0632   0.1031   0.0657   0.0683   0.1049   0.00    0.0
2091  15090.000   4121948.1086   2652188.0966   4069023.6908   6   4   0.1106   0.0632   0.1030   0.0657   0.0683   0.1049   0.00    0.0
2091  15120.000   4121948.1104   2652188.0954   4069023.6918   6   4   0.1106   0.0631   0.1030   0.0657   0.0683   0.1048   0.00    0.0
2091  15150.000   4121948.1118   2652188.0944   4069023.6924   6   4   0.1105   0.0631   0.1030   0.0657   0.0683   0.1048   0.00    0.0
2091  15180.000   4121948.1131   2652188.0934   4069023.6930   6   4   0.1105   0.0631   0.1029   0.0657   0.0683   0.1048   0.00    0.0
2091  15210.000   4121948.1146   2652188.0921   4069023.6935   6   4   0.1104   0.0630   0.1029   0.0657   0.0682   0.1047   0.00    0.0
2091  15240.000   4121948.1179   2652188.0900   4069023.6956   6   4   0.1103   0.0629   0.1027   0.0657   0.0682   0.1045   0.00    0.0
2091  15270.000   4121948.1275   2652188.0832   4069023.7018   6   4   0.1098   0.0626   0.1022   0.0657   0.0681   0.1041   0.00    0.0
2091  15300.000   4121948.1624   2652188.0652   4069023.7283   6   4   0.1082   0.0613   0.1004   0.0656   0.0675   0.1024   0.00    0.0
2091  15330.000   4121948.1772   2652188.0596   4069023.7402   6   4   0.1078   0.0611   0.1000   0.0655   0.0673   0.1020   0.00    0.0
2091  15360.000   4121948.1839   2652188.0568   4069023.7450   6   4   0.1077   0.0610   0.0999   0.0655   0.0673   0.1019   0.00    0.0
2091  15390.000   4121948.1889   2652188.0547   4069023.7487   6   4   0.1076   0.0610   0.0998   0.0655   0.0673   0.1018   0.00    0.0
2091  15420.000   4121948.1916   2652188.0536   4069023.7505   6   4   0.1076   0.0609   0.0998   0.0655   0.0673   0.1018   0.00    0.0
2091  15450.000   4121948.1932   2652188.0527   4069023.7514   6   4   0.1075   0.0609   0.0998   0.0655   0.0673   0.1017   0.00    0.0
2091  15480.000   4121948.1953   2652188.0520   4069023.7529   6   4   0.1075   0.0609   0.0997   0.0655   0.0673   0.1017   0.00    0.0
2091  15510.000   4121948.1985   2652188.0513   4069023.7555   6   4   0.1074   0.0608   0.0996   0.0655   0.0673   0.1016   0.00    0.0
2091  15540.000   4121948.2056   2652188.0500   4069023.7616   6   4   0.1072   0.0608   0.0994   0.0655   0.0672   0.1014   0.00    0.0
2091  15570.000   4121948.2205   2652188.0471   4069023.7747   6   4   0.1066   0.0605   0.0988   0.0654   0.0670   0.1008   0.00    0.0
2091  15600.000   4121948.2553   2652188.0330   4069023.8026   6   4   0.1046   0.0593   0.0966   0.0650   0.0662   0.0988   0.00    0.0
2091  15630.000   4121948.2576   2652188.0314   4069023.8040   6   4   0.1042   0.0591   0.0962   0.0649   0.0661   0.0983   0.00    0.0
2091  15660.000   4121948.2618   2652188.0303   4069023.8074   6   4   0.1040   0.0590   0.0960   0.0649   0.0661   0.0981   0.00    0.0
2091  15690.000   4121948.2646   2652188.0296   4069023.8096   6   4   0.1040   0.0590   0.0959   0.0648   0.0660   0.0981   0.00    0.0
2091  15720.000   4121948.2654   2652188.0293   4069023.8100   6   4   0.1039   0.0590   0.0959   0.0648   0.0660   0.0980   0.00    0.0
2091  15750.000   4121948.2659   2652188.0290   4069023.8102   6   4   0.1039   0.0590   0.0958   0.0648   0.0660   0.0980   0.00    0.0
2091  15780.000   4121948.2671   2652188.0286   4069023.8109   6   4   0.1038   0.0589   0.0958   0.0648   0.0660   0.0979   0.00    0.0
2091  15810.000   4121948.2677   2652188.0287   4069023.8115   6   4   0.1037   0.0589   0.0957   0.0648   0.0660   0.0978   0.00    0.0
2091  15840.000   4121948.2691   2652188.0289   4069023.8130   6   4   0.1035   0.0588   0.0954   0.0648   0.0659   0.0976   0.00    0.0
2091  15870.000   4121948.2737   2652188.0279   4069023.8173   6   4   0.1028   0.0586   0.0947   0.0646   0.0657   0.0969   0.00    0.0
2091  15900.000   4121948.3093   2652188.0197   4069023.8487   6   4   0.1006   0.0575   0.0923   0.0639   0.0648   0.0946   0.00    0.0
2091  15930.000   4121948.3173   2652188.0196   4069023.8560   6   4   0.1001   0.0574   0.0917   0.0638   0.0646   0.0940   0.00    0.0
2091  15960.000   4121948.3180   2652188.0198   4069023.8567   6   4   0.0999   0.0573   0.0916   0.0637   0.0645   0.0939   0.00    0.0
2091  15990.000   4121948.3188   2652188.0197   4069023.8571   6   4   0.0998   0.0573   0.0915   0.0637   0.0645   0.0938   0.00    0.0
2091  16020.000   4121948.3192   2652188.0197   4069023.8574   6   4   0.0998   0.0572   0.0914   0.0637   0.0645   0.0937   0.00    0.0
2091  16050.000   4121948.3200   2652188.0196   4069023.8579   6   4   0.0997   0.0572   0.0914   0.0637   0.0645   0.0937   0.00    0.0
2091  16080.000   4121948.3202   2652188.0196   4069023.8579   6   4   0.0997   0.0572   0.0913   0.0637   0.0644   0.0936   0.00    0.0
2091  16110.000   4121948.3210   2652188.0195   4069023.8584   6   4   0.0996   0.0572   0.0912   0.0636   0.0644   0.0935   0.00    0.0
2091  16140.000   4121948.3214   2652188.0197   4069023.8587   6   4   0.0993   0.0571   0.0910   0.0636   0.0643   0.0933   0.00    0.0
2091  16170.000   4121948.3208   2652188.0196   4069023.8579   6   4   0.0986   0.0569   0.0902   0.0634   0.0640   0.0925   0.00    0.0
2091  16200.000   4121948.3171   2652188.0187   4069023.8549   6   5   0.0980   0.0560   0.0894   0.0627   0.0632   0.0918   0.00    0.0
2091  16230.000   4121948.3171   2652188.0181   4069023.8545   6   5   0.0978   0.0558   0.0893   0.0626   0.0631   0.0917   0.00    0.0
2091  16260.000   4121948.3171   2652188.0177   4069023.8540   6   5   0.0978   0.0558   0.0892   0.0625   0.0630   0.0916   0.00    0.0
2091  16290.000   4121948.3169   2652188.0174   4069023.8535   6   5   0.0978   0.0557   0.0892   0.0625   0.0630   0.0916   0.00    0.0
2091  16320.000   4121948.3171   2652188.0171   4069023.8534   6   5   0.0978   0.0557   0.0892   0.0625   0.0630   0.0916   0.00    0.0
2091  16350.000   4121948.3173   2652188.0170   4069023.8532   6   5   0.0977   0.0557   0.0891   0.0625   0.0630   0.0916   0.00    0.0
2091  16380.000   4121948.3176   2652188.0168   4069023.8532   6   5   0.0977   0.0557   0.0891   0.0625   0.0630   0.0916   0.00    0.0
2091  16410.000   4121948.3182   2652188.0165   4069023.8534   6   5   0.0977   0.0557   0.0891   0.0625   0.0629   0.0915   0.00    0.0
2091  16440.000   4121948.3206   2652188.0162   4069023.8550   6   5   0.0976   0.0556   0.0890   0.0624   0.0629   0.0915   0.00    0.0
2091  16470.000   4121948.3242   2652188.0141   4069023.8563   6   5   0.0975   0.0554   0.0889   0.0623   0.0627   0.0913   0.00    0.0
2091  16500.000   4121948.3202   2652188.0081   4069023.8510   6   5   0.0968   0.0547   0.0882   0.0618   0.0620   0.0907   0.00    0.0
2091  16530.000   4121948.3215   2652188.0067   4069023.8512   6   5   0.0967   0.0546   0.0880   0.0617   0.0619   0.0905   0.00    0.0
2091  16560.000   4121948.3216   2652188.0063   4069023.8510   6   5   0.0966   0.0545   0.0880   0.0616   0.0619   0.0905   0.00    0.0
2091  16590.000   4121948.3218   2652188.0061   4069023.8508   6   5   0.0966   0.0545   0.0880   0.0616   0.0619   0.0905   0.00    0.0
2091  16620.000   4121948.3222   2652188.0058   4069023.8508   6   5   0.0966   0.0545   0.0880   0.0616   0.0619   0.0905   0.00    0.0
2091  16650.000   4121948.3227   2652188.0056   4069023.8510   6   5   0.0966   0.0545   0.0880   0.0616   0.0619   0.0904   0.00    0.0
2091  16680.000   4121948.3232   2652188.0055   4069023.8514   6   5   0.0966   0.0544   0.0879   0.0616   0.0619   0.0904   0.00    0.0
