% program   : RTKLIB ver.2.4.2
% inp file  : /home/fkarlitepe/Documents/Projects/Estimation-Orbit/precise orbit/ankr0330.20o
% inp file  : /home/fkarlitepe/Documents/Projects/Estimation-Orbit/precise orbit/precise/JAX0MGXFIN_20200330000_01D_05M_ORB.sp3
% inp file  : /home/fkarlitepe/Documents/Projects/Estimation-Orbit/precise orbit/igs20910.clk
% inp file  : /home/fkarlitepe/Documents/Projects/Estimation-Orbit/precise orbit/ankr0330.20n
% obs start : 2020/02/02 00:00:00.0 GPST (week2091      0.0s)
% obs end   : 2020/02/02 23:59:30.0 GPST (week2091  86370.0s)
%
% (x/y/z-ecef=WGS84,Q=1:fix,2:float,3:sbas,4:dgps,5:single,6:ppp,ns=# of satellites)
%  GPST              x-ecef(m)      y-ecef(m)      z-ecef(m)   Q  ns   sdx(m)   sdy(m)   sdz(m)  sdxy(m)  sdyz(m)  sdzx(m) age(s)  ratio
2091     60.000   4121944.4961   2652190.9385   4069025.6225   6   3  40.0008   9.3523  61.2411  18.9292  23.4001  49.3341   0.00    0.0
2091     90.000   4121952.2240   2652192.6706   4069037.1214   6   4   3.4799   2.3359   7.8257   2.3352   3.1981   4.6493   0.00    0.0
2091    120.000   4121952.0655   2652192.6869   4069036.6833   6   3   3.2934   1.9459   6.7935   2.0633   2.7727   4.2924   0.00    0.0
2091    150.000   4121951.7869   2652192.5906   4069036.0976   6   3   3.1751   1.7159   6.1798   1.9045   2.5219   4.0724   0.00    0.0
2091    210.000   4121950.7100   2652192.0978   4069033.8701   6   3   2.9258   1.5179   5.3967   1.6967   2.2081   3.6721   0.00    0.0
2091    240.000   4121949.9449   2652191.7526   4069032.2092   6   3   2.6516   1.3554   4.6976   1.4947   1.9202   3.2656   0.00    0.0
2091    300.000   4121948.9118   2652191.3479   4069029.7006   6   3   2.1986   1.1801   3.7473   1.1940   1.5203   2.6334   0.00    0.0
2091    330.000   4121948.1735   2652191.0651   4069028.3433   6   3   2.0079   1.0859   3.3529   1.0683   1.3562   2.3801   0.00    0.0
2091    360.000   4121947.8487   2652190.9362   4069027.7913   6   3   1.8996   1.0209   3.1285   0.9992   1.2647   2.2405   0.00    0.0
2091    390.000   4121947.5564   2652190.8246   4069027.3629   6   3   1.8246   0.9705   2.9734   0.9535   1.2030   2.1459   0.00    0.0
2091    420.000   4121947.4852   2652190.7805   4069027.3182   6   3   1.7664   0.9293   2.8535   0.9198   1.1565   2.0734   0.00    0.0
2091    450.000   4121947.5524   2652190.7734   4069027.4716   6   3   1.7179   0.8944   2.7546   0.8930   1.1192   2.0137   0.00    0.0
2091    480.000   4121947.6080   2652190.7668   4069027.5113   6   3   1.6401   0.8569   2.6115   0.8484   1.0618   1.9165   0.00    0.0
2091    510.000   4121947.5405   2652190.7290   4069027.2463   6   3   1.5226   0.8144   2.4090   0.7794   0.9770   1.7695   0.00    0.0
2091    540.000   4121947.5589   2652190.7199   4069026.9770   6   3   1.3631   0.7666   2.1441   0.6832   0.8630   1.5702   0.00    0.0
2091    600.000   4121947.4427   2652190.6697   4069026.1902   6   3   1.1070   0.7058   1.7308   0.5204   0.6809   1.2517   0.00    0.0
2091    660.000   4121947.5841   2652190.6849   4069026.1558   6   3   1.0135   0.6761   1.5781   0.4632   0.6173   1.1388   0.00    0.0
2091    720.000   4121948.0873   2652190.6499   4069026.6802   6   4   0.9202   0.6562   1.4673   0.4485   0.5965   1.0385   0.00    0.0
2091    840.000   4121948.1166   2652190.6464   4069026.3715   6   3   0.8097   0.6241   1.2799   0.3697   0.5136   0.9033   0.00    0.0
2091    870.000   4121948.2511   2652190.6725   4069026.1789   6   4   0.6755   0.5921   1.0760   0.2940   0.4369   0.7457   0.00    0.0
2091    930.000   4121948.1714   2652190.6316   4069025.8134   6   3   0.6019   0.5684   0.9478   0.2297   0.3783   0.6567   0.00    0.0
2091    960.000   4121948.1222   2652190.6001   4069025.6650   6   3   0.5685   0.5530   0.8893   0.2024   0.3528   0.6174   0.00    0.0
2091   1140.000   4121948.0055   2652190.5479   4069025.3398   6   3   0.5221   0.5364   0.8093   0.1570   0.3164   0.5628   0.00    0.0
2091   1170.000   4121947.9139   2652190.5037   4069025.0167   6   3   0.4688   0.5196   0.7176   0.0836   0.2729   0.4993   0.00    0.0
2091   1230.000   4121947.8484   2652190.4609   4069024.7798   6   3   0.4295   0.5057   0.6495  -0.0617   0.2406   0.4531   0.00    0.0
2091   1260.000   4121947.8319   2652190.4336   4069024.7060   6   3   0.4105   0.4953   0.6168  -0.0841   0.2263   0.4315   0.00    0.0
2091   1410.000   4121947.8097   2652190.3983   4069024.6291   6   3   0.3956   0.4860   0.5914  -0.0940   0.2153   0.4148   0.00    0.0
2091   1470.000   4121947.7948   2652190.3691   4069024.4720   6   3   0.3630   0.4747   0.5348  -0.1267   0.1859   0.3766   0.00    0.0
2091   1560.000   4121947.7675   2652190.3397   4069024.3796   6   3   0.3453   0.4657   0.5041  -0.1360   0.1706   0.3564   0.00    0.0
2091   1680.000   4121947.7478   2652190.3178   4069024.3357   6   3   0.3369   0.4584   0.4904  -0.1350   0.1651   0.3475   0.00    0.0
2091   1710.000   4121947.7260   2652190.2942   4069024.2670   6   3   0.3257   0.4510   0.4714  -0.1375   0.1560   0.3350   0.00    0.0
2091   1740.000   4121947.6846   2652190.2628   4069024.1475   6   3   0.3105   0.4433   0.4450  -0.1438   0.1414   0.3177   0.00    0.0
2091   1770.000   4121947.7104   2652190.2586   4069024.1062   6   3   0.2917   0.4353   0.4115  -0.1529   0.1204   0.2956   0.00    0.0
2091   3270.000   4121947.7269   2652190.2293   4069024.1309   6   2   0.2909   0.4314   0.4100  -0.1497   0.1225   0.2946   0.00    0.0
2091   3360.000   4121947.7264   2652190.2257   4069024.1512   6   3   0.2891   0.4262   0.4085  -0.1437   0.1250   0.2934   0.00    0.0
2091   4260.000   4121947.7408   2652190.2281   4069024.1843   6   4   0.2838   0.4166   0.4013  -0.1389   0.1186   0.2874   0.00    0.0
2091   4290.000   4121947.7412   2652190.2352   4069024.2009   6   4   0.2802   0.4086   0.3975  -0.1315   0.1182   0.2842   0.00    0.0
2091   4320.000   4121947.7357   2652190.2536   4069024.2203   6   4   0.2774   0.4016   0.3948  -0.1237   0.1193   0.2820   0.00    0.0
2091   4350.000   4121947.7274   2652190.2644   4069024.2341   6   4   0.2749   0.3951   0.3925  -0.1158   0.1209   0.2801   0.00    0.0
2091   4380.000   4121947.7163   2652190.2678   4069024.2428   6   4   0.2724   0.3889   0.3898  -0.1084   0.1217   0.2780   0.00    0.0
2091   4410.000   4121947.7011   2652190.2654   4069024.2465   6   4   0.2698   0.3829   0.3866  -0.1016   0.1218   0.2755   0.00    0.0
2091   4440.000   4121947.6823   2652190.2717   4069024.2523   6   4   0.2670   0.3771   0.3826  -0.0956   0.1210   0.2726   0.00    0.0
2091   4470.000   4121947.6635   2652190.2721   4069024.2569   6   4   0.2640   0.3714   0.3780  -0.0904   0.1196   0.2692   0.00    0.0
2091   4500.000   4121947.6564   2652190.2798   4069024.2690   6   4   0.2612   0.3661   0.3733  -0.0850   0.1185   0.2659   0.00    0.0
2091   4530.000   4121947.6557   2652190.2855   4069024.2862   6   4   0.2589   0.3612   0.3695  -0.0787   0.1186   0.2633   0.00    0.0
2091   4560.000   4121947.6567   2652190.2834   4069024.3047   6   4   0.2570   0.3569   0.3666  -0.0716   0.1193   0.2614   0.00    0.0
2091   4590.000   4121947.6597   2652190.2778   4069024.3236   6   4   0.2554   0.3528   0.3643  -0.0640   0.1202   0.2599   0.00    0.0
2091   4620.000   4121947.6712   2652190.2620   4069024.3397   6   3   0.2545   0.3494   0.3622  -0.0582   0.1211   0.2586   0.00    0.0
2091   4650.000   4121947.6816   2652190.2475   4069024.3570   6   3   0.2536   0.3462   0.3603  -0.0522   0.1219   0.2575   0.00    0.0
2091   4710.000   4121947.6866   2652190.2328   4069024.3700   6   3   0.2523   0.3430   0.3565  -0.0457   0.1230   0.2553   0.00    0.0
2091   4740.000   4121947.6752   2652190.2332   4069024.3784   6   4   0.2501   0.3392   0.3509  -0.0351   0.1243   0.2521   0.00    0.0
2091   4770.000   4121947.6713   2652190.2339   4069024.3862   6   4   0.2474   0.3352   0.3428  -0.0209   0.1261   0.2476   0.00    0.0
2091   4800.000   4121947.6736   2652190.2254   4069024.3895   6   3   0.2450   0.3317   0.3339   0.0077   0.1279   0.2427   0.00    0.0
2091   4830.000   4121947.6839   2652190.1931   4069024.4119   6   4   0.2430   0.3255   0.3275   0.0325   0.1322   0.2390   0.00    0.0
2091   4860.000   4121947.6879   2652190.1776   4069024.4237   6   5   0.2412   0.3195   0.3230   0.0468   0.1357   0.2365   0.00    0.0
2091   4890.000   4121947.6958   2652190.1602   4069024.4358   6   5   0.2397   0.3141   0.3197   0.0568   0.1385   0.2346   0.00    0.0
2091   4920.000   4121947.7023   2652190.1426   4069024.4475   6   4   0.2388   0.3095   0.3169   0.0631   0.1408   0.2331   0.00    0.0
2091   4950.000   4121947.7134   2652190.1223   4069024.4616   6   5   0.2376   0.3049   0.3146   0.0697   0.1428   0.2318   0.00    0.0
2091   4980.000   4121947.7227   2652190.1025   4069024.4723   6   5   0.2363   0.3005   0.3116   0.0752   0.1446   0.2302   0.00    0.0
2091   5010.000   4121947.7294   2652190.0837   4069024.4763   6   5   0.2349   0.2961   0.3074   0.0797   0.1461   0.2280   0.00    0.0
2091   5040.000   4121947.7331   2652190.0680   4069024.4720   6   5   0.2331   0.2918   0.3015   0.0833   0.1473   0.2250   0.00    0.0
2091   5070.000   4121947.7292   2652190.0543   4069024.4497   6   4   0.2312   0.2875   0.2933   0.0850   0.1481   0.2209   0.00    0.0
2091   5100.000   4121947.7143   2652190.0352   4069024.4269   6   5   0.2289   0.2831   0.2845   0.0869   0.1485   0.2165   0.00    0.0
2091   5130.000   4121947.7155   2652190.0196   4069024.4184   6   4   0.2274   0.2794   0.2782   0.0883   0.1490   0.2134   0.00    0.0
2091   5160.000   4121947.7168   2652189.9999   4069024.4159   6   4   0.2264   0.2761   0.2741   0.0898   0.1494   0.2115   0.00    0.0
2091   5190.000   4121947.7200   2652189.9828   4069024.4178   6   4   0.2257   0.2732   0.2713   0.0914   0.1497   0.2102   0.00    0.0
2091   5220.000   4121947.7246   2652189.9676   4069024.4245   6   4   0.2251   0.2705   0.2693   0.0930   0.1500   0.2092   0.00    0.0
2091   5250.000   4121947.7290   2652189.9538   4069024.4302   6   4   0.2247   0.2680   0.2676   0.0945   0.1503   0.2084   0.00    0.0
2091   5280.000   4121947.7314   2652189.9394   4069024.4329   6   4   0.2241   0.2654   0.2653   0.0957   0.1504   0.2074   0.00    0.0
2091   5310.000   4121947.7368   2652189.9320   4069024.4359   6   4   0.2233   0.2626   0.2620   0.0965   0.1503   0.2059   0.00    0.0
2091   5340.000   4121947.7389   2652189.9239   4069024.4297   6   4   0.2222   0.2595   0.2573   0.0966   0.1497   0.2037   0.00    0.0
2091   5370.000   4121947.7378   2652189.9117   4069024.4131   6   4   0.2217   0.2566   0.2536   0.0978   0.1509   0.2026   0.00    0.0
2091   5400.000   4121947.7351   2652189.8907   4069024.3999   6   5   0.2208   0.2533   0.2494   0.0992   0.1519   0.2013   0.00    0.0
2091   5430.000   4121947.7378   2652189.8607   4069024.3963   6   5   0.2201   0.2504   0.2463   0.1005   0.1525   0.2003   0.00    0.0
2091   5460.000   4121947.7414   2652189.8372   4069024.4007   6   5   0.2194   0.2479   0.2443   0.1018   0.1528   0.1996   0.00    0.0
2091   5490.000   4121947.7469   2652189.8206   4069024.4065   6   5   0.2188   0.2457   0.2429   0.1031   0.1530   0.1992   0.00    0.0
2091   5520.000   4121947.7470   2652189.8088   4069024.4054   6   4   0.2185   0.2439   0.2418   0.1039   0.1530   0.1988   0.00    0.0
2091   5550.000   4121947.7497   2652189.8030   4069024.4078   6   3   0.2183   0.2422   0.2412   0.1047   0.1531   0.1986   0.00    0.0
2091   5580.000   4121947.7537   2652189.7988   4069024.4157   6   4   0.2180   0.2404   0.2400   0.1053   0.1531   0.1982   0.00    0.0
2091   5610.000   4121947.7564   2652189.7902   4069024.4263   6   4   0.2176   0.2384   0.2384   0.1057   0.1529   0.1977   0.00    0.0
2091   5640.000   4121947.7549   2652189.7783   4069024.4255   6   3   0.2171   0.2360   0.2361   0.1056   0.1527   0.1969   0.00    0.0
2091   5670.000   4121947.7494   2652189.7645   4069024.4126   6   4   0.2163   0.2330   0.2324   0.1047   0.1518   0.1954   0.00    0.0
2091   5700.000   4121947.7311   2652189.7353   4069024.3742   6   4   0.2153   0.2296   0.2280   0.1033   0.1505   0.1937   0.00    0.0
2091   5730.000   4121947.7164   2652189.7079   4069024.3491   6   4   0.2145   0.2268   0.2249   0.1024   0.1495   0.1924   0.00    0.0
2091   5760.000   4121947.7091   2652189.6924   4069024.3375   6   4   0.2140   0.2247   0.2229   0.1021   0.1489   0.1917   0.00    0.0
2091   5790.000   4121947.7051   2652189.6886   4069024.3323   6   5   0.2133   0.2228   0.2216   0.1025   0.1485   0.1911   0.00    0.0
2091   5820.000   4121947.7038   2652189.6852   4069024.3280   6   3   0.2130   0.2214   0.2208   0.1027   0.1482   0.1908   0.00    0.0
2091   5850.000   4121947.7031   2652189.6828   4069024.3267   6   3   0.2127   0.2201   0.2202   0.1031   0.1480   0.1905   0.00    0.0
2091   5880.000   4121947.7106   2652189.6710   4069024.3265   6   5   0.2121   0.2184   0.2192   0.1035   0.1476   0.1900   0.00    0.0
2091   5910.000   4121947.7032   2652189.6597   4069024.3188   6   4   0.2115   0.2166   0.2177   0.1031   0.1469   0.1894   0.00    0.0
2091   5940.000   4121947.6929   2652189.6444   4069024.3076   6   4   0.2107   0.2142   0.2154   0.1020   0.1457   0.1883   0.00    0.0
2091   5970.000   4121947.6649   2652189.6072   4069024.2665   6   4   0.2096   0.2110   0.2118   0.0997   0.1437   0.1865   0.00    0.0
2091   6000.000   4121947.6426   2652189.5804   4069024.2295   6   4   0.2082   0.2074   0.2076   0.0968   0.1411   0.1844   0.00    0.0
2091   6030.000   4121947.6302   2652189.5465   4069024.2018   6   5   0.2069   0.2044   0.2046   0.0951   0.1393   0.1829   0.00    0.0
2091   6060.000   4121947.6178   2652189.5310   4069024.1875   6   3   0.2062   0.2024   0.2029   0.0941   0.1382   0.1820   0.00    0.0
2091   6090.000   4121947.6166   2652189.5182   4069024.1806   6   5   0.2054   0.2007   0.2017   0.0940   0.1376   0.1814   0.00    0.0
2091   6120.000   4121947.6127   2652189.5134   4069024.1792   6   4   0.2050   0.1995   0.2009   0.0939   0.1371   0.1809   0.00    0.0
2091   6150.000   4121947.6102   2652189.5107   4069024.1795   6   4   0.2046   0.1984   0.2003   0.0940   0.1367   0.1806   0.00    0.0
2091   6180.000   4121947.6079   2652189.5082   4069024.1797   6   4   0.2042   0.1971   0.1995   0.0937   0.1362   0.1802   0.00    0.0
2091   6210.000   4121947.6015   2652189.4999   4069024.1743   6   4   0.2035   0.1955   0.1982   0.0930   0.1353   0.1794   0.00    0.0
2091   6240.000   4121947.5898   2652189.4845   4069024.1618   6   3   0.2026   0.1933   0.1962   0.0913   0.1338   0.1783   0.00    0.0
2091   6270.000   4121947.5741   2652189.4631   4069024.1459   6   3   0.2013   0.1902   0.1931   0.0884   0.1314   0.1765   0.00    0.0
2091   6300.000   4121947.5462   2652189.4301   4069024.1042   6   4   0.1997   0.1867   0.1893   0.0847   0.1285   0.1744   0.00    0.0
2091   6330.000   4121947.5096   2652189.3889   4069024.0447   6   3   0.1985   0.1841   0.1867   0.0821   0.1264   0.1729   0.00    0.0
2091   6360.000   4121947.4855   2652189.3596   4069024.0124   6   4   0.1977   0.1823   0.1852   0.0808   0.1252   0.1720   0.00    0.0
2091   6390.000   4121947.4721   2652189.3441   4069023.9937   6   3   0.1971   0.1810   0.1843   0.0802   0.1245   0.1714   0.00    0.0
2091   6420.000   4121947.4659   2652189.3370   4069023.9862   6   4   0.1966   0.1800   0.1836   0.0800   0.1240   0.1710   0.00    0.0
2091   6450.000   4121947.4652   2652189.3364   4069023.9857   6   4   0.1963   0.1792   0.1831   0.0800   0.1237   0.1707   0.00    0.0
2091   6480.000   4121947.4658   2652189.3359   4069023.9851   6   3   0.1961   0.1788   0.1828   0.0807   0.1238   0.1706   0.00    0.0
2091   6510.000   4121947.4686   2652189.3356   4069023.9894   6   4   0.1959   0.1783   0.1822   0.0813   0.1239   0.1705   0.00    0.0
2091   6540.000   4121947.4695   2652189.3345   4069023.9869   6   3   0.1957   0.1779   0.1814   0.0820   0.1241   0.1703   0.00    0.0
2091   6570.000   4121947.4688   2652189.3342   4069023.9788   6   3   0.1954   0.1775   0.1802   0.0826   0.1243   0.1700   0.00    0.0
2091   6600.000   4121947.4689   2652189.3344   4069023.9720   6   3   0.1952   0.1771   0.1788   0.0832   0.1246   0.1697   0.00    0.0
2091   6630.000   4121947.4701   2652189.3347   4069023.9685   6   3   0.1950   0.1767   0.1778   0.0838   0.1248   0.1695   0.00    0.0
2091   6660.000   4121947.4724   2652189.3345   4069023.9691   6   4   0.1948   0.1763   0.1772   0.0844   0.1249   0.1694   0.00    0.0
2091   6690.000   4121947.4753   2652189.3336   4069023.9725   6   3   0.1946   0.1759   0.1769   0.0849   0.1250   0.1693   0.00    0.0
2091   6720.000   4121947.4783   2652189.3329   4069023.9775   6   4   0.1944   0.1756   0.1766   0.0854   0.1250   0.1692   0.00    0.0
2091   6750.000   4121947.4802   2652189.3323   4069023.9812   6   4   0.1942   0.1752   0.1764   0.0859   0.1251   0.1691   0.00    0.0
2091   6780.000   4121947.4809   2652189.3316   4069023.9816   6   3   0.1941   0.1748   0.1762   0.0864   0.1252   0.1690   0.00    0.0
2091   6810.000   4121947.4807   2652189.3308   4069023.9809   6   3   0.1939   0.1744   0.1758   0.0868   0.1252   0.1689   0.00    0.0
2091   6840.000   4121947.4806   2652189.3298   4069023.9820   6   4   0.1936   0.1740   0.1752   0.0872   0.1252   0.1687   0.00    0.0
2091   6870.000   4121947.4771   2652189.3276   4069023.9717   6   4   0.1933   0.1735   0.1742   0.0875   0.1252   0.1685   0.00    0.0
2091   6900.000   4121947.4758   2652189.3275   4069023.9643   6   3   0.1930   0.1730   0.1731   0.0877   0.1252   0.1681   0.00    0.0
2091   6930.000   4121947.4766   2652189.3281   4069023.9615   6   3   0.1927   0.1726   0.1723   0.0879   0.1252   0.1679   0.00    0.0
2091   6960.000   4121947.4765   2652189.3268   4069023.9577   6   3   0.1925   0.1722   0.1719   0.0882   0.1252   0.1677   0.00    0.0
2091   6990.000   4121947.4778   2652189.3257   4069023.9554   6   3   0.1923   0.1718   0.1716   0.0885   0.1252   0.1676   0.00    0.0
2091   7020.000   4121947.4798   2652189.3244   4069023.9557   6   3   0.1921   0.1714   0.1714   0.0888   0.1252   0.1675   0.00    0.0
2091   7050.000   4121947.4814   2652189.3221   4069023.9555   6   3   0.1919   0.1711   0.1713   0.0892   0.1252   0.1674   0.00    0.0
2091   7080.000   4121947.4829   2652189.3194   4069023.9550   6   3   0.1917   0.1707   0.1711   0.0895   0.1252   0.1673   0.00    0.0
2091   7110.000   4121947.4833   2652189.3158   4069023.9507   6   3   0.1914   0.1703   0.1708   0.0897   0.1251   0.1672   0.00    0.0
2091   7140.000   4121947.4844   2652189.3135   4069023.9453   6   3   0.1911   0.1698   0.1702   0.0897   0.1249   0.1669   0.00    0.0
2091   7170.000   4121947.4886   2652189.3143   4069023.9452   6   3   0.1907   0.1691   0.1694   0.0894   0.1246   0.1665   0.00    0.0
2091   7200.000   4121947.4885   2652189.3108   4069023.9402   6   3   0.1901   0.1683   0.1684   0.0890   0.1241   0.1660   0.00    0.0
2091   7230.000   4121947.4869   2652189.3055   4069023.9351   6   3   0.1897   0.1677   0.1676   0.0887   0.1238   0.1656   0.00    0.0
2091   7290.000   4121947.4832   2652189.2989   4069023.9269   6   3   0.1894   0.1673   0.1674   0.0888   0.1237   0.1655   0.00    0.0
2091   7320.000   4121947.4816   2652189.2946   4069023.9216   6   3   0.1892   0.1669   0.1672   0.0890   0.1237   0.1654   0.00    0.0
2091   7350.000   4121947.4810   2652189.2915   4069023.9189   6   3   0.1890   0.1666   0.1670   0.0892   0.1236   0.1652   0.00    0.0
2091   7470.000   4121947.4719   2652189.2850   4069023.9052   6   4   0.1882   0.1653   0.1661   0.0885   0.1229   0.1646   0.00    0.0
2091   7500.000   4121947.4655   2652189.2833   4069023.8960   6   4   0.1873   0.1638   0.1649   0.0874   0.1219   0.1638   0.00    0.0
2091   7530.000   4121947.4599   2652189.2859   4069023.8835   6   4   0.1866   0.1627   0.1641   0.0869   0.1213   0.1632   0.00    0.0
2091   7560.000   4121947.4627   2652189.2981   4069023.8846   6   4   0.1861   0.1619   0.1637   0.0868   0.1210   0.1629   0.00    0.0
2091   7590.000   4121947.4616   2652189.3041   4069023.8843   6   4   0.1859   0.1614   0.1635   0.0872   0.1211   0.1628   0.00    0.0
2091   7620.000   4121947.4619   2652189.3094   4069023.8859   6   4   0.1857   0.1610   0.1634   0.0877   0.1211   0.1628   0.00    0.0
2091   7650.000   4121947.4623   2652189.3145   4069023.8880   6   4   0.1854   0.1605   0.1633   0.0882   0.1211   0.1627   0.00    0.0
2091   7680.000   4121947.4614   2652189.3185   4069023.8888   6   4   0.1852   0.1601   0.1632   0.0886   0.1212   0.1626   0.00    0.0
2091   7710.000   4121947.4601   2652189.3233   4069023.8897   6   4   0.1850   0.1596   0.1630   0.0890   0.1212   0.1625   0.00    0.0
2091   7740.000   4121947.4548   2652189.3342   4069023.8874   6   4   0.1847   0.1592   0.1629   0.0894   0.1212   0.1624   0.00    0.0
2091   7770.000   4121947.4491   2652189.3462   4069023.8832   6   4   0.1845   0.1588   0.1626   0.0898   0.1213   0.1624   0.00    0.0
2091   7800.000   4121947.4435   2652189.3586   4069023.8804   6   4   0.1843   0.1584   0.1623   0.0902   0.1214   0.1624   0.00    0.0
2091   7830.000   4121947.4383   2652189.3712   4069023.8819   6   4   0.1840   0.1580   0.1622   0.0905   0.1215   0.1623   0.00    0.0
2091   7860.000   4121947.4332   2652189.3834   4069023.8815   6   4   0.1838   0.1576   0.1620   0.0909   0.1216   0.1623   0.00    0.0
2091   7890.000   4121947.4279   2652189.3949   4069023.8790   6   4   0.1836   0.1573   0.1619   0.0913   0.1217   0.1622   0.00    0.0
2091   7920.000   4121947.4226   2652189.4057   4069023.8785   6   4   0.1834   0.1569   0.1619   0.0917   0.1217   0.1621   0.00    0.0
2091   7950.000   4121947.4188   2652189.4166   4069023.8788   6   4   0.1832   0.1566   0.1618   0.0920   0.1218   0.1621   0.00    0.0
2091   7980.000   4121947.4163   2652189.4277   4069023.8796   6   4   0.1830   0.1563   0.1618   0.0924   0.1218   0.1620   0.00    0.0
2091   8010.000   4121947.4147   2652189.4390   4069023.8810   6   4   0.1828   0.1559   0.1617   0.0927   0.1218   0.1619   0.00    0.0
2091   8040.000   4121947.4128   2652189.4461   4069023.8792   6   5   0.1825   0.1554   0.1615   0.0930   0.1218   0.1618   0.00    0.0
2091   8070.000   4121947.4093   2652189.4502   4069023.8754   6   5   0.1822   0.1549   0.1613   0.0932   0.1218   0.1617   0.00    0.0
2091   8100.000   4121947.4065   2652189.4504   4069023.8716   6   5   0.1818   0.1544   0.1611   0.0934   0.1218   0.1616   0.00    0.0
2091   8130.000   4121947.4113   2652189.4471   4069023.8732   6   5   0.1816   0.1540   0.1610   0.0938   0.1218   0.1615   0.00    0.0
2091   8160.000   4121947.4176   2652189.4425   4069023.8771   6   5   0.1814   0.1537   0.1609   0.0941   0.1219   0.1614   0.00    0.0
2091   8190.000   4121947.4234   2652189.4376   4069023.8804   6   5   0.1812   0.1533   0.1609   0.0945   0.1219   0.1613   0.00    0.0
2091   8220.000   4121947.4278   2652189.4335   4069023.8829   6   5   0.1810   0.1530   0.1608   0.0949   0.1220   0.1613   0.00    0.0
2091   8250.000   4121947.4313   2652189.4303   4069023.8850   6   5   0.1808   0.1527   0.1608   0.0952   0.1220   0.1612   0.00    0.0
2091   8280.000   4121947.4349   2652189.4278   4069023.8875   6   5   0.1806   0.1524   0.1607   0.0956   0.1220   0.1611   0.00    0.0
2091   8310.000   4121947.4385   2652189.4255   4069023.8900   6   5   0.1804   0.1520   0.1606   0.0959   0.1220   0.1610   0.00    0.0
2091   8340.000   4121947.4423   2652189.4241   4069023.8932   6   5   0.1802   0.1517   0.1605   0.0961   0.1220   0.1609   0.00    0.0
2091   8370.000   4121947.4444   2652189.4209   4069023.8942   6   5   0.1800   0.1513   0.1604   0.0963   0.1219   0.1607   0.00    0.0
2091   8400.000   4121947.4440   2652189.4143   4069023.8916   6   5   0.1797   0.1508   0.1602   0.0964   0.1218   0.1606   0.00    0.0
2091   8430.000   4121947.4438   2652189.4073   4069023.8888   6   5   0.1795   0.1505   0.1601   0.0966   0.1217   0.1604   0.00    0.0
2091   8460.000   4121947.4452   2652189.4030   4069023.8885   6   5   0.1793   0.1501   0.1600   0.0968   0.1217   0.1603   0.00    0.0
2091   8490.000   4121947.4483   2652189.3986   4069023.8891   6   5   0.1791   0.1498   0.1599   0.0971   0.1217   0.1602   0.00    0.0
2091   8520.000   4121947.4520   2652189.3953   4069023.8905   6   5   0.1789   0.1496   0.1599   0.0974   0.1217   0.1601   0.00    0.0
2091   8550.000   4121947.4559   2652189.3924   4069023.8922   6   5   0.1787   0.1493   0.1598   0.0976   0.1218   0.1600   0.00    0.0
2091   8580.000   4121947.4599   2652189.3901   4069023.8942   6   5   0.1785   0.1490   0.1598   0.0979   0.1218   0.1600   0.00    0.0
2091   8610.000   4121947.4639   2652189.3882   4069023.8962   6   5   0.1784   0.1488   0.1597   0.0981   0.1218   0.1599   0.00    0.0
2091   8640.000   4121947.4675   2652189.3870   4069023.8984   6   5   0.1782   0.1485   0.1597   0.0983   0.1218   0.1598   0.00    0.0
2091   8670.000   4121947.4704   2652189.3866   4069023.9007   6   5   0.1780   0.1481   0.1596   0.0985   0.1217   0.1597   0.00    0.0
2091   8700.000   4121947.4724   2652189.3856   4069023.9018   6   5   0.1777   0.1478   0.1594   0.0986   0.1217   0.1595   0.00    0.0
2091   8730.000   4121947.4739   2652189.3849   4069023.9027   6   5   0.1775   0.1475   0.1593   0.0988   0.1216   0.1594   0.00    0.0
2091   8760.000   4121947.4749   2652189.3844   4069023.9033   6   5   0.1774   0.1472   0.1593   0.0990   0.1216   0.1593   0.00    0.0
2091   8790.000   4121947.4767   2652189.3835   4069023.9042   6   5   0.1772   0.1470   0.1592   0.0992   0.1216   0.1592   0.00    0.0
2091   8820.000   4121947.4780   2652189.3830   4069023.9050   6   4   0.1770   0.1467   0.1592   0.0994   0.1216   0.1592   0.00    0.0
2091   8850.000   4121947.4803   2652189.3815   4069023.9058   6   5   0.1769   0.1465   0.1591   0.0996   0.1216   0.1591   0.00    0.0
2091   8880.000   4121947.4822   2652189.3812   4069023.9070   6   4   0.1767   0.1463   0.1590   0.0997   0.1216   0.1590   0.00    0.0
2091   8910.000   4121947.4844   2652189.3790   4069023.9076   6   5   0.1765   0.1460   0.1590   0.0998   0.1216   0.1589   0.00    0.0
2091   8940.000   4121947.4852   2652189.3793   4069023.9083   6   3   0.1763   0.1457   0.1589   0.0999   0.1215   0.1588   0.00    0.0
2091   8970.000   4121947.4884   2652189.3755   4069023.9091   6   5   0.1760   0.1453   0.1587   0.0999   0.1214   0.1586   0.00    0.0
2091   9000.000   4121947.4908   2652189.3718   4069023.9093   6   5   0.1757   0.1449   0.1586   0.0998   0.1212   0.1584   0.00    0.0
2091   9030.000   4121947.4920   2652189.3682   4069023.9089   6   5   0.1755   0.1445   0.1585   0.0998   0.1211   0.1582   0.00    0.0
2091   9060.000   4121947.4928   2652189.3667   4069023.9091   6   4   0.1753   0.1443   0.1584   0.0998   0.1210   0.1581   0.00    0.0
2091   9090.000   4121947.4945   2652189.3658   4069023.9099   6   5   0.1751   0.1440   0.1583   0.0999   0.1210   0.1580   0.00    0.0
2091   9120.000   4121947.4962   2652189.3656   4069023.9111   6   4   0.1749   0.1438   0.1582   0.1000   0.1210   0.1579   0.00    0.0
2091   9150.000   4121947.4981   2652189.3652   4069023.9121   6   5   0.1747   0.1436   0.1582   0.1002   0.1210   0.1578   0.00    0.0
2091   9180.000   4121947.4991   2652189.3668   4069023.9134   6   3   0.1746   0.1434   0.1582   0.1003   0.1210   0.1578   0.00    0.0
2091   9210.000   4121947.5000   2652189.3686   4069023.9148   6   4   0.1745   0.1433   0.1581   0.1003   0.1210   0.1577   0.00    0.0
2091   9240.000   4121947.4958   2652189.3733   4069023.9143   6   4   0.1743   0.1431   0.1580   0.1004   0.1210   0.1576   0.00    0.0
2091   9270.000   4121947.4933   2652189.3775   4069023.9143   6   5   0.1741   0.1428   0.1579   0.1005   0.1209   0.1575   0.00    0.0
2091   9300.000   4121947.4904   2652189.3794   4069023.9129   6   5   0.1739   0.1425   0.1578   0.1005   0.1208   0.1573   0.00    0.0
2091   9330.000   4121947.4881   2652189.3804   4069023.9118   6   5   0.1736   0.1423   0.1577   0.1006   0.1207   0.1572   0.00    0.0
2091   9360.000   4121947.4870   2652189.3813   4069023.9116   6   4   0.1734   0.1421   0.1576   0.1006   0.1207   0.1571   0.00    0.0
2091   9390.000   4121947.4875   2652189.3823   4069023.9122   6   5   0.1733   0.1419   0.1576   0.1008   0.1207   0.1570   0.00    0.0
2091   9420.000   4121947.4890   2652189.3833   4069023.9133   6   5   0.1731   0.1417   0.1575   0.1009   0.1207   0.1569   0.00    0.0
2091   9450.000   4121947.4914   2652189.3843   4069023.9148   6   4   0.1730   0.1415   0.1575   0.1010   0.1207   0.1569   0.00    0.0
2091   9480.000   4121947.4971   2652189.3845   4069023.9180   6   4   0.1729   0.1414   0.1575   0.1012   0.1208   0.1568   0.00    0.0
2091   9510.000   4121947.5026   2652189.3846   4069023.9209   6   5   0.1727   0.1412   0.1575   0.1013   0.1208   0.1567   0.00    0.0
2091   9540.000   4121947.5096   2652189.3861   4069023.9248   6   5   0.1726   0.1411   0.1574   0.1014   0.1208   0.1567   0.00    0.0
2091   9570.000   4121947.5162   2652189.3883   4069023.9286   6   5   0.1723   0.1409   0.1574   0.1015   0.1208   0.1565   0.00    0.0
2091   9600.000   4121947.5203   2652189.3905   4069023.9313   6   5   0.1721   0.1407   0.1573   0.1015   0.1207   0.1564   0.00    0.0
2091   9630.000   4121947.5244   2652189.3923   4069023.9340   6   4   0.1718   0.1406   0.1572   0.1015   0.1207   0.1563   0.00    0.0
2091   9660.000   4121947.5278   2652189.3939   4069023.9363   6   5   0.1716   0.1404   0.1572   0.1016   0.1207   0.1562   0.00    0.0
2091   9690.000   4121947.5309   2652189.3950   4069023.9383   6   4   0.1715   0.1403   0.1572   0.1017   0.1207   0.1561   0.00    0.0
2091   9720.000   4121947.5339   2652189.3960   4069023.9401   6   4   0.1714   0.1401   0.1571   0.1018   0.1208   0.1561   0.00    0.0
2091   9750.000   4121947.5360   2652189.3971   4069023.9415   6   4   0.1712   0.1400   0.1571   0.1020   0.1208   0.1560   0.00    0.0
2091   9780.000   4121947.5360   2652189.3999   4069023.9426   6   4   0.1711   0.1399   0.1571   0.1021   0.1208   0.1560   0.00    0.0
2091   9810.000   4121947.5376   2652189.4023   4069023.9443   6   5   0.1710   0.1397   0.1570   0.1022   0.1208   0.1559   0.00    0.0
2091   9840.000   4121947.5414   2652189.4064   4069023.9474   6   4   0.1708   0.1396   0.1570   0.1022   0.1208   0.1558   0.00    0.0
2091   9870.000   4121947.5491   2652189.4109   4069023.9521   6   4   0.1705   0.1395   0.1569   0.1023   0.1208   0.1557   0.00    0.0
2091   9900.000   4121947.5534   2652189.4133   4069023.9550   6   4   0.1702   0.1393   0.1569   0.1023   0.1208   0.1555   0.00    0.0
2091   9930.000   4121947.5591   2652189.4161   4069023.9585   6   4   0.1700   0.1392   0.1568   0.1023   0.1208   0.1554   0.00    0.0
2091   9960.000   4121947.5642   2652189.4187   4069023.9618   6   3   0.1698   0.1390   0.1568   0.1023   0.1207   0.1553   0.00    0.0
2091   9990.000   4121947.5651   2652189.4205   4069023.9630   6   4   0.1697   0.1389   0.1567   0.1024   0.1207   0.1553   0.00    0.0
2091  10020.000   4121947.5658   2652189.4225   4069023.9640   6   4   0.1696   0.1388   0.1567   0.1025   0.1208   0.1552   0.00    0.0
2091  10050.000   4121947.5663   2652189.4235   4069023.9647   6   5   0.1694   0.1387   0.1567   0.1026   0.1208   0.1552   0.00    0.0
2091  10080.000   4121947.5674   2652189.4248   4069023.9657   6   5   0.1693   0.1386   0.1567   0.1027   0.1208   0.1551   0.00    0.0
2091  10110.000   4121947.5688   2652189.4255   4069023.9660   6   3   0.1692   0.1384   0.1566   0.1027   0.1208   0.1550   0.00    0.0
2091  10140.000   4121947.5718   2652189.4272   4069023.9667   6   4   0.1690   0.1383   0.1565   0.1027   0.1207   0.1549   0.00    0.0
2091  10170.000   4121947.5803   2652189.4279   4069023.9688   6   3   0.1687   0.1381   0.1564   0.1026   0.1206   0.1548   0.00    0.0
2091  10200.000   4121947.5837   2652189.4296   4069023.9707   6   3   0.1684   0.1379   0.1563   0.1025   0.1205   0.1546   0.00    0.0
2091  10230.000   4121947.5874   2652189.4284   4069023.9706   6   4   0.1681   0.1377   0.1562   0.1024   0.1204   0.1544   0.00    0.0
2091  10260.000   4121947.5908   2652189.4280   4069023.9708   6   4   0.1679   0.1375   0.1561   0.1024   0.1203   0.1543   0.00    0.0
2091  10290.000   4121947.5925   2652189.4279   4069023.9712   6   5   0.1677   0.1374   0.1560   0.1025   0.1203   0.1542   0.00    0.0
2091  10320.000   4121947.5917   2652189.4292   4069023.9710   6   3   0.1676   0.1373   0.1560   0.1025   0.1203   0.1541   0.00    0.0
2091  10350.000   4121947.5916   2652189.4310   4069023.9715   6   3   0.1676   0.1372   0.1559   0.1025   0.1202   0.1541   0.00    0.0
2091  10380.000   4121947.5928   2652189.4324   4069023.9725   6   4   0.1675   0.1370   0.1559   0.1025   0.1202   0.1540   0.00    0.0
2091  10410.000   4121947.5927   2652189.4338   4069023.9728   6   4   0.1673   0.1369   0.1558   0.1025   0.1201   0.1539   0.00    0.0
2091  10440.000   4121947.5926   2652189.4354   4069023.9731   6   3   0.1671   0.1367   0.1556   0.1023   0.1200   0.1537   0.00    0.0
2091  10470.000   4121947.5935   2652189.4377   4069023.9743   6   3   0.1668   0.1364   0.1554   0.1020   0.1197   0.1535   0.00    0.0
2091  10500.000   4121947.5909   2652189.4384   4069023.9728   6   4   0.1664   0.1360   0.1551   0.1017   0.1194   0.1531   0.00    0.0
2091  10530.000   4121947.5907   2652189.4398   4069023.9730   6   3   0.1661   0.1357   0.1548   0.1014   0.1191   0.1528   0.00    0.0
2091  10560.000   4121947.5908   2652189.4411   4069023.9734   6   3   0.1659   0.1355   0.1547   0.1012   0.1190   0.1526   0.00    0.0
2091  10590.000   4121947.5913   2652189.4429   4069023.9743   6   3   0.1658   0.1353   0.1546   0.1011   0.1188   0.1525   0.00    0.0
2091  10620.000   4121947.5908   2652189.4436   4069023.9741   6   3   0.1657   0.1352   0.1545   0.1011   0.1188   0.1524   0.00    0.0
2091  10680.000   4121947.5890   2652189.4427   4069023.9722   6   3   0.1656   0.1350   0.1544   0.1010   0.1187   0.1523   0.00    0.0
2091  10710.000   4121947.5825   2652189.4374   4069023.9655   6   3   0.1654   0.1348   0.1542   0.1008   0.1185   0.1522   0.00    0.0
2091  10740.000   4121947.5713   2652189.4276   4069023.9539   6   3   0.1651   0.1345   0.1540   0.1005   0.1182   0.1519   0.00    0.0
2091  10770.000   4121947.5624   2652189.4195   4069023.9443   6   3   0.1647   0.1340   0.1535   0.1000   0.1177   0.1514   0.00    0.0
2091  10800.000   4121947.5590   2652189.4153   4069023.9394   6   3   0.1641   0.1334   0.1530   0.0993   0.1171   0.1508   0.00    0.0
2091  10890.000   4121947.5597   2652189.4162   4069023.9398   6   3   0.1639   0.1332   0.1527   0.0990   0.1168   0.1506   0.00    0.0
2091  10950.000   4121947.5607   2652189.4180   4069023.9410   6   3   0.1638   0.1330   0.1526   0.0989   0.1167   0.1505   0.00    0.0
2091  10980.000   4121947.5617   2652189.4204   4069023.9426   6   3   0.1636   0.1328   0.1525   0.0988   0.1166   0.1504   0.00    0.0
2091  11010.000   4121947.5625   2652189.4227   4069023.9441   6   3   0.1634   0.1324   0.1522   0.0985   0.1163   0.1501   0.00    0.0
2091  11040.000   4121947.5612   2652189.4220   4069023.9426   6   3   0.1630   0.1319   0.1517   0.0979   0.1157   0.1497   0.00    0.0
2091  11070.000   4121947.5576   2652189.4161   4069023.9365   6   3   0.1623   0.1311   0.1509   0.0969   0.1148   0.1489   0.00    0.0
2091  11130.000   4121947.5495   2652189.4067   4069023.9263   6   3   0.1616   0.1302   0.1501   0.0959   0.1138   0.1481   0.00    0.0
2091  11400.000   4121947.5481   2652189.3701   4069023.9056   6   4   0.1601   0.1281   0.1482   0.0936   0.1115   0.1464   0.00    0.0
2091  11430.000   4121947.5447   2652189.3478   4069023.8919   6   4   0.1591   0.1268   0.1471   0.0922   0.1100   0.1453   0.00    0.0
2091  11460.000   4121947.5442   2652189.3392   4069023.8863   6   4   0.1585   0.1261   0.1464   0.0915   0.1092   0.1447   0.00    0.0
2091  11490.000   4121947.5450   2652189.3331   4069023.8832   6   4   0.1581   0.1256   0.1460   0.0911   0.1088   0.1444   0.00    0.0
2091  11520.000   4121947.5470   2652189.3277   4069023.8813   6   4   0.1579   0.1252   0.1458   0.0909   0.1085   0.1441   0.00    0.0
2091  11550.000   4121947.5490   2652189.3227   4069023.8797   6   4   0.1577   0.1250   0.1456   0.0907   0.1083   0.1439   0.00    0.0
2091  11580.000   4121947.5496   2652189.3094   4069023.8743   6   5   0.1574   0.1245   0.1453   0.0905   0.1080   0.1436   0.00    0.0
2091  11610.000   4121947.5490   2652189.2953   4069023.8677   6   5   0.1570   0.1239   0.1449   0.0901   0.1075   0.1432   0.00    0.0
2091  11640.000   4121947.5454   2652189.2759   4069023.8565   6   5   0.1563   0.1229   0.1441   0.0893   0.1066   0.1426   0.00    0.0
2091  11670.000   4121947.5362   2652189.2431   4069023.8345   6   5   0.1553   0.1214   0.1429   0.0879   0.1051   0.1415   0.00    0.0
2091  11700.000   4121947.5244   2652189.2107   4069023.8103   6   4   0.1542   0.1196   0.1414   0.0860   0.1031   0.1401   0.00    0.0
2091  11730.000   4121947.5196   2652189.1965   4069023.8015   6   4   0.1534   0.1184   0.1404   0.0848   0.1019   0.1393   0.00    0.0
2091  11760.000   4121947.5195   2652189.1857   4069023.7977   6   5   0.1529   0.1176   0.1399   0.0842   0.1012   0.1387   0.00    0.0
2091  11790.000   4121947.5217   2652189.1754   4069023.7952   6   5   0.1525   0.1171   0.1396   0.0840   0.1008   0.1384   0.00    0.0
2091  11820.000   4121947.5233   2652189.1653   4069023.7925   6   5   0.1523   0.1168   0.1393   0.0838   0.1006   0.1382   0.00    0.0
2091  11850.000   4121947.5251   2652189.1558   4069023.7901   6   5   0.1521   0.1165   0.1392   0.0838   0.1005   0.1381   0.00    0.0
2091  11880.000   4121947.5254   2652189.1439   4069023.7853   6   5   0.1519   0.1161   0.1390   0.0836   0.1002   0.1378   0.00    0.0
2091  11910.000   4121947.5256   2652189.1308   4069023.7794   6   5   0.1515   0.1155   0.1386   0.0833   0.0998   0.1375   0.00    0.0
2091  11940.000   4121947.5240   2652189.1138   4069023.7702   6   5   0.1510   0.1147   0.1380   0.0827   0.0991   0.1370   0.00    0.0
2091  11970.000   4121947.5168   2652189.0801   4069023.7474   6   5   0.1502   0.1135   0.1370   0.0815   0.0978   0.1361   0.00    0.0
2091  12000.000   4121947.5085   2652189.0490   4069023.7258   6   5   0.1492   0.1118   0.1358   0.0801   0.0961   0.1350   0.00    0.0
2091  12030.000   4121947.5095   2652189.0326   4069023.7178   6   5   0.1484   0.1107   0.1350   0.0791   0.0951   0.1343   0.00    0.0
2091  12060.000   4121947.5115   2652189.0200   4069023.7125   6   5   0.1480   0.1101   0.1345   0.0787   0.0946   0.1338   0.00    0.0
2091  12090.000   4121947.5131   2652189.0102   4069023.7085   6   5   0.1477   0.1097   0.1343   0.0785   0.0943   0.1336   0.00    0.0
2091  12120.000   4121947.5171   2652189.0057   4069023.7089   6   5   0.1476   0.1095   0.1342   0.0786   0.0943   0.1335   0.00    0.0
2091  12150.000   4121947.5202   2652189.0014   4069023.7091   6   5   0.1475   0.1094   0.1342   0.0787   0.0943   0.1335   0.00    0.0
2091  12180.000   4121947.5238   2652188.9962   4069023.7089   6   5   0.1474   0.1092   0.1342   0.0788   0.0943   0.1334   0.00    0.0
2091  12210.000   4121947.5276   2652188.9901   4069023.7084   6   5   0.1473   0.1090   0.1341   0.0789   0.0942   0.1333   0.00    0.0
2091  12240.000   4121947.5308   2652188.9856   4069023.7087   6   5   0.1471   0.1087   0.1340   0.0789   0.0942   0.1332   0.00    0.0
2091  12270.000   4121947.5364   2652188.9792   4069023.7088   6   5   0.1468   0.1083   0.1339   0.0790   0.0941   0.1331   0.00    0.0
2091  12300.000   4121947.5474   2652188.9667   4069023.7078   6   5   0.1465   0.1079   0.1338   0.0791   0.0939   0.1330   0.00    0.0
2091  12330.000   4121947.5555   2652188.9564   4069023.7069   6   5   0.1463   0.1076   0.1338   0.0791   0.0938   0.1329   0.00    0.0
2091  12360.000   4121947.5616   2652188.9491   4069023.7068   6   5   0.1462   0.1074   0.1337   0.0792   0.0938   0.1328   0.00    0.0
2091  12390.000   4121947.5643   2652188.9459   4069023.7070   6   4   0.1461   0.1072   0.1337   0.0793   0.0938   0.1328   0.00    0.0
2091  12420.000   4121947.5693   2652188.9410   4069023.7080   6   5   0.1460   0.1071   0.1337   0.0794   0.0938   0.1328   0.00    0.0
2091  12450.000   4121947.5734   2652188.9371   4069023.7090   6   5   0.1459   0.1070   0.1336   0.0795   0.0938   0.1327   0.00    0.0
2091  12480.000   4121947.5775   2652188.9332   4069023.7098   6   5   0.1458   0.1068   0.1336   0.0796   0.0938   0.1327   0.00    0.0
2091  12510.000   4121947.5824   2652188.9285   4069023.7104   6   5   0.1457   0.1067   0.1336   0.0797   0.0939   0.1326   0.00    0.0
2091  12540.000   4121947.5896   2652188.9213   4069023.7103   6   5   0.1456   0.1065   0.1335   0.0798   0.0939   0.1326   0.00    0.0
2091  12570.000   4121947.5977   2652188.9144   4069023.7107   6   5   0.1454   0.1063   0.1335   0.0800   0.0938   0.1325   0.00    0.0
2091  12600.000   4121947.6097   2652188.9051   4069023.7111   6   5   0.1451   0.1061   0.1335   0.0802   0.0938   0.1325   0.00    0.0
2091  12630.000   4121947.6175   2652188.8996   4069023.7122   6   5   0.1449   0.1059   0.1334   0.0804   0.0938   0.1324   0.00    0.0
2091  12660.000   4121947.6236   2652188.8939   4069023.7124   6   5   0.1448   0.1057   0.1334   0.0805   0.0938   0.1324   0.00    0.0
2091  12690.000   4121947.6280   2652188.8894   4069023.7127   6   5   0.1447   0.1056   0.1334   0.0806   0.0938   0.1323   0.00    0.0
2091  12720.000   4121947.6319   2652188.8852   4069023.7132   6   5   0.1446   0.1055   0.1334   0.0807   0.0938   0.1323   0.00    0.0
2091  12750.000   4121947.6356   2652188.8814   4069023.7136   6   5   0.1446   0.1054   0.1333   0.0808   0.0939   0.1323   0.00    0.0
2091  12780.000   4121947.6395   2652188.8772   4069023.7140   6   5   0.1445   0.1052   0.1333   0.0809   0.0939   0.1322   0.00    0.0
2091  12810.000   4121947.6450   2652188.8721   4069023.7144   6   5   0.1444   0.1051   0.1333   0.0810   0.0939   0.1322   0.00    0.0
2091  12840.000   4121947.6524   2652188.8635   4069023.7139   6   5   0.1443   0.1049   0.1333   0.0811   0.0939   0.1322   0.00    0.0
2091  12870.000   4121947.6621   2652188.8521   4069023.7127   6   5   0.1441   0.1047   0.1332   0.0813   0.0938   0.1322   0.00    0.0
2091  12900.000   4121947.6737   2652188.8387   4069023.7114   6   5   0.1439   0.1043   0.1332   0.0815   0.0938   0.1321   0.00    0.0
2091  12930.000   4121947.6802   2652188.8330   4069023.7121   6   5   0.1438   0.1040   0.1331   0.0817   0.0937   0.1321   0.00    0.0
2091  12960.000   4121947.6851   2652188.8267   4069023.7120   6   5   0.1437   0.1039   0.1331   0.0818   0.0937   0.1321   0.00    0.0
2091  12990.000   4121947.6894   2652188.8212   4069023.7119   6   5   0.1436   0.1037   0.1331   0.0819   0.0937   0.1321   0.00    0.0
2091  13020.000   4121947.6933   2652188.8160   4069023.7121   6   5   0.1435   0.1036   0.1330   0.0820   0.0937   0.1320   0.00    0.0
2091  13050.000   4121947.6971   2652188.8110   4069023.7122   6   5   0.1435   0.1035   0.1330   0.0821   0.0937   0.1320   0.00    0.0
2091  13080.000   4121947.7014   2652188.8042   4069023.7120   6   5   0.1434   0.1034   0.1330   0.0821   0.0937   0.1320   0.00    0.0
2091  13110.000   4121947.7064   2652188.7956   4069023.7113   6   5   0.1433   0.1032   0.1330   0.0822   0.0937   0.1319   0.00    0.0
2091  13140.000   4121947.7125   2652188.7855   4069023.7107   6   5   0.1432   0.1030   0.1329   0.0824   0.0937   0.1319   0.00    0.0
2091  13170.000   4121947.7196   2652188.7768   4069023.7106   6   4   0.1431   0.1026   0.1329   0.0826   0.0937   0.1319   0.00    0.0
2091  13200.000   4121947.7302   2652188.7600   4069023.7080   6   5   0.1429   0.1022   0.1329   0.0829   0.0936   0.1319   0.00    0.0
2091  13230.000   4121947.7393   2652188.7454   4069023.7058   6   5   0.1428   0.1019   0.1328   0.0831   0.0936   0.1319   0.00    0.0
2091  13260.000   4121947.7462   2652188.7347   4069023.7046   6   5   0.1428   0.1017   0.1328   0.0832   0.0935   0.1319   0.00    0.0
2091  13290.000   4121947.7509   2652188.7285   4069023.7045   6   5   0.1427   0.1015   0.1328   0.0833   0.0935   0.1319   0.00    0.0
2091  13320.000   4121947.7547   2652188.7241   4069023.7048   6   5   0.1426   0.1014   0.1327   0.0834   0.0935   0.1319   0.00    0.0
2091  13350.000   4121947.7558   2652188.7217   4069023.7041   6   4   0.1426   0.1013   0.1327   0.0834   0.0935   0.1319   0.00    0.0
2091  13380.000   4121947.7573   2652188.7183   4069023.7031   6   5   0.1426   0.1012   0.1327   0.0835   0.0935   0.1318   0.00    0.0
2091  13410.000   4121947.7596   2652188.7157   4069023.7027   6   5   0.1425   0.1011   0.1327   0.0836   0.0935   0.1318   0.00    0.0
2091  13440.000   4121947.7626   2652188.7128   4069023.7023   6   5   0.1424   0.1009   0.1326   0.0837   0.0935   0.1318   0.00    0.0
2091  13470.000   4121947.7679   2652188.7059   4069023.7003   6   5   0.1423   0.1006   0.1326   0.0838   0.0934   0.1318   0.00    0.0
2091  13500.000   4121947.7754   2652188.6948   4069023.6966   6   5   0.1422   0.1003   0.1325   0.0841   0.0933   0.1319   0.00    0.0
2091  13530.000   4121947.7817   2652188.6859   4069023.6945   6   5   0.1422   0.1000   0.1324   0.0842   0.0932   0.1319   0.00    0.0
2091  13560.000   4121947.7866   2652188.6793   4069023.6932   6   4   0.1421   0.0998   0.1324   0.0843   0.0931   0.1318   0.00    0.0
2091  13590.000   4121947.7898   2652188.6746   4069023.6925   6   5   0.1421   0.0997   0.1324   0.0844   0.0931   0.1318   0.00    0.0
2091  13620.000   4121947.7926   2652188.6703   4069023.6920   6   5   0.1420   0.0996   0.1323   0.0844   0.0931   0.1318   0.00    0.0
2091  13650.000   4121947.7952   2652188.6676   4069023.6922   6   4   0.1420   0.0995   0.1323   0.0845   0.0931   0.1318   0.00    0.0
2091  13680.000   4121947.7961   2652188.6636   4069023.6904   6   5   0.1419   0.0994   0.1323   0.0845   0.0931   0.1318   0.00    0.0
2091  13710.000   4121947.7964   2652188.6605   4069023.6889   6   5   0.1419   0.0993   0.1322   0.0846   0.0930   0.1317   0.00    0.0
2091  13740.000   4121947.7977   2652188.6565   4069023.6872   6   5   0.1418   0.0991   0.1322   0.0847   0.0930   0.1317   0.00    0.0
2091  13770.000   4121947.8011   2652188.6470   4069023.6829   6   5   0.1417   0.0988   0.1321   0.0848   0.0928   0.1317   0.00    0.0
2091  13800.000   4121947.8070   2652188.6327   4069023.6769   6   4   0.1417   0.0983   0.1319   0.0849   0.0926   0.1317   0.00    0.0
2091  13830.000   4121947.8120   2652188.6211   4069023.6722   6   4   0.1416   0.0980   0.1318   0.0851   0.0924   0.1317   0.00    0.0
2091  13860.000   4121947.8145   2652188.6167   4069023.6710   6   5   0.1415   0.0978   0.1318   0.0851   0.0923   0.1317   0.00    0.0
2091  13890.000   4121947.8169   2652188.6135   4069023.6706   6   5   0.1415   0.0977   0.1317   0.0852   0.0923   0.1317   0.00    0.0
2091  13920.000   4121947.8192   2652188.6105   4069023.6704   6   5   0.1414   0.0976   0.1317   0.0852   0.0923   0.1316   0.00    0.0
2091  13950.000   4121947.8216   2652188.6078   4069023.6705   6   4   0.1414   0.0975   0.1316   0.0852   0.0923   0.1316   0.00    0.0
2091  13980.000   4121947.8241   2652188.6039   4069023.6701   6   4   0.1414   0.0974   0.1316   0.0853   0.0922   0.1316   0.00    0.0
2091  14010.000   4121947.8267   2652188.5983   4069023.6686   6   5   0.1413   0.0972   0.1315   0.0853   0.0922   0.1315   0.00    0.0
2091  14040.000   4121947.8298   2652188.5896   4069023.6654   6   5   0.1413   0.0970   0.1314   0.0854   0.0921   0.1315   0.00    0.0
2091  14070.000   4121947.8353   2652188.5725   4069023.6585   6   5   0.1412   0.0965   0.1313   0.0854   0.0918   0.1315   0.00    0.0
2091  14100.000   4121947.8400   2652188.5538   4069023.6500   6   5   0.1411   0.0959   0.1310   0.0855   0.0914   0.1314   0.00    0.0
2091  14130.000   4121947.8444   2652188.5412   4069023.6450   6   5   0.1410   0.0955   0.1309   0.0856   0.0912   0.1314   0.00    0.0
2091  14160.000   4121947.8476   2652188.5335   4069023.6424   6   5   0.1409   0.0953   0.1308   0.0856   0.0911   0.1313   0.00    0.0
2091  14190.000   4121947.8501   2652188.5287   4069023.6415   6   5   0.1409   0.0952   0.1307   0.0856   0.0911   0.1313   0.00    0.0
2091  14220.000   4121947.8524   2652188.5251   4069023.6410   6   5   0.1409   0.0950   0.1307   0.0856   0.0910   0.1312   0.00    0.0
2091  14250.000   4121947.8543   2652188.5221   4069023.6406   6   4   0.1408   0.0950   0.1306   0.0857   0.0910   0.1312   0.00    0.0
2091  14280.000   4121947.8561   2652188.5184   4069023.6397   6   5   0.1408   0.0948   0.1306   0.0857   0.0910   0.1312   0.00    0.0
2091  14310.000   4121947.8584   2652188.5127   4069023.6378   6   4   0.1407   0.0947   0.1305   0.0857   0.0909   0.1311   0.00    0.0
2091  14340.000   4121947.8617   2652188.5027   4069023.6345   6   4   0.1406   0.0944   0.1303   0.0857   0.0908   0.1311   0.00    0.0
2091  14370.000   4121947.8645   2652188.4905   4069023.6295   6   4   0.1405   0.0939   0.1301   0.0857   0.0905   0.1310   0.00    0.0
2091  14400.000   4121947.8688   2652188.4731   4069023.6228   6   5   0.1404   0.0932   0.1298   0.0857   0.0901   0.1308   0.00    0.0
2091  14430.000   4121947.8720   2652188.4611   4069023.6187   6   4   0.1403   0.0928   0.1296   0.0857   0.0898   0.1307   0.00    0.0
2091  14460.000   4121947.8743   2652188.4544   4069023.6165   6   5   0.1402   0.0925   0.1294   0.0857   0.0897   0.1306   0.00    0.0
2091  14490.000   4121947.8762   2652188.4502   4069023.6152   6   4   0.1401   0.0924   0.1294   0.0857   0.0896   0.1306   0.00    0.0
2091  14520.000   4121947.8776   2652188.4482   4069023.6147   6   5   0.1401   0.0923   0.1293   0.0857   0.0896   0.1305   0.00    0.0
2091  14550.000   4121947.8792   2652188.4469   4069023.6147   6   5   0.1400   0.0922   0.1292   0.0858   0.0896   0.1305   0.00    0.0
2091  14580.000   4121947.8808   2652188.4449   4069023.6143   6   5   0.1400   0.0920   0.1292   0.0858   0.0895   0.1304   0.00    0.0
2091  14610.000   4121947.8832   2652188.4405   4069023.6135   6   4   0.1399   0.0919   0.1291   0.0858   0.0894   0.1304   0.00    0.0
2091  14640.000   4121947.8849   2652188.4360   4069023.6122   6   4   0.1398   0.0916   0.1289   0.0857   0.0893   0.1302   0.00    0.0
2091  14670.000   4121947.8883   2652188.4236   4069023.6094   6   4   0.1396   0.0910   0.1286   0.0857   0.0889   0.1301   0.00    0.0
2091  14700.000   4121947.8936   2652188.4057   4069023.6053   6   4   0.1394   0.0902   0.1282   0.0856   0.0885   0.1298   0.00    0.0
2091  14730.000   4121947.8962   2652188.3963   4069023.6030   6   5   0.1392   0.0897   0.1279   0.0856   0.0882   0.1296   0.00    0.0
2091  14760.000   4121947.8985   2652188.3908   4069023.6023   6   4   0.1391   0.0894   0.1277   0.0855   0.0881   0.1295   0.00    0.0
2091  14790.000   4121947.9005   2652188.3875   4069023.6026   6   4   0.1390   0.0893   0.1276   0.0855   0.0880   0.1294   0.00    0.0
2091  14820.000   4121947.9024   2652188.3848   4069023.6029   6   4   0.1390   0.0891   0.1275   0.0855   0.0879   0.1294   0.00    0.0
2091  14850.000   4121947.9040   2652188.3828   4069023.6032   6   5   0.1389   0.0891   0.1274   0.0855   0.0879   0.1293   0.00    0.0
2091  14880.000   4121947.9055   2652188.3805   4069023.6030   6   4   0.1389   0.0889   0.1274   0.0855   0.0878   0.1292   0.00    0.0
2091  14910.000   4121947.9077   2652188.3767   4069023.6030   6   4   0.1388   0.0887   0.1272   0.0855   0.0878   0.1291   0.00    0.0
2091  14940.000   4121947.9102   2652188.3710   4069023.6029   6   4   0.1386   0.0884   0.1270   0.0854   0.0876   0.1290   0.00    0.0
2091  14970.000   4121947.9143   2652188.3616   4069023.6034   6   4   0.1384   0.0878   0.1266   0.0853   0.0872   0.1287   0.00    0.0
2091  15000.000   4121947.9207   2652188.3450   4069023.6029   6   4   0.1381   0.0870   0.1261   0.0852   0.0868   0.1283   0.00    0.0
2091  15030.000   4121947.9260   2652188.3340   4069023.6035   6   4   0.1378   0.0864   0.1257   0.0851   0.0865   0.1280   0.00    0.0
2091  15060.000   4121947.9303   2652188.3274   4069023.6051   6   5   0.1377   0.0861   0.1255   0.0851   0.0863   0.1279   0.00    0.0
2091  15090.000   4121947.9344   2652188.3225   4069023.6068   6   4   0.1376   0.0860   0.1253   0.0850   0.0862   0.1278   0.00    0.0
2091  15120.000   4121947.9371   2652188.3191   4069023.6077   6   4   0.1375   0.0858   0.1252   0.0850   0.0862   0.1277   0.00    0.0
2091  15150.000   4121947.9395   2652188.3162   4069023.6084   6   4   0.1374   0.0858   0.1252   0.0850   0.0861   0.1276   0.00    0.0
2091  15180.000   4121947.9419   2652188.3132   4069023.6089   6   4   0.1374   0.0856   0.1251   0.0850   0.0861   0.1276   0.00    0.0
2091  15210.000   4121947.9445   2652188.3093   4069023.6093   6   4   0.1372   0.0854   0.1249   0.0850   0.0860   0.1274   0.00    0.0
2091  15240.000   4121947.9477   2652188.3032   4069023.6101   6   4   0.1371   0.0851   0.1246   0.0849   0.0858   0.1272   0.00    0.0
2091  15270.000   4121947.9529   2652188.2916   4069023.6108   6   4   0.1367   0.0845   0.1242   0.0848   0.0855   0.1268   0.00    0.0
2091  15300.000   4121947.9600   2652188.2779   4069023.6131   6   4   0.1363   0.0837   0.1235   0.0846   0.0850   0.1263   0.00    0.0
2091  15330.000   4121947.9678   2652188.2661   4069023.6175   6   4   0.1360   0.0831   0.1231   0.0844   0.0847   0.1260   0.00    0.0
2091  15360.000   4121947.9748   2652188.2581   4069023.6214   6   4   0.1358   0.0828   0.1228   0.0844   0.0846   0.1258   0.00    0.0
2091  15390.000   4121947.9810   2652188.2519   4069023.6252   6   4   0.1357   0.0827   0.1227   0.0843   0.0845   0.1256   0.00    0.0
2091  15420.000   4121947.9850   2652188.2482   4069023.6275   6   4   0.1356   0.0826   0.1225   0.0843   0.0844   0.1256   0.00    0.0
2091  15450.000   4121947.9878   2652188.2454   4069023.6287   6   4   0.1355   0.0825   0.1225   0.0843   0.0844   0.1255   0.00    0.0
2091  15480.000   4121947.9908   2652188.2428   4069023.6306   6   4   0.1354   0.0824   0.1223   0.0843   0.0844   0.1254   0.00    0.0
2091  15510.000   4121947.9949   2652188.2395   4069023.6336   6   4   0.1353   0.0822   0.1222   0.0842   0.0843   0.1252   0.00    0.0
2091  15540.000   4121948.0013   2652188.2337   4069023.6387   6   4   0.1351   0.0818   0.1218   0.0841   0.0841   0.1250   0.00    0.0
2091  15570.000   4121948.0095   2652188.2253   4069023.6448   6   4   0.1347   0.0813   0.1213   0.0840   0.0838   0.1245   0.00    0.0
2091  15600.000   4121948.0184   2652188.2128   4069023.6498   6   4   0.1341   0.0805   0.1205   0.0837   0.0833   0.1239   0.00    0.0
2091  15630.000   4121948.0225   2652188.2068   4069023.6516   6   4   0.1337   0.0800   0.1200   0.0836   0.0830   0.1234   0.00    0.0
2091  15660.000   4121948.0275   2652188.2019   4069023.6552   6   4   0.1335   0.0797   0.1197   0.0835   0.0829   0.1232   0.00    0.0
2091  15690.000   4121948.0317   2652188.1987   4069023.6583   6   4   0.1334   0.0796   0.1195   0.0834   0.0828   0.1230   0.00    0.0
2091  15720.000   4121948.0336   2652188.1970   4069023.6593   6   4   0.1333   0.0795   0.1194   0.0834   0.0827   0.1229   0.00    0.0
2091  15750.000   4121948.0351   2652188.1958   4069023.6599   6   4   0.1332   0.0794   0.1193   0.0834   0.0827   0.1228   0.00    0.0
2091  15780.000   4121948.0376   2652188.1940   4069023.6615   6   4   0.1331   0.0793   0.1192   0.0834   0.0827   0.1227   0.00    0.0
2091  15810.000   4121948.0394   2652188.1928   4069023.6630   6   4   0.1329   0.0791   0.1190   0.0833   0.0826   0.1225   0.00    0.0
2091  15840.000   4121948.0419   2652188.1904   4069023.6652   6   4   0.1326   0.0788   0.1186   0.0832   0.0824   0.1222   0.00    0.0
2091  15870.000   4121948.0463   2652188.1850   4069023.6687   6   4   0.1321   0.0783   0.1180   0.0830   0.0821   0.1217   0.00    0.0
2091  15900.000   4121948.0569   2652188.1746   4069023.6768   6   4   0.1315   0.0776   0.1171   0.0828   0.0817   0.1210   0.00    0.0
2091  15930.000   4121948.0658   2652188.1694   4069023.6844   6   4   0.1310   0.0771   0.1165   0.0826   0.0814   0.1204   0.00    0.0
2091  15960.000   4121948.0688   2652188.1677   4069023.6870   6   4   0.1307   0.0768   0.1161   0.0825   0.0812   0.1201   0.00    0.0
2091  15990.000   4121948.0715   2652188.1663   4069023.6889   6   4   0.1306   0.0767   0.1159   0.0824   0.0811   0.1199   0.00    0.0
2091  16020.000   4121948.0732   2652188.1655   4069023.6901   6   4   0.1305   0.0766   0.1158   0.0824   0.0811   0.1198   0.00    0.0
2091  16050.000   4121948.0753   2652188.1648   4069023.6916   6   4   0.1304   0.0765   0.1157   0.0824   0.0810   0.1197   0.00    0.0
2091  16080.000   4121948.0771   2652188.1640   4069023.6926   6   4   0.1303   0.0765   0.1156   0.0823   0.0810   0.1196   0.00    0.0
2091  16110.000   4121948.0800   2652188.1627   4069023.6949   6   4   0.1301   0.0763   0.1153   0.0822   0.0809   0.1194   0.00    0.0
2091  16140.000   4121948.0835   2652188.1611   4069023.6977   6   4   0.1297   0.0760   0.1149   0.0821   0.0807   0.1190   0.00    0.0
2091  16170.000   4121948.0884   2652188.1578   4069023.7015   6   4   0.1292   0.0756   0.1141   0.0819   0.0804   0.1183   0.00    0.0
2091  16200.000   4121948.0874   2652188.1544   4069023.6989   6   5   0.1287   0.0749   0.1136   0.0815   0.0798   0.1179   0.00    0.0
2091  16230.000   4121948.0882   2652188.1517   4069023.6978   6   5   0.1284   0.0745   0.1132   0.0812   0.0794   0.1175   0.00    0.0
2091  16260.000   4121948.0892   2652188.1501   4069023.6972   6   5   0.1282   0.0743   0.1131   0.0810   0.0793   0.1174   0.00    0.0
2091  16290.000   4121948.0899   2652188.1491   4069023.6967   6   5   0.1281   0.0742   0.1129   0.0810   0.0792   0.1173   0.00    0.0
2091  16320.000   4121948.0913   2652188.1484   4069023.6968   6   5   0.1281   0.0741   0.1129   0.0809   0.0791   0.1172   0.00    0.0
2091  16350.000   4121948.0924   2652188.1479   4069023.6970   6   5   0.1280   0.0741   0.1128   0.0809   0.0791   0.1171   0.00    0.0
2091  16380.000   4121948.0935   2652188.1472   4069023.6971   6   5   0.1279   0.0740   0.1127   0.0808   0.0790   0.1171   0.00    0.0
2091  16410.000   4121948.0952   2652188.1459   4069023.6975   6   5   0.1278   0.0739   0.1126   0.0808   0.0789   0.1170   0.00    0.0
2091  16440.000   4121948.0985   2652188.1436   4069023.6987   6   5   0.1276   0.0736   0.1124   0.0806   0.0787   0.1168   0.00    0.0
2091  16470.000   4121948.1037   2652188.1393   4069023.7000   6   5   0.1273   0.0733   0.1121   0.0803   0.0783   0.1164   0.00    0.0
2091  16500.000   4121948.1043   2652188.1348   4069023.6984   6   5   0.1268   0.0727   0.1116   0.0799   0.0778   0.1160   0.00    0.0
2091  16530.000   4121948.1067   2652188.1315   4069023.6984   6   5   0.1265   0.0724   0.1113   0.0797   0.0775   0.1157   0.00    0.0
2091  16560.000   4121948.1079   2652188.1301   4069023.6983   6   5   0.1264   0.0722   0.1111   0.0796   0.0774   0.1155   0.00    0.0
2091  16590.000   4121948.1090   2652188.1293   4069023.6984   6   5   0.1263   0.0721   0.1110   0.0795   0.0773   0.1154   0.00    0.0
2091  16620.000   4121948.1104   2652188.1284   4069023.6987   6   5   0.1262   0.0720   0.1110   0.0795   0.0773   0.1154   0.00    0.0
2091  16650.000   4121948.1118   2652188.1276   4069023.6992   6   5   0.1261   0.0720   0.1109   0.0795   0.0772   0.1153   0.00    0.0
2091  16680.000   4121948.1131   2652188.1267   4069023.6999   6   5   0.1261   0.0719   0.1109   0.0794   0.0772   0.1152   0.00    0.0
